prenom,nom,sexe,email,pseudo,password,orientation,bio,interests,profile_picture,date_birth,latitude,longitude,fame_rating
janeka,Vincent,female,janeka.Vincent.1@email.fr,janekaV1,janekaV1999,bisexual,Il est / C'est difficile de ,"sea,mountain,music,tv,sport,friends,geek",street-performers-870119_640.jpg,11-3-1979,48.9405970000008,2.46736800000001,10
corrine,Leconte,female,corrine.Leconte.2@email.fr,corrineL2,corrineL2999,male,Vos affaires sont toutes là. ,"geek,tv,vegan,lazy,music",sonam-prajapati-6893225_640.jpg,10-24-1983,48.8255970000003,2.294868,5
antipater,Maillard,male,antipater.Maillard.3@email.fr,antipaterM3,antipaterM3999,male,Je suis marié. ,"geek,sport,vegan,music,sea,mountain,piercing,tv",64_photo_112233.jpeg,6-16-1955,48.8760970000005,2.37061800000001,9
raluca,Perrot,female,raluca.Perrot.4@email.fr,ralucaP4,ralucaP4999,male,Voudriez-vous acheter ça ? ,"mountain,geek,friends,piercing,sea,vegan,sport",drama-1155445_640.jpg,5-6-1956,48.777097,2.222118,6
luchjo,Costa,male,luchjo.Costa.5@email.fr,luchjoC5,luchjoC5999,bisexual,It's impossible ,"sport,music,friends,sea,mountain,lazy,tv",man-7971966_640.jpg,3-23-1964,48.9585970000009,2.49436800000001,10
elmira,Berthelot,female,elmira.Berthelot.6@email.fr,elmiraB6,elmiraB6999,female,Je ne sais pas m'en servir. ,"geek,tv,vegan,lazy,music",98_photo_112233.jpeg,12-19-2001,48.8800970000005,2.37661800000001,3
polyxena,Carpentier,female,polyxena.Carpentier.7@email.fr,polyxenaC7,polyxenaC7999,bisexual,Partageons. ,"friends,vegan,lazy,sea,tv,sport,music",street-performers-870119_640.jpg,9-20-1997,48.8665970000005,2.35636800000001,8
jordan,Sauvage,male,jordan.Sauvage.8@email.fr,jordanS8,jordanS8999,female,Elle est intelligente. ,"geek,piercing,music,lazy,tv",portrait-3241737_640.jpg,9-21-1989,48.9545970000009,2.48836800000001,6
concetto,Marty,male,concetto.Marty.9@email.fr,concettoM9,concettoM9999,male,Je suis très occupé. Je n'ai pas le temps maintenant. ,"mountain,piercing,sport,music,vegan",9_photo_112233.jpeg,1-2-1999,48.9030970000006,2.41111800000001,5
wlodzimierz,Fouquet,male,wlodzimierz.Fouquet.10@email.fr,wlodzimierzF10,wlodzimierzF10999,male,Juste là. ,"mountain,lazy,piercing,sport,vegan",mountain-5823822_640.jpg,8-12-1980,48.9600970000009,2.49661800000001,10
burt,Raynaud,male,burt.Raynaud.11@email.fr,burtR11,burtR11999,female,Je ne vous entends pas. ,"mountain,geek,tv",man-210379_640.jpg,5-19-1995,48.769597,2.210868,4
terezija,Vidal,female,terezija.Vidal.12@email.fr,terezijaV12,terezijaV12999,male,Où est-ce que tu habites ? ,"sport,music,vegan,piercing,mountain,sea,tv,friends,lazy",woman-1462686_640.jpg,9-28-1972,48.9060970000007,2.41561800000001,4
ramsey,Lejeune,male,ramsey.Lejeune.13@email.fr,ramseyL13,ramseyL13999,bisexual,Nous l'aimons beaucoup. ,"piercing,vegan,tv,mountain,sport,music,sea,lazy,geek",23_photo_112233.jpeg,11-26-1996,48.9360970000008,2.46061800000001,10
ervins,Verdier,male,ervins.Verdier.14@email.fr,ervinsV14,ervinsV14999,male,Quelle est votre attitude à l'égard de ,"piercing,sea,vegan,geek,lazy,sport",brett-952579_640.jpg,4-25-2003,48.9560970000009,2.49061800000001,2
valora,Bailly,female,valora.Bailly.15@email.fr,valoraB15,valoraB15999,male,Il est agréable ,tv,105_photo_112233.jpeg,8-11-1956,48.9585970000009,2.49436800000001,9
leela,Blanc,female,leela.Blanc.16@email.fr,leelaB16,leelaB16999,bisexual,Ma fille est ici. ,music,72_photo_112233.jpeg,8-20-1997,48.8480970000004,2.328618,3
kapel,Pineau,male,kapel.Pineau.17@email.fr,kapelP17,kapelP17999,female,S'il vous plaît emmenez-moi à cette adresse. ,"tv,music,mountain,geek,sea",97_photo_112233.jpeg,4-2-1963,48.8785970000005,2.37436800000001,9
luitgard,Fontaine,female,luitgard.Fontaine.18@email.fr,luitgardF18,luitgardF18999,female,Il est maigre. ,"sea,vegan,friends,geek,lazy",28_photo_112233.jpeg,8-27-1956,48.8015970000002,2.258868,9
firdaus,Breton,male,firdaus.Breton.19@email.fr,firdausB19,firdausB19999,male,Il est / C'est sûr que ,friends,street-performers-870113_640.jpg,10-7-1991,48.8535970000004,2.336868,4
christabel,Lebreton,female,christabel.Lebreton.20@email.fr,christabelL20,christabelL20999,male,Il a raison. ,sea,model-3362457_640.jpg,11-19-1962,48.8800970000005,2.37661800000001,10
kobina,Tran,male,kobina.Tran.21@email.fr,kobinaT21,kobinaT21999,male,Quel est votre nom de famille ? ,"mountain,piercing,friends,music,tv,vegan,lazy,sea,geek,sport",businessman-6248246_640.jpg,2-11-1979,48.8260970000003,2.295618,7
stina,Vial,female,stina.Vial.22@email.fr,stinaV22,stinaV22999,female,Il est mignon. ,"sport,geek,sea,lazy,piercing,friends,vegan,tv,music",98_photo_112233.jpeg,1-16-1957,48.9005970000006,2.40736800000001,7
aarne,Jacquot,male,aarne.Jacquot.23@email.fr,aarneJ23,aarneJ23999,female,Je pense que c'est bon. ,"tv,sport,music,vegan,geek,mountain,lazy,friends,sea",yoga-day-4329896_640.jpg,1-1-1972,48.8825970000005,2.38036800000001,10
gervasio,Leconte,male,gervasio.Leconte.24@email.fr,gervasioL24,gervasioL24999,bisexual,Je voudrais connaître / avoir votre réaction face à ,"mountain,music,tv,sport,geek,sea,friends,piercing,lazy,vegan",man-8245780_640.webp,5-20-1997,48.9105970000007,2.42236800000001,8
marcel,Berthelot,male,marcel.Berthelot.25@email.fr,marcelB25,marcelB25999,male,Vraiment? ,"geek,tv,vegan,lazy,music",78_photo_112233.jpeg,12-10-1985,48.9255970000008,2.44486800000001,9
debbie,Sauvage,female,debbie.Sauvage.26@email.fr,debbieS26,debbieS26999,bisexual,Tout dépend de,"lazy,vegan,music",11_photo_112233.jpeg,11-25-1985,48.8370970000003,2.312118,9
kemp,Perret,male,kemp.Perret.27@email.fr,kempP27,kempP27999,male,Où est-ce que tu travaillais avant d'être avec nous ici ? ,"sea,vegan,geek,tv,lazy",7_photo_112233.jpeg,5-1-1959,48.769597,2.210868,3
pamella,Peltier,female,pamella.Peltier.28@email.fr,pamellaP28,pamellaP28999,bisexual,Juste un peu. ,"sea,friends,piercing,mountain",61_photo_112233.jpeg,12-18-1985,48.7920970000001,2.244618,10
nicostrato,Barbe,male,nicostrato.Barbe.29@email.fr,nicostratoB29,nicostratoB29999,bisexual,Il a les cheveux raides. ,"vegan,sport,piercing,mountain",57_photo_112233.jpeg,7-25-1958,48.9120970000007,2.42461800000001,7
tormod,Royer,male,tormod.Royer.30@email.fr,tormodR30,tormodR30999,male,Tout est prêt. ,"mountain,geek,tv",2_photo_112233.jpeg,7-1-1981,48.8960970000006,2.40061800000001,6
frederik,Berger,male,frederik.Berger.31@email.fr,frederikB31,frederikB31999,male,Cette voiture ressemble à ma voiture. ,"piercing,friends,geek,sport,music",42_photo_112233.jpeg,5-20-1982,48.9260970000008,2.44561800000001,4
manlio,Tran,male,manlio.Tran.32@email.fr,manlioT32,manlioT32999,bisexual,Plus que ça. ,"music,geek,sport,tv,vegan,mountain",businessman-6248246_640.jpg,3-5-1987,48.8990970000006,2.40511800000001,7
harrietta,Buisson,female,harrietta.Buisson.33@email.fr,harriettaB33,harriettaB33999,female,Elle est petite. ,"mountain,music,tv,sport,geek,sea,friends,piercing,lazy,vegan",105_photo_112233.jpeg,11-4-1957,48.9485970000009,2.47936800000001,2
alfredo,Morel,male,alfredo.Morel.34@email.fr,alfredoM34,alfredoM34999,male,Nik a les cheveux courts. ,"piercing,vegan,sea,music,mountain,friends,tv,sport",aamir-tameen-867782_640.jpg,7-23-1964,48.8275970000003,2.297868,8
meryem,Vasseur,female,meryem.Vasseur.35@email.fr,meryemV35,meryemV35999,female,Il est très ennuyeux. ,"music,sport,piercing,tv,lazy,friends,mountain,sea,vegan",39_photo_112233.jpeg,4-6-1994,48.970597000001,2.51236800000001,2
royal,Boulanger,male,royal.Boulanger.36@email.fr,royalB36,royalB36999,male,C'est la première fois que je viens ici. ,"lazy,sport,vegan,mountain",model-5176707_640.jpg,2-21-2000,48.9135970000007,2.42686800000001,2
ravindra,Guyon,male,ravindra.Guyon.37@email.fr,ravindraG37,ravindraG37999,bisexual,Quelle est votre attitude à l'égard de ,"music,friends,sport,lazy,piercing,vegan,tv,geek,mountain,sea",portrait-3204879_640.jpg,6-11-1958,48.969097000001,2.51011800000001,5
khadija,Bousquet,female,khadija.Bousquet.38@email.fr,khadijaB38,khadijaB38999,bisexual,Est-ce que tu fais du sport? ,"mountain,geek,tv",28_photo_112233.jpeg,6-4-1993,48.8495970000004,2.330868,3
cristiano,Cordier,male,cristiano.Cordier.39@email.fr,cristianoC39,cristianoC39999,male,J'ai besoin d'aller chez moi. ,"geek,tv",kevin-bacon-83495_640.jpg,9-15-1965,48.7905970000001,2.242368,2
maxene,Normand,female,maxene.Normand.40@email.fr,maxeneN40,maxeneN40999,bisexual,Où est-ce que tu travaillais avant d'être avec nous ici ? ,"sport,music,piercing,lazy,tv,geek,vegan",93_photo_112233.jpeg,6-12-1984,48.776097,2.220618,7
harper,Hoarau,male,harper.Hoarau.41@email.fr,harperH41,harperH41999,female,Peter a les cheveux noirs. ,"lazy,geek,tv,sea,sport",man-3252165_640.jpg,8-23-1951,48.8295970000003,2.300868,8
sunday,Poirier,female,sunday.Poirier.42@email.fr,sundayP42,sundayP42999,female,Depuis combien de temps est tu es en France? ,"music,friends,sport,lazy,piercing,vegan,tv,geek,mountain,sea",fright-7989944_640.jpg,5-4-1961,48.7940970000001,2.247618,8
elisaveta,Maillard,female,elisaveta.Maillard.43@email.fr,elisavetaM43,elisavetaM43999,male,Vos enfants sont très bien élevés. ,"sea,vegan,mountain,geek,sport,friends,music",86_photo_112233.jpeg,4-28-1967,48.9395970000008,2.46586800000001,3
gintaras,Lemaitre,male,gintaras.Lemaitre.44@email.fr,gintarasL44,gintarasL44999,female,Elle a les cheveux mi-longs. ,"friends,piercing,sea",people-5987395_640.jpg,5-2-1955,48.985097000001,2.53411800000001,1
anita,Rodriguez,female,anita.Rodriguez.45@email.fr,anitaR45,anitaR45999,male,C'est ma mère. ,"vegan,music,sea,friends,sport,lazy,tv,geek,piercing,mountain",28_photo_112233.jpeg,4-17-1975,48.9250970000007,2.44411800000001,4
steph,Wagner,female,steph.Wagner.46@email.fr,stephW46,stephW46999,male,Elle est spécialiste. ,"sea,mountain,music,tv,sport,friends,geek",1_photo_112233.jpeg,12-12-1983,48.8070970000002,2.267118,9
dipali,Klein,female,dipali.Klein.47@email.fr,dipaliK47,dipaliK47999,bisexual,Je sais. ,"sea,mountain,vegan,music,lazy,tv,piercing,sport,geek",street-performers-870127_640.jpg,3-1-1978,48.8015970000002,2.258868,8
merv,Maillet,male,merv.Maillet.48@email.fr,mervM48,mervM48999,male,C'est très important. ,"geek,tv",112_photo_112233.jpeg,2-16-1952,48.9255970000008,2.44486800000001,9
vlasi,Leclerc,male,vlasi.Leclerc.49@email.fr,vlasiL49,vlasiL49999,bisexual,Je lui dirai que tu as appelé. ,"sea,music,friends,sport,vegan,mountain,geek",man-210379_640.jpg,7-20-1950,48.9030970000006,2.41111800000001,2
madhur,Bertin,female,madhur.Bertin.50@email.fr,madhurB50,madhurB50999,female,C'est trop. ,music,63_photo_112233.jpeg,8-27-1972,48.8165970000002,2.281368,4
fathi,Favre,male,fathi.Favre.51@email.fr,fathiF51,fathiF51999,male,Où est-ce que tu as appris français ? ,"sea,mountain,vegan,music,lazy,tv,piercing,sport,geek",shakespeare-4959130_640.jpg,9-8-1975,48.972097000001,2.51461800000001,8
keoni,Texier,male,keoni.Texier.52@email.fr,keoniT52,keoniT52999,bisexual,Combien de personnes est-ce qu'il y a dans ta famille? ,"friends,geek,music,vegan,piercing",man-8162325_640.jpg,9-22-1974,48.9465970000009,2.47636800000001,1
marten,Jacquet,male,marten.Jacquet.53@email.fr,martenJ53,martenJ53999,female,Je ne comprends pas. ,"friends,geek,music,vegan,piercing",man-3252165_640.jpg,2-5-1978,48.8535970000004,2.336868,7
orlagh,Bertrand,female,orlagh.Bertrand.54@email.fr,orlaghB54,orlaghB54999,female,Je ne pense pas ,"tv,music,vegan",mount-saint-helens-4395977_640.jpg,6-22-1952,48.8365970000003,2.311368,9
davina,Laporte,female,davina.Laporte.55@email.fr,davinaL55,davinaL55999,male,Je crois que ,"vegan,geek,mountain,music,sea,piercing,tv,lazy,friends",madame-tussauds-1720457_640.jpg,10-25-1979,48.8955970000006,2.39986800000001,5
aviva,Baudry,female,aviva.Baudry.56@email.fr,avivaB56,avivaB56999,female,Tu es très intelligent. ,"sea,lazy",mask-4985280_640.jpg,4-22-1961,48.9615970000009,2.49886800000001,4
alessandro,Dos,male,alessandro.Dos.57@email.fr,alessandroD57,alessandroD57999,male,Pour ma part ,"music,geek,sport,tv,vegan,mountain",kevin-bacon-83495_640.jpg,8-6-1953,48.9380970000008,2.46361800000001,10
mirinda,Riou,female,mirinda.Riou.58@email.fr,mirindaR58,mirindaR58999,bisexual,Elle travaille dur. ,"sea,lazy",22_photo_112233.jpeg,4-24-1977,48.9515970000009,2.48386800000001,1
blodeuyn,Brun,female,blodeuyn.Brun.59@email.fr,blodeuynB59,blodeuynB59999,female,Je pense que c'est très bon. ,"sport,tv,sea",surprise-5321849_640.jpg,5-19-1955,48.8050970000002,2.264118,1
culhwch,Clerc,male,culhwch.Clerc.60@email.fr,culhwchC60,culhwchC60999,male,Je pensais que les vêtements étaient plus chers. ,"tv,geek",58_photo_112233.jpeg,9-1-1952,48.9255970000008,2.44486800000001,7
keturah,Charpentier,female,keturah.Charpentier.61@email.fr,keturahC61,keturahC61999,bisexual,Tu es très intelligent. ,geek,woman-1462686_640.jpg,7-22-1964,48.8835970000006,2.38186800000001,9
imelda,Blot,female,imelda.Blot.62@email.fr,imeldaB62,imeldaB62999,bisexual,Il est maigre. ,"sport,music,piercing,lazy,tv,geek,vegan",madame-tussauds-1720457_640.jpg,8-26-1950,48.8745970000005,2.36836800000001,8
eryn,Barthelemy,female,eryn.Barthelemy.63@email.fr,erynB63,erynB63999,bisexual,Elle est amicale. ,"tv,music,geek,friends,piercing,sea,sport",woman-1462682_640.jpg,7-12-1993,48.8705970000005,2.36236800000001,4
candy,Gilles,female,candy.Gilles.64@email.fr,candyG64,candyG64999,female,Allons voir. ,"lazy,geek",39_photo_112233.jpeg,12-14-1957,48.9505970000009,2.48236800000001,3
madeleine,Weber,female,madeleine.Weber.65@email.fr,madeleineW65,madeleineW65999,female,Est-ce que votre maison est comme celle-ci? ,"sea,lazy",actor-542726_640.jpg,8-6-1976,48.9160970000007,2.43061800000001,7
esteve,Roche,male,esteve.Roche.66@email.fr,esteveR66,esteveR66999,male,A quelle école est-ce que tu es allé? ,"piercing,sport,tv,mountain,friends,vegan,music,geek",108_photo_112233.jpeg,10-28-1975,48.8190970000002,2.285118,3
pompiliu,Lebrun,male,pompiliu.Lebrun.67@email.fr,pompiliuL67,pompiliuL67999,bisexual,Elle est courageuse. ,"friends,mountain,sea,vegan,music",33_photo_112233.jpeg,6-24-2000,48.9675970000009,2.50786800000001,2
rebeccanne,Descamps,female,rebeccanne.Descamps.68@email.fr,rebeccanneD68,rebeccanneD68999,female,Cela dépend de ,"lazy,sport,vegan,mountain",72_photo_112233.jpeg,7-8-1985,48.8675970000005,2.35786800000001,4
havel,Pelletier,male,havel.Pelletier.69@email.fr,havelP69,havelP69999,male,Est-ce que tu as fait ça avant ? ,"piercing,vegan,tv,mountain,sport,music,sea,lazy,geek",jorn-schlonvogt-1202320_640.jpg,8-10-1954,48.8515970000004,2.333868,3
otieno,Paris,male,otieno.Paris.70@email.fr,otienoP70,otienoP70999,male,Combien d'enfants est-ce tu as? ,"vegan,geek,lazy,friends,mountain",groucho-marx-male-1278137_640.jpg,5-14-1991,48.778597,2.224368,10
mack,Mallet,male,mack.Mallet.71@email.fr,mackM71,mackM71999,male,En ce qui me concerne ,"sport,music,friends,sea,mountain,lazy,tv",man-7971966_640.jpg,4-27-1986,48.8540970000004,2.337618,1
bernie,Aubry,male,bernie.Aubry.72@email.fr,bernieA72,bernieA72999,bisexual,C'est très important. ,"lazy,sport,vegan,mountain",95_photo_112233.jpeg,2-19-1963,48.9220970000007,2.43961800000001,10
olga,Chevallier,female,olga.Chevallier.73@email.fr,olgaC73,olgaC73999,bisexual,Excellent. ,"tv,music,sport,sea,mountain,piercing,friends,vegan",london-5731175_640.jpg,1-27-1965,48.9370970000008,2.46211800000001,3
amilia,Bigot,female,amilia.Bigot.74@email.fr,amiliaB74,amiliaB74999,male,Elle est intelligente. ,"lazy,mountain,piercing,tv",street-performers-870127_640.jpg,6-12-1975,48.9405970000008,2.46736800000001,8
karola,Pons,female,karola.Pons.75@email.fr,karolaP75,karolaP75999,bisexual,Je ne me le suis jamais demandé. ,geek,theatre-3966147_640.jpg,7-26-1978,48.9640970000009,2.50261800000001,5
weldon,Barthelemy,male,weldon.Barthelemy.76@email.fr,weldonB76,weldonB76999,bisexual,Es-tu sûr? ,"geek,vegan,sea,friends,tv,piercing,lazy,mountain,music,sport",96_photo_112233.jpeg,11-13-1955,48.8020970000002,2.259618,8
maris,Guerin,female,maris.Guerin.77@email.fr,marisG77,marisG77999,bisexual,Merci Monsieur. ,"lazy,geek",london-5731175_640.jpg,2-16-1992,48.773097,2.216118,6
lajos,Huet,male,lajos.Huet.78@email.fr,lajosH78,lajosH78999,male,Il est marrant. ,"sea,music,friends,sport,vegan,mountain,geek",man-8245780_640.webp,6-20-2002,48.777097,2.222118,7
ottavio,Fleury,male,ottavio.Fleury.79@email.fr,ottavioF79,ottavioF79999,bisexual,Est-ce que tu viens ce soir? ,"lazy,geek",frank-sinatra-1281484_640.jpg,8-18-1984,48.7915970000001,2.243868,6
xenia,Faure,female,xenia.Faure.80@email.fr,xeniaF80,xeniaF80999,female,Es-tu français? ,"geek,piercing,music,lazy,tv",theatre-3966147_640.jpg,10-25-1982,48.8880970000006,2.38861800000001,8
simge,Duval,female,simge.Duval.81@email.fr,simgeD81,simgeD81999,male,Est-ce que ton frère est allé en France ? ,"tv,sea",34_photo_112233.jpeg,1-19-1983,48.8955970000006,2.39986800000001,4
pocahontas,Leclerc,female,pocahontas.Leclerc.82@email.fr,pocahontasL82,pocahontasL82999,bisexual,Je fais un mètre quatre-vingt. ,"geek,sport,vegan,music,sea,mountain,piercing,tv",model-3362457_640.jpg,11-14-2004,48.9645970000009,2.50336800000001,6
shaw,Lenoir,male,shaw.Lenoir.83@email.fr,shawL83,shawL83999,female,Mon père y est allé. ,"music,sport,piercing,tv,lazy,friends,mountain,sea,vegan",dracula-theater-7209931_640.jpg,10-7-1991,48.8200970000002,2.286618,6
boitumelo,Michaud,female,boitumelo.Michaud.84@email.fr,boitumeloM84,boitumeloM84999,female,Il est gros. ,"sport,music,vegan,piercing,mountain,sea,tv,friends,lazy",girl-2491656_640.jpg,5-16-1954,48.9495970000009,2.48086800000001,5
iskender,Pons,male,iskender.Pons.85@email.fr,iskenderP85,iskenderP85999,male,Voudriez-vous acheter ça ? ,"music,lazy,sea,sport,tv,friends,piercing,geek,vegan",groucho-marx-male-1278137_640.jpg,5-18-1961,48.8635970000005,2.35186800000001,1
vespera,Blanchard,female,vespera.Blanchard.86@email.fr,vesperaB86,vesperaB86999,bisexual,Est-ce que ton mari est aussi de Boston? ,"vegan,music,sea,friends,sport,lazy,tv,geek,piercing,mountain",drama-1155445_640.jpg,4-21-1997,48.9530970000009,2.48611800000001,2
mictlantecuhtli,Berthelot,male,mictlantecuhtli.Berthelot.87@email.fr,mictlantecuhtliB87,mictlantecuhtliB87999,female,A bientôt. ,"friends,tv,sea,vegan,lazy,music,sport,geek,mountain,piercing",face-3265605_640.jpg,5-1-2001,48.974597000001,2.51836800000001,9
evdokiya,Morel,female,evdokiya.Morel.88@email.fr,evdokiyaM88,evdokiyaM88999,bisexual,"Non, merci. ","lazy,geek",36_photo_112233.jpeg,1-28-1991,48.9215970000007,2.43886800000001,7
meriwether,Roux,male,meriwether.Roux.89@email.fr,meriwetherR89,meriwetherR89999,female,Je ne parle pas très bien. ,"mountain,vegan,friends",businessman-6248246_640.jpg,2-4-2000,48.9510970000009,2.48311800000001,8
jocelin,Ferrand,female,jocelin.Ferrand.90@email.fr,jocelinF90,jocelinF90999,female,Il est sérieux. ,"sport,music,vegan,piercing,mountain,sea,tv,friends,lazy",fashion-4746903_640.jpg,8-10-1994,48.8730970000005,2.36611800000001,7
ata,Peltier,male,ata.Peltier.91@email.fr,ataP91,ataP91999,male,J'imagine que ,"piercing,friends,geek,sport,music",80_photo_112233.jpeg,5-17-1995,48.9585970000009,2.49436800000001,4
munira,Lombard,female,munira.Lombard.92@email.fr,muniraL92,muniraL92999,female,Je suis marié. ,"tv,sport,music,vegan,geek,mountain,lazy,friends,sea",90_photo_112233.jpeg,6-11-1953,48.9095970000007,2.42086800000001,7
zephaniah,Sauvage,male,zephaniah.Sauvage.93@email.fr,zephaniahS93,zephaniahS93999,female,J'ai froid. ,"vegan,geek,lazy,friends,mountain",horse-144550_640.jpg,12-4-1991,48.9275970000008,2.44786800000001,1
kliment,Fontaine,male,kliment.Fontaine.94@email.fr,klimentF94,klimentF94999,bisexual,Je ne l'aime pas. ,"vegan,lazy,sea,mountain,sport,friends,music,piercing,tv",mountain-5823822_640.jpg,2-25-1968,48.978597000001,2.52436800000001,1
teri,Duval,female,teri.Duval.95@email.fr,teriD95,teriD95999,male,Je dois dire que ,"music,sport,piercing,tv,lazy,friends,mountain,sea,vegan",5_photo_112233.jpeg,10-11-1953,48.8080970000002,2.268618,8
winnifred,Bonneau,female,winnifred.Bonneau.96@email.fr,winnifredB96,winnifredB96999,male,Il est / C'est injuste que ,"sea,lazy",49_photo_112233.jpeg,11-27-1979,48.7815970000001,2.228868,4
denzel,Baudry,male,denzel.Baudry.97@email.fr,denzelB97,denzelB97999,bisexual,J'ai besoin d'aller chez moi. ,"mountain,sport,sea,friends,lazy",brad-pitt-164880_640.jpg,5-20-1950,48.7950970000001,2.249118,1
calogero,Fleury,male,calogero.Fleury.98@email.fr,calogeroF98,calogeroF98999,male,Fais attention. ,"tv,sport,mountain,sea,vegan",portrait-3204879_640.jpg,7-9-1989,48.9095970000007,2.42086800000001,4
titania,Julien,female,titania.Julien.99@email.fr,titaniaJ99,titaniaJ99999,male,Je ne suis pas à même de dire si ,"friends,tv,sea,sport,music,geek",drama-1155445_640.jpg,1-20-1982,48.8970970000006,2.40211800000001,1
oleg,Martins,male,oleg.Martins.100@email.fr,olegM100,olegM100999,female,Est-ce que tu en as un autre? ,"music,sea,lazy,vegan,geek",people-3365483_640.jpg,1-18-1961,48.969097000001,2.51011800000001,10
bjarne,Maillot,male,bjarne.Maillot.101@email.fr,bjarneM101,bjarneM101999,male,J'ai entendu parler de ,"sea,geek,lazy",43_photo_112233.jpeg,12-10-1959,48.7955970000001,2.249868,8
vilma,Guyot,female,vilma.Guyot.102@email.fr,vilmaG102,vilmaG102999,bisexual,Je ne suis pas encore prêt. ,"tv,geek",1_photo_112233.jpeg,10-8-1966,48.9605970000009,2.49736800000001,3
manasseh,Lebon,male,manasseh.Lebon.103@email.fr,manassehL103,manassehL103999,male,C'est bon. ,"geek,vegan,sea,friends,tv,piercing,lazy,mountain,music,sport",gregory-peck-90779_640.jpg,3-14-1978,48.8830970000006,2.38111800000001,3
esau,Paris,male,esau.Paris.104@email.fr,esauP104,esauP104999,bisexual,Tente ta chance. ,"vegan,sport,piercing,mountain",18_photo_112233.jpeg,11-26-1958,48.773597,2.216868,6
caerwyn,Dos,male,caerwyn.Dos.105@email.fr,caerwynD105,caerwynD105999,male,Est-ce que tu veux venir avec moi? ,"tv,sport,mountain,sea,vegan",brett-952579_640.jpg,1-26-2001,48.8355970000003,2.309868,2
benedetto,Schneider,male,benedetto.Schneider.106@email.fr,benedettoS106,benedettoS106999,male,Excellent. ,"geek,sport,music,tv,friends,piercing,mountain,vegan,sea,lazy",58_photo_112233.jpeg,11-3-1978,48.9040970000007,2.41261800000001,8
xanthe,Andre,female,xanthe.Andre.107@email.fr,xantheA107,xantheA107999,male,Sans vouloir vous contredire ,"mountain,sport,sea,friends,lazy",portrait-3359403_640.jpg,11-3-1965,48.982597000001,2.53036800000001,10
eleonore,Carre,female,eleonore.Carre.108@email.fr,eleonoreC108,eleonoreC108999,male,Santé! ,"mountain,piercing,sport,music,vegan",40_photo_112233.jpeg,4-27-1990,48.983097000001,2.53111800000001,3
jubal,Brunel,male,jubal.Brunel.109@email.fr,jubalB109,jubalB109999,bisexual,La prochaine fois. ,geek,76_photo_112233.jpeg,4-23-1962,48.8605970000004,2.34736800000001,4
ignasi,Jacob,male,ignasi.Jacob.110@email.fr,ignasiJ110,ignasiJ110999,male,Je ne peux pas m'empêcher de penser que ,"mountain,lazy,geek,sea",james-stewart-675177_640.jpg,1-13-1999,48.773097,2.216118,7
kassy,Denis,female,kassy.Denis.111@email.fr,kassyD111,kassyD111999,female,J'ai perdu ma montre. ,"geek,piercing,music,lazy,tv",like-5321848_640.jpg,7-2-1957,48.7865970000001,2.236368,10
keisha,Lacoste,female,keisha.Lacoste.112@email.fr,keishaL112,keishaL112999,female,Je n'en veux pas. ,"lazy,vegan,piercing,friends,sea,mountain",actors-1851317_640.jpg,4-1-1962,48.8095970000002,2.270868,10
fester,Carpentier,male,fester.Carpentier.113@email.fr,festerC113,festerC113999,male,Je dois laver mes vêtements. ,geek,59_photo_112233.jpeg,6-10-1997,48.8530970000004,2.336118,10
xavior,Chartier,male,xavior.Chartier.114@email.fr,xaviorC114,xaviorC114999,bisexual,Elle est jolie. ,"mountain,music,tv,sport,geek,sea,friends,piercing,lazy,vegan",smile-1221915_640.jpg,6-10-1956,48.8565970000004,2.341368,8
kanya,Dubois,female,kanya.Dubois.115@email.fr,kanyaD115,kanyaD115999,bisexual,On dit que ,"geek,tv,vegan,lazy,music",3_photo_112233.jpeg,9-25-1956,48.9165970000007,2.43136800000001,5
maurus,Moreau,male,maurus.Moreau.116@email.fr,maurusM116,maurusM116999,male,Est-ce que ton frère est allé en France ? ,"sea,vegan,friends,geek,lazy",43_photo_112233.jpeg,8-9-1966,48.8840970000006,2.38261800000001,7
bodil,Morin,female,bodil.Morin.117@email.fr,bodilM117,bodilM117999,male,J'aimerais connaître / avoir votre réaction face à ,"sea,vegan,mountain,geek,sport,friends,music",89_photo_112233.jpeg,2-4-1982,48.7815970000001,2.228868,1
enyo,Albert,female,enyo.Albert.118@email.fr,enyoA118,enyoA118999,female,Est-ce que tu peux traduire ça pour moi? ,"geek,vegan,sea,friends,tv,piercing,lazy,mountain,music,sport",34_photo_112233.jpeg,12-25-1994,48.8585970000004,2.344368,10
aegle,Barthelemy,female,aegle.Barthelemy.119@email.fr,aegleB119,aegleB119999,bisexual,Tu te sens mieux? ,"music,geek,sport,tv,vegan,mountain",63_photo_112233.jpeg,10-2-1994,48.9250970000007,2.44411800000001,4
chin,Raymond,male,chin.Raymond.120@email.fr,chinR120,chinR120999,male,Juste là. ,"music,geek,friends,vegan,sport,sea,mountain",mime-4871674_640.jpg,7-22-1985,48.8985970000006,2.40436800000001,9
jaquelyn,Mary,female,jaquelyn.Mary.121@email.fr,jaquelynM121,jaquelynM121999,male,Je fais une taille huit. ,"tv,music,sport,sea,mountain,piercing,friends,vegan",london-5731175_640.jpg,2-1-1987,48.8360970000003,2.310618,5
raynard,Jacquet,male,raynard.Jacquet.122@email.fr,raynardJ122,raynardJ122999,male,Juste un peu. ,"geek,sport,friends,piercing,sea",103_photo_112233.jpeg,8-14-1953,48.8560970000004,2.340618,4
camillo,Marchand,male,camillo.Marchand.123@email.fr,camilloM123,camilloM123999,female,Elle est faible ,"friends,sea,mountain,tv,music,geek,sport,piercing,vegan,lazy",man-8245776_640.webp,7-14-1998,48.770597,2.212368,3
mosi,Tanguy,male,mosi.Tanguy.124@email.fr,mosiT124,mosiT124999,female,Juste un peu. ,"mountain,geek,friends,piercing,sea,vegan,sport",7_photo_112233.jpeg,6-6-2000,48.9155970000007,2.42986800000001,8
danny,Guichard,male,danny.Guichard.125@email.fr,dannyG125,dannyG125999,female,Essaie-le/la. ,"friends,mountain,sea,vegan,music",60_photo_112233.jpeg,6-17-1991,48.8200970000002,2.286618,1
filep,Lemaire,male,filep.Lemaire.126@email.fr,filepL126,filepL126999,male,"Si vous avez besoin de mon aide, faites-le-moi savoir s'il vous plaît. ","geek,tv",godfather-4292451_640.jpg,12-11-2000,48.8020970000002,2.259618,10
pascual,Payet,male,pascual.Payet.127@email.fr,pascualP127,pascualP127999,bisexual,Réglez ça dehors. ,"piercing,friends,geek,sport,music",33_photo_112233.jpeg,10-16-1961,48.9620970000009,2.49961800000001,1
helmuth,Renaud,male,helmuth.Renaud.128@email.fr,helmuthR128,helmuthR128999,bisexual,Pourrais-je parler à madame Smith s'il vous plaît? ,"music,mountain,piercing,lazy,tv,geek,vegan,sport,friends,sea",brett-952579_640.jpg,1-28-2002,48.9650970000009,2.50411800000001,4
zusman,Auger,male,zusman.Auger.129@email.fr,zusmanA129,zusmanA129999,female,Je suis convaincu que ,"friends,sea,mountain,tv,music,geek,sport,piercing,vegan,lazy",56_photo_112233.jpeg,3-19-1990,48.8985970000006,2.40436800000001,2
aubree,Sanchez,female,aubree.Sanchez.130@email.fr,aubreeS130,aubreeS130999,female,Il est / C'est certain que ,"geek,tv",51_photo_112233.jpeg,7-7-1974,48.8110970000002,2.273118,4
anneke,Dos,female,anneke.Dos.131@email.fr,annekeD131,annekeD131999,female,Non. ,"mountain,piercing,friends,music,tv,vegan,lazy,sea,geek,sport",1_photo_112233.jpeg,12-2-1991,48.7970970000001,2.252118,2
haytham,Levy,male,haytham.Levy.132@email.fr,haythamL132,haythamL132999,female,Je vais partir. ,"tv,geek",brett-952561_640.jpg,3-14-1961,48.9045970000007,2.41336800000001,1
trai,Michel,male,trai.Michel.133@email.fr,traiM133,traiM133999,female,Est-ce que vous vendez des médicaments? (magasin) ,"sport,tv,sea",48_photo_112233.jpeg,6-16-1994,48.8675970000005,2.35786800000001,3
mostyn,Lambert,male,mostyn.Lambert.134@email.fr,mostynL134,mostynL134999,male,Dépêche-toi! ,"mountain,geek,tv",dracula-theater-7209931_640.jpg,9-3-1978,48.8405970000003,2.317368,7
meinir,Guyon,female,meinir.Guyon.135@email.fr,meinirG135,meinirG135999,bisexual,Qu'est-ce que tu veux faire ? ,"mountain,tv,sea,piercing,sport,music,lazy,vegan,friends,geek",mount-saint-helens-4395977_640.jpg,12-12-1982,48.8950970000006,2.39911800000001,2
glenda,Evrard,female,glenda.Evrard.136@email.fr,glendaE136,glendaE136999,bisexual,Elle est mate de peau. ,"tv,sport,music,vegan,geek,mountain,lazy,friends,sea",22_photo_112233.jpeg,9-25-1987,48.8425970000004,2.320368,10
rowley,Marty,male,rowley.Marty.137@email.fr,rowleyM137,rowleyM137999,female,Merci pour tout. ,geek,29_photo_112233.jpeg,10-3-1991,48.8240970000003,2.292618,10
lacy,Lagarde,female,lacy.Lagarde.138@email.fr,lacyL138,lacyL138999,female,Elle est jolie. ,"friends,lazy,mountain,vegan,geek,music,tv,piercing",28_photo_112233.jpeg,9-23-1973,48.8650970000005,2.35411800000001,2
joyce,Rey,female,joyce.Rey.139@email.fr,joyceR139,joyceR139999,male,N'importe quoi. ,"lazy,geek,tv,sea,sport",28_photo_112233.jpeg,2-3-1957,48.9070970000007,2.41711800000001,9
hai,Brunel,male,hai.Brunel.140@email.fr,haiB140,haiB140999,female,Juste là. ,"sea,mountain,music,tv,sport,friends,geek",56_photo_112233.jpeg,2-25-1978,48.9555970000009,2.48986800000001,8
micheal,Buisson,male,micheal.Buisson.141@email.fr,michealB141,michealB141999,male,"Oui, vraiment. ",tv,33_photo_112233.jpeg,12-25-1979,48.981097000001,2.52811800000001,5
venus,Fontaine,female,venus.Fontaine.142@email.fr,venusF142,venusF142999,bisexual,Est-ce que vous vendez des médicaments? (magasin) ,"geek,vegan,sea,friends,tv,piercing,lazy,mountain,music,sport",44_photo_112233.jpeg,6-16-1998,48.9150970000007,2.42911800000001,6
athanas,Vial,male,athanas.Vial.143@email.fr,athanasV143,athanasV143999,bisexual,Je ne suis pas encore prêt. ,"vegan,geek,lazy,friends,mountain",man-210379_640.jpg,7-26-1974,48.9065970000007,2.41636800000001,7
nikkole,Rossi,female,nikkole.Rossi.144@email.fr,nikkoleR144,nikkoleR144999,bisexual,Tout dépend de,"piercing,sport,tv,mountain,friends,vegan,music,geek",theatre-3966147_640.jpg,12-20-1974,48.7925970000001,2.245368,7
leto,Hoarau,female,leto.Hoarau.145@email.fr,letoH145,letoH145999,bisexual,Est-ce que vous vendez des médicaments? (magasin) ,"piercing,sport,friends,geek,sea,tv,vegan,music",37_photo_112233.jpeg,9-13-1989,48.8680970000005,2.35861800000001,5
ram,Maillard,male,ram.Maillard.146@email.fr,ramM146,ramM146999,bisexual,S'il vous plaît emmenez-moi à cette adresse. ,"tv,sport,mountain,sea,vegan",people-3230020_640.jpg,7-6-1991,48.9265970000008,2.44636800000001,4
shevon,Girard,female,shevon.Girard.147@email.fr,shevonG147,shevonG147999,female,"Très bien, merci. ","sport,music,piercing,lazy,tv,geek,vegan",44_photo_112233.jpeg,9-10-1985,48.8360970000003,2.310618,4
ignazio,Lemaire,male,ignazio.Lemaire.148@email.fr,ignazioL148,ignazioL148999,female,Je viens te chercher. ,"tv,music,sport,sea,mountain,piercing,friends,vegan",man-6342455_640.jpg,10-4-1969,48.8610970000004,2.34811800000001,10
chita,Gilbert,female,chita.Gilbert.149@email.fr,chitaG149,chitaG149999,bisexual,Est-ce que tu vas prendre un avion ou un train? ,"vegan,geek,lazy,friends,mountain",street-performers-870119_640.jpg,10-23-1990,48.8700970000005,2.36161800000001,10
klava,Bodin,female,klava.Bodin.150@email.fr,klavaB150,klavaB150999,female,J'ai perdu ma montre. ,"mountain,lazy,piercing,sport,vegan",86_photo_112233.jpeg,5-3-1958,48.8175970000002,2.282868,5
fitzroy,Garnier,male,fitzroy.Garnier.151@email.fr,fitzroyG151,fitzroyG151999,bisexual,Non. ,"vegan,music,sea,friends,sport,lazy,tv,geek,piercing,mountain",109_photo_112233.jpeg,1-15-1969,48.8370970000003,2.312118,3
kuro,Texier,male,kuro.Texier.152@email.fr,kuroT152,kuroT152999,female,Est-ce qu'ils l'ont déjà rencontrée ? ,"lazy,music,tv,sport,vegan,mountain,piercing,sea",allan-warren-872631_640.jpg,6-26-2002,48.8000970000001,2.256618,10
shauna,Meyer,female,shauna.Meyer.153@email.fr,shaunaM153,shaunaM153999,bisexual,Je ne suis pas à même de dire si ,"sea,lazy",67_photo_112233.jpeg,1-25-1960,48.9340970000008,2.45761800000001,3
shantel,Lebrun,female,shantel.Lebrun.154@email.fr,shantelL154,shantelL154999,female,Il est beau. ,"music,lazy,vegan,friends",90_photo_112233.jpeg,8-17-2004,48.968097000001,2.50861800000001,10
zdislav,Mercier,male,zdislav.Mercier.155@email.fr,zdislavM155,zdislavM155999,male,Merci beaucoup. ,"sport,tv,sea",acteur1.png,10-20-1968,48.9640970000009,2.50261800000001,3
gervais,Guyon,male,gervais.Guyon.156@email.fr,gervaisG156,gervaisG156999,female,Maria a les cheveux couleur noisette. ,"geek,sport,friends,piercing,sea",brett-952579_640.jpg,8-13-1983,48.9420970000008,2.46961800000001,8
lawahiz,Le,female,lawahiz.Le.157@email.fr,lawahizL157,lawahizL157999,male,Je suis d'avis que ,sea,fashion-3057295_640.jpg,8-11-1998,48.8570970000004,2.342118,10
celyn,Lebrun,male,celyn.Lebrun.158@email.fr,celynL158,celynL158999,bisexual,J'ai entendu parler de ,"friends,sea,mountain,tv,music,geek,sport,piercing,vegan,lazy",man-6342452_640.jpg,3-25-1952,48.982597000001,2.53036800000001,9
nereus,Seguin,male,nereus.Seguin.159@email.fr,nereusS159,nereusS159999,female,Elle est timide. ,"music,friends,sport,lazy",man-7291967_640.jpg,7-18-1993,48.9520970000009,2.48461800000001,10
erle,Martel,male,erle.Martel.160@email.fr,erleM160,erleM160999,bisexual,Depuis combien de temps est-ce que tu habites ici? ,"sea,vegan,friends,geek,lazy",smile-1221915_640.jpg,4-11-1975,48.8070970000002,2.267118,4
arnau,Aubry,male,arnau.Aubry.161@email.fr,arnauA161,arnauA161999,female,Quant à moi ,"mountain,piercing,friends,music,tv,vegan,lazy,sea,geek,sport",people-3230020_640.jpg,7-20-2000,48.8495970000004,2.330868,9
piotr,Benard,male,piotr.Benard.162@email.fr,piotrB162,piotrB162999,bisexual,Comment t'appelles-tu ? ,friends,people-3230020_640.jpg,7-12-1979,48.8120970000002,2.274618,5
pantheras,Leclercq,male,pantheras.Leclercq.163@email.fr,pantherasL163,pantherasL163999,male,Est-ce que tu veux venir avec moi? ,"tv,piercing,geek,mountain,vegan,friends,lazy,sport,music,sea",112_photo_112233.jpeg,6-17-1977,48.9635970000009,2.50186800000001,9
veera,Martel,female,veera.Martel.164@email.fr,veeraM164,veeraM164999,male,Je dois laver mes vêtements. ,"mountain,geek,tv",people-1285245_640.jpg,11-15-1968,48.9325970000008,2.45536800000001,10
elov,Peltier,male,elov.Peltier.165@email.fr,elovP165,elovP165999,female,Est-ce que votre maison est comme celle-ci? ,"piercing,sea,sport,friends,vegan,mountain,geek,music,tv",people-5987395_640.jpg,7-18-2000,48.9615970000009,2.49886800000001,7
brendon,Seguin,male,brendon.Seguin.166@email.fr,brendonS166,brendonS166999,female,Elle est plus âgée que moi. ,"music,friends,sport,lazy",88_photo_112233.jpeg,5-27-1996,48.974097000001,2.51761800000001,6
fuad,Martin,male,fuad.Martin.167@email.fr,fuadM167,fuadM167999,male,"Je suis désolé, nous sommes complets. ","friends,geek,music,vegan,piercing",cuba-653798_640.jpg,2-10-1959,48.8480970000004,2.328618,10
juha,Lesage,male,juha.Lesage.168@email.fr,juhaL168,juhaL168999,female,Il me semble que ,"sea,vegan",man-210379_640.jpg,2-19-1970,48.7890970000001,2.240118,5
maritza,Poulain,female,maritza.Poulain.169@email.fr,maritzaP169,maritzaP169999,male,Lisa a les cheveux longs. ,"geek,tv,vegan,lazy,music",12_photo_112233.jpeg,7-10-1957,48.9410970000008,2.46811800000001,2
tahnee,Millet,female,tahnee.Millet.170@email.fr,tahneeM170,tahneeM170999,male,Combien voudrais-tu? ,"mountain,piercing,friends,music,tv,vegan,lazy,sea,geek,sport",63_photo_112233.jpeg,8-21-1966,48.8765970000005,2.37136800000001,3
llewellyn,Riviere,male,llewellyn.Riviere.171@email.fr,llewellynR171,llewellynR171999,male,Je ne parle pas très bien. ,"geek,sport,friends,piercing,sea",snoop-dog-81879_640.jpg,10-5-1959,48.9195970000007,2.43586800000001,4
daniil,Thierry,male,daniil.Thierry.172@email.fr,daniilT172,daniilT172999,male,Excellent. ,"music,lazy,vegan,friends",56_photo_112233.jpeg,10-3-1961,48.9290970000008,2.45011800000001,8
sari,Lefebvre,female,sari.Lefebvre.173@email.fr,sariL173,sariL173999,female,C'est du moins mon opinion. ,"sea,friends,piercing,mountain",theatre-3966147_640.jpg,9-22-1985,48.8835970000006,2.38186800000001,3
rajya,Reynaud,female,rajya.Reynaud.174@email.fr,rajyaR174,rajyaR174999,bisexual,J'ai trente-deux ans. ,"friends,piercing,lazy,geek,music",woman-1462682_640.jpg,2-10-1995,48.8125970000002,2.275368,9
valarie,Bouchet,female,valarie.Bouchet.175@email.fr,valarieB175,valarieB175999,male,J'ai mal dans le bras. ,friends,21_photo_112233.jpeg,2-26-1972,48.9055970000007,2.41486800000001,5
isidora,Marchand,female,isidora.Marchand.176@email.fr,isidoraM176,isidoraM176999,bisexual,Il est marrant. ,"sea,mountain,vegan,music,lazy,tv,piercing,sport,geek",17_photo_112233.jpeg,8-22-1959,48.8370970000003,2.312118,5
zsolt,Bonnet,male,zsolt.Bonnet.177@email.fr,zsoltB177,zsoltB177999,bisexual,C'est plus long que deux kilomètres. ,"sea,vegan,mountain,friends,lazy",48_photo_112233.jpeg,9-16-1963,48.8280970000003,2.298618,7
beate,Rousseau,female,beate.Rousseau.178@email.fr,beateR178,beateR178999,bisexual,Je pense que c'est bon. ,geek,63_photo_112233.jpeg,7-26-1983,48.9155970000007,2.42986800000001,3
pascaline,Briand,female,pascaline.Briand.179@email.fr,pascalineB179,pascalineB179999,male,Il est sophistiqué. ,"tv,piercing,geek,mountain,vegan,friends,lazy,sport,music,sea",68_photo_112233.jpeg,2-25-1981,48.9355970000008,2.45986800000001,9
deryn,Guyot,female,deryn.Guyot.180@email.fr,derynG180,derynG180999,bisexual,J'aimerais connaître / avoir votre avis / opinion sur ,"geek,sport,friends,piercing,sea",ramayana-festival-1807516_640.jpg,8-6-1991,48.8605970000004,2.34736800000001,4
missie,Baudry,female,missie.Baudry.181@email.fr,missieB181,missieB181999,bisexual,Ils sont très occupés. ,"tv,sea",16_photo_112233.jpeg,5-24-1980,48.774097,2.217618,2
careen,Giraud,female,careen.Giraud.182@email.fr,careenG182,careenG182999,male,Je me sens bien. ,geek,51_photo_112233.jpeg,1-11-1971,48.8560970000004,2.340618,5
alberta,Lacombe,female,alberta.Lacombe.183@email.fr,albertaL183,albertaL183999,bisexual,J'ai mal à la tête. ,sea,street-performers-870127_640.jpg,5-5-1987,48.7890970000001,2.240118,3
kassy,Roussel,female,kassy.Roussel.184@email.fr,kassyR184,kassyR184999,female,Tout est prêt. ,"friends,tv,sea,vegan,lazy,music,sport,geek,mountain,piercing",madame-tussauds-1720457_640.jpg,11-21-1963,48.7860970000001,2.235618,7
astaroth,Navarro,female,astaroth.Navarro.185@email.fr,astarothN185,astarothN185999,bisexual,Elle est faible ,"lazy,geek,tv,sea,sport",5_photo_112233.jpeg,6-26-1950,48.8315970000003,2.303868,3
camryn,Coste,female,camryn.Coste.186@email.fr,camrynC186,camrynC186999,bisexual,Il a les yeux marron. ,"friends,lazy,mountain,vegan,geek,music,tv,piercing",fashion-4746903_640.jpg,12-28-1964,48.7840970000001,2.232618,10
bidelia,Weber,female,bidelia.Weber.187@email.fr,bideliaW187,bideliaW187999,bisexual,S'il vous plaît emmenez-moi à cette adresse. ,"tv,geek,sea,sport,piercing,mountain,vegan,music,friends,lazy",105_photo_112233.jpeg,7-5-1981,48.8545970000004,2.338368,10
maisie,Bruneau,female,maisie.Bruneau.188@email.fr,maisieB188,maisieB188999,male,On dit que ,"vegan,geek,lazy,friends,mountain",44_photo_112233.jpeg,8-20-1968,48.8695970000005,2.36086800000001,5
lenny,Auger,male,lenny.Auger.189@email.fr,lennyA189,lennyA189999,male,Nos enfants sont en Amérique. ,"mountain,geek,friends,piercing,sea,vegan,sport",people-3365483_640.jpg,7-25-1983,48.971597000001,2.51386800000001,7
nelly,Dupuy,female,nelly.Dupuy.190@email.fr,nellyD190,nellyD190999,bisexual,Elle est rapide. ,"music,friends,sport,lazy,piercing,vegan,tv,geek,mountain,sea",ramayana-festival-1807516_640.jpg,8-11-1999,48.978597000001,2.52436800000001,7
pili,Georges,female,pili.Georges.191@email.fr,piliG191,piliG191999,female,Je me souviens. ,"sea,mountain,vegan,music,lazy,tv,piercing,sport,geek",madame-tussauds-1720457_640.jpg,6-17-1959,48.8160970000002,2.280618,1
madelina,Potier,female,madelina.Potier.192@email.fr,madelinaP192,madelinaP192999,male,Il me semble que ,geek,45_photo_112233.jpeg,7-17-2003,48.9565970000009,2.49136800000001,1
jarogniew,Guilbert,male,jarogniew.Guilbert.193@email.fr,jarogniewG193,jarogniewG193999,female,Ce n'est pas vrai. ,"tv,sea",78_photo_112233.jpeg,9-17-1973,48.8555970000004,2.339868,6
nils,Martineau,male,nils.Martineau.194@email.fr,nilsM194,nilsM194999,bisexual,Pourriez-vous me donner / faire savoir votre avis/opinion sur ,tv,91_photo_112233.jpeg,7-2-1951,48.9370970000008,2.46211800000001,2
eireen,Clerc,female,eireen.Clerc.195@email.fr,eireenC195,eireenC195999,female,Quels sont tes passe-temps ? ,"music,lazy,sea,sport,tv,friends,piercing,geek,vegan",cafe-1699128_640.jpg,10-19-1979,48.7965970000001,2.251368,6
izumi,Gauthier,female,izumi.Gauthier.196@email.fr,izumiG196,izumiG196999,male,Allons voir. ,geek,81_photo_112233.jpeg,12-9-1970,48.8655970000005,2.35486800000001,4
carmella,Perrot,female,carmella.Perrot.197@email.fr,carmellaP197,carmellaP197999,bisexual,Elle est jolie. ,"vegan,sport,piercing,mountain",actor-542726_640.jpg,6-3-1955,48.9390970000008,2.46511800000001,3
lachtna,Blin,male,lachtna.Blin.198@email.fr,lachtnaB198,lachtnaB198999,male,Je considère que ,"mountain,vegan,friends",man-6342452_640.jpg,9-5-1969,48.9230970000007,2.44111800000001,7
cherise,Giraud,female,cherise.Giraud.199@email.fr,cheriseG199,cheriseG199999,female,Tina a les cheveux bouclés. ,"sport,geek,sea,lazy,piercing,friends,vegan,tv,music",woman-1462686_640.jpg,8-24-1959,48.770097,2.211618,10
coty,Leclerc,male,coty.Leclerc.200@email.fr,cotyL200,cotyL200999,female,Pas encore. ,"friends,tv,sea,sport,music,geek",60_photo_112233.jpeg,6-2-2001,48.9215970000007,2.43886800000001,6
xandra,Normand,female,xandra.Normand.201@email.fr,xandraN201,xandraN201999,male,Je ne vous entends pas. ,"friends,lazy,mountain,vegan,geek,music,tv,piercing",woman-6002459_640.jpg,5-26-1991,48.7820970000001,2.229618,10
heulwen,Renaud,female,heulwen.Renaud.202@email.fr,heulwenR202,heulwenR202999,female,C'est du moins mon opinion. ,"mountain,tv,sea,piercing,sport,music,lazy,vegan,friends,geek",actress-825670_640.jpg,8-18-2004,48.8795970000005,2.37586800000001,1
naitik,Ferrand,male,naitik.Ferrand.203@email.fr,naitikF203,naitikF203999,female,Cette voiture ressemble à ma voiture. ,"tv,music,mountain,geek,sea",brett-952579_640.jpg,9-17-1990,48.8165970000002,2.281368,1
munroe,Roux,male,munroe.Roux.204@email.fr,munroeR204,munroeR204999,bisexual,Pourriez-vous me donner / faire savoir votre avis/opinion sur ,"sea,vegan",brett-952561_640.jpg,5-1-1955,48.8265970000003,2.296368,7
steafan,Roy,male,steafan.Roy.205@email.fr,steafanR205,steafanR205999,bisexual,Il est / C'est évident que ,"tv,piercing,geek,mountain,vegan,friends,lazy,sport,music,sea",man-6342455_640.jpg,8-3-1983,48.7855970000001,2.234868,10
detlef,Martin,male,detlef.Martin.206@email.fr,detlefM206,detlefM206999,bisexual,Je ne comprends pas. ,"lazy,vegan,music",man-4134645_640.jpg,10-11-1964,48.979097000001,2.52511800000001,2
zuleika,Bonnet,female,zuleika.Bonnet.207@email.fr,zuleikaB207,zuleikaB207999,female,Où es-tu allé ? ,"tv,sport,music,vegan,geek,mountain,lazy,friends,sea",39_photo_112233.jpeg,1-9-1989,48.8435970000004,2.321868,1
kata,Chauveau,female,kata.Chauveau.208@email.fr,kataC208,kataC208999,female,Réglez ça dehors. ,"tv,sea",theater-200716_640.jpg,8-24-1971,48.7970970000001,2.252118,9
thais,Fernandez,female,thais.Fernandez.209@email.fr,thaisF209,thaisF209999,bisexual,Est-ce que tu veux venir avec moi? ,"mountain,geek,friends,piercing,sea,vegan,sport",101_photo_112233.jpeg,10-4-1979,48.8610970000004,2.34811800000001,4
nikolaos,Vial,male,nikolaos.Vial.210@email.fr,nikolaosV210,nikolaosV210999,female,"Très bien, merci. ",friends,man-7971966_640.jpg,8-12-1978,48.8570970000004,2.342118,4
merletta,Henry,female,merletta.Henry.211@email.fr,merlettaH211,merlettaH211999,female,Voudriez-vous acheter ça ? ,"tv,music,mountain,geek,sea",street-performers-870119_640.jpg,7-2-2002,48.8690970000005,2.36011800000001,10
zita,Toussaint,female,zita.Toussaint.212@email.fr,zitaT212,zitaT212999,bisexual,J'ai entendu dire que le Texas était beau comme endroit. ,"tv,piercing,geek,mountain,vegan,friends,lazy,sport,music,sea",69_photo_112233.jpeg,12-10-1993,48.8420970000004,2.319618,8
meriel,Chevalier,female,meriel.Chevalier.213@email.fr,merielC213,merielC213999,male,Je n'ai jamais vraiment réfléchi à ,geek,14_photo_112233.jpeg,7-8-1992,48.8720970000005,2.36461800000001,8
arnaud,Perrier,male,arnaud.Perrier.214@email.fr,arnaudP214,arnaudP214999,bisexual,Elle est jolie. ,"sea,vegan,mountain,friends,lazy",humphrey-bogart-male-1278138_640.jpg,6-11-2003,48.8190970000002,2.285118,3
alessa,Gomes,female,alessa.Gomes.215@email.fr,alessaG215,alessaG215999,male,Je ne suis pas sûr. ,"tv,piercing,geek,mountain,vegan,friends,lazy,sport,music,sea",107_photo_112233.jpeg,3-21-1981,48.9585970000009,2.49436800000001,4
jarrett,Grenier,male,jarrett.Grenier.216@email.fr,jarrettG216,jarrettG216999,female,J'ai mal à la tête. ,"music,lazy,sea,sport,tv,friends,piercing,geek,vegan",95_photo_112233.jpeg,1-8-1989,48.8395970000003,2.315868,3
chiara,Cohen,female,chiara.Cohen.217@email.fr,chiaraC217,chiaraC217999,female,Je suis d'avis que ,"sea,mountain,music,tv,sport,friends,geek",1_photo_112233.jpeg,10-6-1962,48.7935970000001,2.246868,3
addy,Pons,female,addy.Pons.218@email.fr,addyP218,addyP218999,female,It's impossible ,"friends,mountain,sea,vegan,music",girl-2491656_640.jpg,12-25-1973,48.768597,2.209368,9
biaggio,Picard,male,biaggio.Picard.219@email.fr,biaggioP219,biaggioP219999,male,De temps en temps. ,"music,geek,friends,vegan,sport,sea,mountain",photoshoot-5107285_640.jpg,7-27-1967,48.8775970000005,2.37286800000001,8
pedro,Besnard,male,pedro.Besnard.220@email.fr,pedroB220,pedroB220999,bisexual,A bientôt. ,"tv,music,mountain,geek,sea",man-210379_640.jpg,6-27-1961,48.774597,2.218368,2
pelagius,Garcia,male,pelagius.Garcia.221@email.fr,pelagiusG221,pelagiusG221999,bisexual,C'est tout. ,"mountain,friends,sea,lazy,vegan,piercing,geek,tv,sport,music",brett-952579_640.jpg,1-5-1973,48.7875970000001,2.237868,5
hena,Lejeune,female,hena.Lejeune.222@email.fr,henaL222,henaL222999,female,Il m'est impossible de donner un avis (définitif) sur ,"lazy,sea,sport,music",surprise-5321849_640.jpg,2-20-1962,48.8460970000004,2.325618,7
jillie,Roche,female,jillie.Roche.223@email.fr,jillieR223,jillieR223999,female,J'ai mal à la tête. ,"geek,tv,vegan,lazy,music",fashion-3057295_640.jpg,1-17-1978,48.8050970000002,2.264118,2
esi,Delmas,female,esi.Delmas.224@email.fr,esiD224,esiD224999,male,Travailles-tu demain? ,music,40_photo_112233.jpeg,11-28-1974,48.8155970000002,2.279868,7
patroclus,Vallet,male,patroclus.Vallet.225@email.fr,patroclusV225,patroclusV225999,male,Elle est laide ,"lazy,sea,sport,music",charles-chaplin-3521070_640.jpg,11-24-1997,48.775597,2.219868,2
maredudd,Boyer,male,maredudd.Boyer.226@email.fr,mareduddB226,mareduddB226999,male,Je pensais que les vêtements étaient plus chers. ,"vegan,geek,lazy,friends,mountain",horse-144550_640.jpg,6-7-1995,48.775597,2.219868,6
lida,Boyer,female,lida.Boyer.227@email.fr,lidaB227,lidaB227999,bisexual,Merci Mademoiselle. ,"mountain,tv,friends,lazy,sport,geek",portrait-3359403_640.jpg,10-10-1965,48.9220970000007,2.43961800000001,3
emmaline,Marty,female,emmaline.Marty.228@email.fr,emmalineM228,emmalineM228999,female,Il a de l‘humour. ,"music,friends,sport,lazy",mount-saint-helens-4395977_640.jpg,5-23-1968,48.8650970000005,2.35411800000001,9
varius,Millet,male,varius.Millet.229@email.fr,variusM229,variusM229999,bisexual,S'il te plaît écris-le. ,"piercing,sport,friends,geek,sea,tv,vegan,music",87_photo_112233.jpeg,3-3-1985,48.8305970000003,2.302368,9
reimund,Barthelemy,male,reimund.Barthelemy.230@email.fr,reimundB230,reimundB230999,female,Je ne veux pas ça. ,"music,friends,sport,lazy",48_photo_112233.jpeg,8-3-1974,48.8015970000002,2.258868,8
grazia,Lesage,female,grazia.Lesage.231@email.fr,graziaL231,graziaL231999,female,Donne-moi un coup de fil. ,"piercing,vegan,sea,music,mountain,friends,tv,sport",drama-1155445_640.jpg,7-4-2003,48.8855970000006,2.38486800000001,8
mwanajuma,Bodin,female,mwanajuma.Bodin.232@email.fr,mwanajumaB232,mwanajumaB232999,male,J'ai acheté une chemise hier. ,"tv,geek",head-shoot-1542339_640.jpg,6-14-1954,48.7875970000001,2.237868,3
narcissus,Hamon,male,narcissus.Hamon.233@email.fr,narcissusH233,narcissusH233999,female,Est-ce que tu es libre ce soir? ,"sport,music,piercing,lazy,tv,geek,vegan",70_photo_112233.jpeg,2-2-1990,48.970597000001,2.51236800000001,7
mervin,Ferreira,male,mervin.Ferreira.234@email.fr,mervinF234,mervinF234999,bisexual,Travailles-tu demain? ,"geek,piercing,music,lazy,tv",humphrey-bogart-male-1278138_640.jpg,9-3-1966,48.8380970000003,2.313618,1
leokadia,Renard,female,leokadia.Renard.235@email.fr,leokadiaR235,leokadiaR235999,female,Je ne comprends pas. ,"mountain,music,tv,sport,geek,sea,friends,piercing,lazy,vegan",portrait-3359403_640.jpg,1-28-1958,48.7945970000001,2.248368,2
solange,Lebrun,female,solange.Lebrun.236@email.fr,solangeL236,solangeL236999,female,Les affaires vont bien. ,"tv,music,vegan",woman-1462683_640.jpg,4-7-1985,48.971597000001,2.51386800000001,3
maralyn,Hardy,female,maralyn.Hardy.237@email.fr,maralynH237,maralynH237999,female,Je ne suis pas sûr. ,"piercing,vegan,sport",cafe-1699128_640.jpg,3-23-1983,48.8520970000004,2.334618,7
linzi,Cousin,female,linzi.Cousin.238@email.fr,linziC238,linziC238999,male,C'est trop. ,"mountain,music,tv,sport,geek,sea,friends,piercing,lazy,vegan",101_photo_112233.jpeg,8-3-1965,48.7955970000001,2.249868,5
piritta,Loiseau,female,piritta.Loiseau.239@email.fr,pirittaL239,pirittaL239999,female,Merci Monsieur. ,"geek,sport,friends,piercing,sea",21_photo_112233.jpeg,10-14-1965,48.9325970000008,2.45536800000001,8
gerontius,Voisin,male,gerontius.Voisin.240@email.fr,gerontiusV240,gerontiusV240999,female,C'est bon. ,"sea,lazy",88_photo_112233.jpeg,2-24-1977,48.985097000001,2.53411800000001,9
ruggero,Raynaud,male,ruggero.Raynaud.241@email.fr,ruggeroR241,ruggeroR241999,male,Je ne suis pas sûr. ,"vegan,geek,lazy,friends,mountain",groucho-marx-male-1278137_640.jpg,10-28-1955,48.9370970000008,2.46211800000001,1
cleon,Joly,male,cleon.Joly.242@email.fr,cleonJ242,cleonJ242999,bisexual,Selon vous ,"geek,piercing,music,lazy,tv",people-5987395_640.jpg,8-7-1993,48.8960970000006,2.40061800000001,6
evfemia,Michel,female,evfemia.Michel.243@email.fr,evfemiaM243,evfemiaM243999,male,Merci beaucoup. ,"friends,geek,music,vegan,piercing",72_photo_112233.jpeg,10-16-1971,48.9085970000007,2.41936800000001,9
kaija,Guerin,female,kaija.Guerin.244@email.fr,kaijaG244,kaijaG244999,male,Nik a les cheveux courts. ,"sea,vegan,mountain,geek,sport,friends,music",fright-7989944_640.jpg,4-17-1983,48.9575970000009,2.49286800000001,9
ferdie,Gerard,male,ferdie.Gerard.245@email.fr,ferdieG245,ferdieG245999,male,Je fais un mètre quatre-vingt. ,"geek,tv,vegan,lazy,music",48_photo_112233.jpeg,2-12-1998,48.8370970000003,2.312118,9
chanda,Roussel,female,chanda.Roussel.246@email.fr,chandaR246,chandaR246999,bisexual,Elle est jolie. ,"tv,piercing,geek,mountain,vegan,friends,lazy,sport,music,sea",98_photo_112233.jpeg,1-22-1971,48.8550970000004,2.339118,8
keeley,Gros,female,keeley.Gros.247@email.fr,keeleyG247,keeleyG247999,female,Allons voir. ,"piercing,vegan,sport",68_photo_112233.jpeg,10-2-1987,48.8875970000006,2.38786800000001,4
fedora,Gallet,female,fedora.Gallet.248@email.fr,fedoraG248,fedoraG248999,male,Je pense que c'est bon. ,"music,friends,sport,lazy,piercing,vegan,tv,geek,mountain,sea",london-5731175_640.jpg,3-15-1955,48.8490970000004,2.330118,6
halvdan,Vallet,male,halvdan.Vallet.249@email.fr,halvdanV249,halvdanV249999,female,Je ne me suis jamais vraiment posé la question. ,"music,lazy,sea,sport,tv,friends,piercing,geek,vegan",50_photo_112233.jpeg,7-2-1988,48.9465970000009,2.47636800000001,7
janey,Weber,female,janey.Weber.250@email.fr,janeyW250,janeyW250999,female,Tu es très sympa. ,"music,sea,lazy,vegan,geek",people-1285245_640.jpg,4-19-1989,48.973097000001,2.51611800000001,8
shari,Delattre,female,shari.Delattre.251@email.fr,shariD251,shariD251999,bisexual,J'ai besoin de changer de vêtements. ,"sport,music,vegan,piercing,mountain,sea,tv,friends,lazy",11_photo_112233.jpeg,7-16-1951,48.9505970000009,2.48236800000001,10
sukie,Gonzalez,female,sukie.Gonzalez.252@email.fr,sukieG252,sukieG252999,male,Rosi est rousse. ,"geek,piercing,music,lazy,tv",51_photo_112233.jpeg,12-5-1970,48.982097000001,2.52961800000001,2
hesiod,Voisin,male,hesiod.Voisin.253@email.fr,hesiodV253,hesiodV253999,female,Tu parles le français très bien. ,"lazy,sport,mountain,geek,vegan,friends,sea,music,tv",31_photo_112233.jpeg,3-12-1969,48.8625970000004,2.35036800000001,8
babirye,Cousin,female,babirye.Cousin.254@email.fr,babiryeC254,babiryeC254999,male,Elle est courageuse. ,"piercing,sport,tv,mountain,friends,vegan,music,geek",drama-1155445_640.jpg,4-5-1982,48.975097000001,2.51911800000001,3
heiner,Turpin,male,heiner.Turpin.255@email.fr,heinerT255,heinerT255999,female,Je ne sais pas m'en servir. ,tv,38_photo_112233.jpeg,7-16-1996,48.9025970000006,2.41036800000001,5
carey,Texier,male,carey.Texier.256@email.fr,careyT256,careyT256999,bisexual,A l'aide! ,"sea,vegan,friends,geek,lazy",businessman-6248246_640.jpg,5-16-1963,48.9580970000009,2.49361800000001,2
siavush,Blin,male,siavush.Blin.257@email.fr,siavushB257,siavushB257999,female,Il est marrant. ,"tv,music,geek,friends,piercing,sea,sport",people-5987395_640.jpg,4-23-1961,48.9250970000007,2.44411800000001,8
mehitabel,Rousseau,female,mehitabel.Rousseau.258@email.fr,mehitabelR258,mehitabelR258999,female,Il a de l‘humour. ,"geek,sport,vegan,music,sea,mountain,piercing,tv",woman-7186987_640.jpg,2-8-1952,48.9180970000007,2.43361800000001,4
huang,Wagner,male,huang.Wagner.259@email.fr,huangW259,huangW259999,bisexual,Il est gros. ,"vegan,sport,piercing,mountain",9_photo_112233.jpeg,5-10-1973,48.7985970000001,2.254368,4
sevastian,Marchal,male,sevastian.Marchal.260@email.fr,sevastianM260,sevastianM260999,bisexual,"Je suis désolé, nous sommes complets. ",sea,43_photo_112233.jpeg,6-26-1960,48.8260970000003,2.295618,10
haul,Lefort,male,haul.Lefort.261@email.fr,haulL261,haulL261999,female,Elle est amicale. ,"vegan,music,sea,friends,sport,lazy,tv,geek,piercing,mountain",man-210379_640.jpg,6-2-1963,48.8780970000005,2.37361800000001,5
bilhah,Delage,female,bilhah.Delage.262@email.fr,bilhahD262,bilhahD262999,female,Je suis un Américain. ,"music,lazy,sea,sport,tv,friends,piercing,geek,vegan",8_photo_112233.jpeg,9-5-1983,48.8890970000006,2.39011800000001,6
jerk,Alves,male,jerk.Alves.263@email.fr,jerkA263,jerkA263999,bisexual,Ma fille est ici. ,"sea,friends,piercing,mountain",82_photo_112233.jpeg,3-13-1953,48.8280970000003,2.298618,8
shirley,Rey,female,shirley.Rey.264@email.fr,shirleyR264,shirleyR264999,bisexual,Je lui dirai que tu as appelé. ,"friends,tv,sea,vegan,lazy,music,sport,geek,mountain,piercing",21_photo_112233.jpeg,10-1-1992,48.777097,2.222118,9
rachyl,Renaud,female,rachyl.Renaud.265@email.fr,rachylR265,rachylR265999,male,J'ai mal à la tête. ,"sport,music,piercing,lazy,tv,geek,vegan",woman-1462686_640.jpg,3-24-1965,48.770097,2.211618,6
abiram,Boyer,male,abiram.Boyer.266@email.fr,abiramB266,abiramB266999,bisexual,Elle est jolie. ,"geek,sport,vegan,music,sea,mountain,piercing,tv",people-3230020_640.jpg,8-6-1986,48.8645970000005,2.35336800000001,8
kym,Lemaire,female,kym.Lemaire.267@email.fr,kymL267,kymL267999,male,De temps en temps. ,"mountain,tv,friends,lazy,sport,geek",fashion-3057295_640.jpg,7-4-1975,48.8400970000003,2.316618,4
afonso,Delage,male,afonso.Delage.268@email.fr,afonsoD268,afonsoD268999,male,Je t’emmènerai à l'arrêt de bus. ,"friends,geek,music,vegan,piercing",brett-952573_640.jpg,6-20-1984,48.9375970000008,2.46286800000001,6
shadrach,Lecomte,male,shadrach.Lecomte.269@email.fr,shadrachL269,shadrachL269999,bisexual,Combien de langues est-ce que tu parles? ,"friends,lazy,mountain,vegan,geek,music,tv,piercing",6_photo_112233.jpeg,2-15-1955,48.8180970000002,2.283618,6
bryana,Besson,female,bryana.Besson.270@email.fr,bryanaB270,bryanaB270999,female,Est-ce que ton frère est allé en France ? ,"sea,lazy",102_photo_112233.jpeg,2-2-1989,48.8415970000004,2.318868,7
gloria,Dupuy,female,gloria.Dupuy.271@email.fr,gloriaD271,gloriaD271999,male,Je suis un Américain. ,"vegan,geek,lazy,friends,mountain",like-5321848_640.jpg,4-22-1996,48.9435970000008,2.47186800000001,3
keshaun,Guillet,male,keshaun.Guillet.272@email.fr,keshaunG272,keshaunG272999,female,Mon père y est allé. ,"geek,tv",59_photo_112233.jpeg,7-25-1972,48.8165970000002,2.281368,6
jazmin,Pasquier,female,jazmin.Pasquier.273@email.fr,jazminP273,jazminP273999,female,Je n'en veux pas. ,"music,sport,piercing,tv,lazy,friends,mountain,sea,vegan",actress-825670_640.jpg,5-25-1973,48.9215970000007,2.43886800000001,6
ulisses,Barbier,male,ulisses.Barbier.274@email.fr,ulissesB274,ulissesB274999,male,D'après moi ,"sea,vegan,mountain,friends,lazy",portrait-3241737_640.jpg,11-21-1968,48.9585970000009,2.49436800000001,3
varg,Maillet,male,varg.Maillet.275@email.fr,vargM275,vargM275999,female,C'est ma mère. ,"geek,friends,mountain,music,vegan,sea,tv,sport",64_photo_112233.jpeg,2-20-2001,48.8985970000006,2.40436800000001,6
murray,Costa,male,murray.Costa.276@email.fr,murrayC276,murrayC276999,male,Je préférerais ne pas (avoir à) me prononcer sur ,"friends,lazy,mountain,vegan,geek,music,tv,piercing",yoga-day-4329896_640.jpg,11-12-1979,48.976097000001,2.52061800000001,9
keenan,Joubert,male,keenan.Joubert.277@email.fr,keenanJ277,keenanJ277999,bisexual,Il a de l‘humour. ,"vegan,geek,lazy,friends,mountain",80_photo_112233.jpeg,1-19-2001,48.9100970000007,2.42161800000001,1
storm,Prevost,male,storm.Prevost.278@email.fr,stormP278,stormP278999,bisexual,Je veux seulement un en-cas. ,"sea,vegan,mountain,geek,sport,friends,music",83_photo_112233.jpeg,3-13-1958,48.8660970000005,2.35561800000001,10
regena,Lebon,female,regena.Lebon.279@email.fr,regenaL279,regenaL279999,bisexual,C'est dommage. ,"geek,vegan,sea,friends,tv,piercing,lazy,mountain,music,sport",67_photo_112233.jpeg,10-8-1951,48.9355970000008,2.45986800000001,1
wenona,Fleury,female,wenona.Fleury.280@email.fr,wenonaF280,wenonaF280999,bisexual,Elle est jolie. ,"mountain,geek,sport,tv,vegan,piercing,friends",98_photo_112233.jpeg,6-27-1990,48.8805970000005,2.37736800000001,4
prudenzio,Ribeiro,male,prudenzio.Ribeiro.281@email.fr,prudenzioR281,prudenzioR281999,bisexual,Il est / C'est injuste que ,"lazy,geek,tv,sea,sport",29_photo_112233.jpeg,9-3-1996,48.778597,2.224368,1
yasmina,Maire,female,yasmina.Maire.282@email.fr,yasminaM282,yasminaM282999,female,Partageons. ,"sport,geek,sea,lazy,piercing,friends,vegan,tv,music",like-5321848_640.jpg,11-2-1989,48.9255970000008,2.44486800000001,3
mojisola,Briand,female,mojisola.Briand.283@email.fr,mojisolaB283,mojisolaB283999,female,Est-ce que vous savez où il y a un magasin qui vend des serviettes? ,"mountain,piercing,friends,music,tv,vegan,lazy,sea,geek,sport",21_photo_112233.jpeg,3-11-2003,48.971597000001,2.51386800000001,2
stacee,Maire,female,stacee.Maire.284@email.fr,staceeM284,staceeM284999,bisexual,A demain. ,"vegan,sport,piercing,mountain",68_photo_112233.jpeg,5-6-1966,48.7990970000002,2.255118,8
ovid,Roy,male,ovid.Roy.285@email.fr,ovidR285,ovidR285999,female,J'espère que vous ferez un bon voyage. ,"piercing,sport,tv,mountain,friends,vegan,music,geek",mountain-5823822_640.jpg,9-19-1980,48.9565970000009,2.49136800000001,8
annabel,Rodrigues,female,annabel.Rodrigues.286@email.fr,annabelR286,annabelR286999,bisexual,"Très bien, merci. ","piercing,vegan,sea,music,mountain,friends,tv,sport",sonam-prajapati-6893225_640.jpg,12-4-1952,48.9000970000006,2.40661800000001,10
shahar,Dubois,female,shahar.Dubois.287@email.fr,shaharD287,shaharD287999,bisexual,Ça sent mauvais. ,"mountain,geek,friends,piercing,sea,vegan,sport",12_photo_112233.jpeg,10-23-1959,48.982097000001,2.52961800000001,6
araceli,Durand,female,araceli.Durand.288@email.fr,araceliD288,araceliD288999,female,Maria a les cheveux couleur noisette. ,"sea,music,friends,sport,vegan,mountain,geek",20_photo_112233.jpeg,2-1-1983,48.8385970000003,2.314368,8
morcant,Schmitt,female,morcant.Schmitt.289@email.fr,morcantS289,morcantS289999,bisexual,Il a les yeux bleus. ,"mountain,piercing,sea,friends,geek,vegan,lazy,tv,sport",people-3209886_640.jpg,6-8-1952,48.9485970000009,2.47936800000001,5
leona,Guyon,female,leona.Guyon.290@email.fr,leonaG290,leonaG290999,female,Nos enfants sont en Amérique. ,tv,39_photo_112233.jpeg,7-17-1988,48.8595970000004,2.34586800000001,3
rebecka,Maurin,female,rebecka.Maurin.291@email.fr,rebeckaM291,rebeckaM291999,male,Elle est paresseuse. ,"sea,vegan,friends,geek,lazy",14_photo_112233.jpeg,2-24-1977,48.8915970000006,2.39386800000001,7
norton,Da,male,norton.Da.292@email.fr,nortonD292,nortonD292999,male,Je me souviens. ,friends,frank-sinatra-1281484_640.jpg,2-20-1970,48.8070970000002,2.267118,5
robi,Perrin,male,robi.Perrin.293@email.fr,robiP293,robiP293999,bisexual,Je suis certain que ,"lazy,geek",88_photo_112233.jpeg,12-15-1991,48.8215970000003,2.288868,10
ern,Perrot,male,ern.Perrot.294@email.fr,ernP294,ernP294999,female,Depuis combien de temps est-ce que tu es ici? ,"friends,sea,mountain,tv,music,geek,sport,piercing,vegan,lazy",Jason_Statham_2018.jpg,2-8-1984,48.8510970000004,2.333118,5
junior,Vallet,male,junior.Vallet.295@email.fr,juniorV295,juniorV295999,bisexual,Rien d'autre. ,"mountain,geek,friends,piercing,sea,vegan,sport",man-210379_640.jpg,3-21-1965,48.9345970000008,2.45836800000001,10
zaira,Delaunay,female,zaira.Delaunay.296@email.fr,zairaD296,zairaD296999,bisexual,Tu es belle. ,"sea,friends,piercing,mountain",marilyn-monroe-555603_640.jpg,12-24-1974,48.9120970000007,2.42461800000001,1
tristin,Morel,male,tristin.Morel.297@email.fr,tristinM297,tristinM297999,male,Je ne vous entends pas. ,"music,geek,friends,vegan,sport,sea,mountain",53_photo_112233.jpeg,9-24-1995,48.7930970000001,2.246118,4
wahida,Jourdan,female,wahida.Jourdan.298@email.fr,wahidaJ298,wahidaJ298999,male,J'ai l'impression que ,"friends,tv,sea,vegan,lazy,music,sport,geek,mountain,piercing",portrait-3359403_640.jpg,7-22-1978,48.9430970000008,2.47111800000001,6
jadon,Seguin,male,jadon.Seguin.299@email.fr,jadonS299,jadonS299999,bisexual,Depuis combien de temps est tu es en France? ,"lazy,vegan,music",man-5757539_640.jpg,11-23-1985,48.9625970000009,2.50036800000001,5
laura,Roussel,female,laura.Roussel.300@email.fr,lauraR300,lauraR300999,bisexual,J'ai mal à la tête. ,"sea,vegan,mountain,geek,sport,friends,music",8_photo_112233.jpeg,4-15-1985,48.7830970000001,2.231118,9
tyriq,Valentin,male,tyriq.Valentin.301@email.fr,tyriqV301,tyriqV301999,female,Cette voiture ressemble à ma voiture. ,"mountain,geek,sport,tv,vegan,piercing,friends",man-8245780_640.webp,6-21-1957,48.8060970000002,2.265618,9
diana,Coste,female,diana.Coste.302@email.fr,dianaC302,dianaC302999,female,Je nettoie ma chambre. ,"music,lazy,sea,sport,tv,friends,piercing,geek,vegan",36_photo_112233.jpeg,12-28-1977,48.8285970000003,2.299368,4
gottfried,Maire,male,gottfried.Maire.303@email.fr,gottfriedM303,gottfriedM303999,bisexual,Je t’emmènerai à l'arrêt de bus. ,"piercing,vegan,sea,music,sport,mountain,lazy,tv,friends",43_photo_112233.jpeg,7-7-1994,48.8030970000002,2.261118,4
anise,Dupuis,female,anise.Dupuis.304@email.fr,aniseD304,aniseD304999,male,Fais attention. ,"lazy,sport,vegan,mountain",106_photo_112233.jpeg,5-24-1952,48.8810970000005,2.37811800000001,2
saraid,Courtois,female,saraid.Courtois.305@email.fr,saraidC305,saraidC305999,bisexual,Il est patient. ,"geek,piercing,music,lazy,tv",holland-315604_640.jpg,5-13-1956,48.8555970000004,2.339868,3
mariam,Ruiz,female,mariam.Ruiz.306@email.fr,mariamR306,mariamR306999,male,Tout est prêt. ,"mountain,piercing,sport,music,vegan",fashion-4746903_640.jpg,1-14-1961,48.9135970000007,2.42686800000001,6
chryssa,Roy,female,chryssa.Roy.307@email.fr,chryssaR307,chryssaR307999,male,Bonne idée. ,"music,friends,sport,lazy,piercing,vegan,tv,geek,mountain,sea",86_photo_112233.jpeg,8-23-1974,48.8525970000004,2.335368,1
farran,Millet,male,farran.Millet.308@email.fr,farranM308,farranM308999,female,Il est grand. ,"lazy,vegan,piercing,friends,sea,mountain",87_photo_112233.jpeg,3-9-1990,48.7790970000001,2.225118,2
angie,Couturier,female,angie.Couturier.309@email.fr,angieC309,angieC309999,female,J'estime que ,"geek,sport,friends,piercing,sea",woman-1462682_640.jpg,6-2-1951,48.8745970000005,2.36836800000001,2
nikomedes,Laporte,male,nikomedes.Laporte.310@email.fr,nikomedesL310,nikomedesL310999,male,Nos enfants sont en Amérique. ,"geek,sport,friends,piercing,sea",india-7547363_640.jpg,11-9-1959,48.8980970000006,2.40361800000001,10
ginevra,Gilbert,female,ginevra.Gilbert.311@email.fr,ginevraG311,ginevraG311999,bisexual,Ils vont revenir tout de suite. ,"friends,lazy,mountain,vegan,geek,music,tv,piercing",girl-2491656_640.jpg,12-19-1992,48.8535970000004,2.336868,4
justine,Le,female,justine.Le.312@email.fr,justineL312,justineL312999,bisexual,"Non, je suis américain. ","sea,vegan,geek,tv,lazy",head-shoot-1542339_640.jpg,10-6-1991,48.8345970000003,2.308368,3
azarel,Rodriguez,male,azarel.Rodriguez.313@email.fr,azarelR313,azarelR313999,female,Bonne idée. ,"sea,vegan,geek,tv,lazy",31_photo_112233.jpeg,1-22-1953,48.9435970000008,2.47186800000001,10
montana,Guilbert,female,montana.Guilbert.314@email.fr,montanaG314,montanaG314999,female,Je pensais que les vêtements étaient plus chers. ,"friends,tv,sea,vegan,lazy,music,sport,geek,mountain,piercing",actors-1851317_640.jpg,3-4-1994,48.9355970000008,2.45986800000001,4
micheline,Salmon,female,micheline.Salmon.315@email.fr,michelineS315,michelineS315999,bisexual,Comment t'appelles-tu ? ,"geek,sport,music,tv,friends,piercing,mountain,vegan,sea,lazy",102_photo_112233.jpeg,10-11-1982,48.8880970000006,2.38861800000001,10
hideaki,Boutin,male,hideaki.Boutin.316@email.fr,hideakiB316,hideakiB316999,female,Tu es belle. ,"music,lazy,vegan,friends",25_photo_112233.jpeg,11-8-1998,48.8910970000006,2.39311800000001,2
aphrodisia,Blondel,female,aphrodisia.Blondel.317@email.fr,aphrodisiaB317,aphrodisiaB317999,bisexual,On dit que ,"music,sport,piercing,tv,lazy,friends,mountain,sea,vegan",20_photo_112233.jpeg,5-2-1967,48.8240970000003,2.292618,9
jubal,Langlois,male,jubal.Langlois.318@email.fr,jubalL318,jubalL318999,female,Je veux seulement un en-cas. ,"mountain,lazy,geek,sea",man-8245776_640.webp,1-15-1951,48.977097000001,2.52211800000001,1
senan,Faure,male,senan.Faure.319@email.fr,senanF319,senanF319999,bisexual,Je fais un mètre quatre-vingt. ,"lazy,mountain,piercing,tv",6_photo_112233.jpeg,5-9-1998,48.9540970000009,2.48761800000001,5
mustafa,Thierry,male,mustafa.Thierry.320@email.fr,mustafaT320,mustafaT320999,male,Je n'en veux pas. ,"mountain,geek,tv",smile-1221915_640.jpg,2-26-1960,48.9220970000007,2.43961800000001,6
vladimir,Sanchez,male,vladimir.Sanchez.321@email.fr,vladimirS321,vladimirS321999,male,C'est la première fois que je viens ici. ,"sport,music,friends,sea,mountain,lazy,tv",people-5987395_640.jpg,9-12-1999,48.8665970000005,2.35636800000001,5
torquil,Deschamps,male,torquil.Deschamps.322@email.fr,torquilD322,torquilD322999,bisexual,J'ai l'impression que ,"friends,tv,sea,sport,music,geek",man-8245776_640.webp,9-23-1959,48.8740970000005,2.36761800000001,1
evelina,Faivre,female,evelina.Faivre.323@email.fr,evelinaF323,evelinaF323999,female,Tu es belle. ,"lazy,sport,vegan,mountain",12_photo_112233.jpeg,3-23-1981,48.9060970000007,2.41561800000001,4
deandre,Faivre,male,deandre.Faivre.324@email.fr,deandreF324,deandreF324999,bisexual,laisse-moi y réfléchir. ,tv,70_photo_112233.jpeg,10-21-1991,48.8610970000004,2.34811800000001,1
euphranor,Morvan,male,euphranor.Morvan.325@email.fr,euphranorM325,euphranorM325999,bisexual,Rien d'autre. ,"sea,vegan,friends,geek,lazy",7_photo_112233.jpeg,10-14-2004,48.970097000001,2.51161800000001,3
antoine,Laurent,male,antoine.Laurent.326@email.fr,antoineL326,antoineL326999,female,J'ai entendu dire que ,"tv,music,sport,sea,mountain,piercing,friends,vegan",9_photo_112233.jpeg,10-7-1957,48.7890970000001,2.240118,7
malak,Charpentier,female,malak.Charpentier.327@email.fr,malakC327,malakC327999,male,Essaie-le/la. ,"friends,mountain,sea,vegan,music",32_photo_112233.jpeg,1-21-1976,48.8650970000005,2.35411800000001,9
justin,Cousin,male,justin.Cousin.328@email.fr,justinC328,justinC328999,male,Je préférerais ne pas m'engager ,"mountain,lazy,geek,sea",photoshoot-5107285_640.jpg,6-25-1997,48.8585970000004,2.344368,7
grigori,Gerard,male,grigori.Gerard.329@email.fr,grigoriG329,grigoriG329999,male,Ne t'inquiète pas. ,"tv,music,sport,sea,mountain,piercing,friends,vegan",100_photo_112233.jpeg,6-6-2002,48.9260970000008,2.44561800000001,7
garry,Toussaint,male,garry.Toussaint.330@email.fr,garryT330,garryT330999,male,Juste un moment. ,"sea,friends,piercing,mountain",79_photo_112233.jpeg,2-11-2004,48.9560970000009,2.49061800000001,7
tennyson,Hoareau,male,tennyson.Hoareau.331@email.fr,tennysonH331,tennysonH331999,bisexual,Je suis persuadé que ,"geek,piercing,music,lazy,tv",59_photo_112233.jpeg,10-6-1969,48.980597000001,2.52736800000001,3
edmund,Brunel,male,edmund.Brunel.332@email.fr,edmundB332,edmundB332999,female,Il est marrant. ,"sea,geek,lazy",men-7050835_640.jpg,5-7-1992,48.7920970000001,2.244618,9
ruth,Benard,female,ruth.Benard.333@email.fr,ruthB333,ruthB333999,male,Je sais / Nous savons que ,"piercing,sport,tv,mountain,friends,vegan,music,geek",49_photo_112233.jpeg,11-7-1974,48.8255970000003,2.294868,10
lieselotte,Poirier,female,lieselotte.Poirier.334@email.fr,lieselotteP334,lieselotteP334999,bisexual,J'ai soif. ,"mountain,piercing,friends,music,tv,vegan,lazy,sea,geek,sport",5_photo_112233.jpeg,8-22-1968,48.774097,2.217618,3
karoline,Pons,female,karoline.Pons.335@email.fr,karolineP335,karolineP335999,male,Je pense que c'est très bon. ,"sea,vegan,friends,geek,lazy",theater-200716_640.jpg,12-13-2000,48.9360970000008,2.46061800000001,7
hollie,Hoarau,female,hollie.Hoarau.336@email.fr,hollieH336,hollieH336999,female,Il est sophistiqué. ,"friends,piercing,lazy,geek,music",72_photo_112233.jpeg,2-21-1966,48.8535970000004,2.336868,10
aella,Lebreton,female,aella.Lebreton.337@email.fr,aellaL337,aellaL337999,bisexual,Quel est votre nom de famille ? ,"lazy,sport,vegan,mountain",3_photo_112233.jpeg,9-13-1955,48.8940970000006,2.39761800000001,10
haleigh,Rousseau,female,haleigh.Rousseau.338@email.fr,haleighR338,haleighR338999,female,Ce n'est pas vrai. ,"piercing,friends,geek,sport,music",16_photo_112233.jpeg,10-11-1959,48.8050970000002,2.264118,3
kawacatoose,Meunier,male,kawacatoose.Meunier.339@email.fr,kawacatooseM339,kawacatooseM339999,female,Je pensais que les vêtements étaient plus chers. ,"lazy,geek,friends,mountain,sport,music,piercing,vegan",actor-63082_640.jpg,11-11-1986,48.9370970000008,2.46211800000001,5
adonis,Riviere,male,adonis.Riviere.340@email.fr,adonisR340,adonisR340999,male,Est-ce que tu veux venir avec moi? ,"friends,tv,sea,sport,music,geek",94_photo_112233.jpeg,7-17-2003,48.9020970000006,2.40961800000001,4
zaramama,Perrier,female,zaramama.Perrier.341@email.fr,zaramamaP341,zaramamaP341999,bisexual,Je considère que ,geek,woman-7186987_640.jpg,5-7-1982,48.7980970000001,2.253618,10
meg,Schneider,female,meg.Schneider.342@email.fr,megS342,megS342999,male,Je l'aime. ,"sea,friends,piercing,mountain",71_photo_112233.jpeg,11-8-1964,48.7850970000001,2.234118,5
donal,Robin,male,donal.Robin.343@email.fr,donalR343,donalR343999,female,Je suis sûr que ,"geek,tv,vegan,lazy,music",56_photo_112233.jpeg,9-23-1962,48.9010970000006,2.40811800000001,9
herman,Klein,male,herman.Klein.344@email.fr,hermanK344,hermanK344999,female,C'est pas mal. ,"piercing,sea,vegan,geek,lazy,sport",24_photo_112233.jpeg,7-16-1967,48.8655970000005,2.35486800000001,4
etta,Rousseau,female,etta.Rousseau.345@email.fr,ettaR345,ettaR345999,female,Maria a les cheveux couleur noisette. ,"geek,friends,mountain,music,vegan,sea,tv,sport",101_photo_112233.jpeg,6-16-1959,48.7960970000001,2.250618,8
shireen,Guyot,female,shireen.Guyot.346@email.fr,shireenG346,shireenG346999,bisexual,Je voudrais connaître / avoir votre réaction face à ,"lazy,sport,vegan,mountain",32_photo_112233.jpeg,3-5-1977,48.8750970000005,2.36911800000001,1
kyriake,Lefevre,female,kyriake.Lefevre.347@email.fr,kyriakeL347,kyriakeL347999,bisexual,Si vous voulez mon opinion/avis ,"piercing,vegan,tv,mountain,sport,music,sea,lazy,geek",107_photo_112233.jpeg,7-8-1992,48.8290970000003,2.300118,9
eero,Fournier,male,eero.Fournier.348@email.fr,eeroF348,eeroF348999,male,Il est marrant. ,"friends,sea,mountain,tv,music,geek,sport,piercing,vegan,lazy",jorn-schlonvogt-1202320_640.jpg,6-7-1987,48.8240970000003,2.292618,9
quanah,Gauthier,male,quanah.Gauthier.349@email.fr,quanahG349,quanahG349999,bisexual,Est-ce que tu vas prendre un avion ou un train? ,"music,friends,sport,lazy,piercing,vegan,tv,geek,mountain,sea",95_photo_112233.jpeg,8-8-1969,48.8835970000006,2.38186800000001,8
kaarlo,Perrin,male,kaarlo.Perrin.350@email.fr,kaarloP350,kaarloP350999,bisexual,Il est sérieux. ,"sport,music,piercing,lazy,tv,geek,vegan",33_photo_112233.jpeg,1-21-1977,48.9390970000008,2.46511800000001,7
eliana,Fouquet,female,eliana.Fouquet.351@email.fr,elianaF351,elianaF351999,female,Est-ce que ton mari est aussi de Boston? ,"sea,friends,piercing,mountain",5_photo_112233.jpeg,7-14-1981,48.9420970000008,2.46961800000001,5
eldreda,Costa,female,eldreda.Costa.352@email.fr,eldredaC352,eldredaC352999,bisexual,J'ai l'idée que ,"mountain,friends,sea,lazy,vegan,piercing,geek,tv,sport,music",61_photo_112233.jpeg,2-10-1963,48.777597,2.222868,1
leonidas,Dupuy,male,leonidas.Dupuy.353@email.fr,leonidasD353,leonidasD353999,bisexual,Je ne me sens pas bien. ,"sea,vegan,friends,geek,lazy",15_photo_112233.jpeg,3-5-1983,48.8730970000005,2.36611800000001,8
morgan,Girard,male,morgan.Girard.354@email.fr,morganG354,morganG354999,male,Depuis combien de temps est-ce que tu es ici? ,"geek,sport,friends,piercing,sea",58_photo_112233.jpeg,6-7-2002,48.968097000001,2.50861800000001,7
blythe,Noel,male,blythe.Noel.355@email.fr,blytheN355,blytheN355999,female,"Si vous avez besoin de mon aide, faites-le-moi savoir s'il vous plaît. ","tv,geek",man-8245780_640.webp,3-25-1997,48.7835970000001,2.231868,7
adalbert,Maillet,male,adalbert.Maillet.356@email.fr,adalbertM356,adalbertM356999,bisexual,Tout dépend de,"mountain,piercing,sea,friends,geek,vegan,lazy,tv,sport",man-6342455_640.jpg,11-24-1969,48.8310970000003,2.303118,9
fadl,Jacquet,male,fadl.Jacquet.357@email.fr,fadlJ357,fadlJ357999,bisexual,Je ne suis pas encore prêt. ,"lazy,geek,tv,sea,sport",groucho-marx-male-1278137_640.jpg,4-19-1966,48.9290970000008,2.45011800000001,6
mabelle,Lamy,female,mabelle.Lamy.358@email.fr,mabelleL358,mabelleL358999,male,Elle a les cheveux ondulés. ,"tv,piercing,geek,mountain,vegan,friends,lazy,sport,music,sea",102_photo_112233.jpeg,8-14-1976,48.7850970000001,2.234118,7
dareia,Charrier,female,dareia.Charrier.359@email.fr,dareiaC359,dareiaC359999,male,Avez-vous une opinion sur ,"piercing,sport,friends,geek,sea,tv,vegan,music",cafe-1699128_640.jpg,6-28-1952,48.7980970000001,2.253618,8
masha,Berger,female,masha.Berger.360@email.fr,mashaB360,mashaB360999,male,Depuis combien de temps est-ce que tu habites ici? ,"geek,sport,friends,piercing,sea",model-3362457_640.jpg,3-4-1964,48.8755970000005,2.36986800000001,8
blair,Le,male,blair.Le.361@email.fr,blairL361,blairL361999,male,Les affaires vont bien. ,"sport,music,piercing,lazy,tv,geek,vegan",25_photo_112233.jpeg,1-9-1974,48.9445970000008,2.47336800000001,8
gasper,Fleury,male,gasper.Fleury.362@email.fr,gasperF362,gasperF362999,bisexual,Je reviendrai plus tard. ,"lazy,mountain,piercing,tv",human-3094550_640.jpg,10-22-1953,48.8000970000001,2.256618,7
ingram,Noel,male,ingram.Noel.363@email.fr,ingramN363,ingramN363999,male,Lisa a les cheveux longs. ,"mountain,piercing,sport,music,vegan",15_photo_112233.jpeg,12-17-1982,48.8745970000005,2.36836800000001,3
ludwig,Hamon,male,ludwig.Hamon.364@email.fr,ludwigH364,ludwigH364999,bisexual,J'ai trente-deux ans. ,"geek,sport,vegan,music,sea,mountain,piercing,tv",30_photo_112233.jpeg,4-23-1972,48.777597,2.222868,9
ren,Jacquet,female,ren.Jacquet.365@email.fr,renJ365,renJ365999,female,Tente ta chance. ,"sea,mountain,music,tv,sport,friends,geek",street-performers-870119_640.jpg,2-18-1989,48.9500970000009,2.48161800000001,1
siani,Sauvage,female,siani.Sauvage.366@email.fr,sianiS366,sianiS366999,female,Peter a les cheveux noirs. ,friends,woman-6002459_640.jpg,11-15-1972,48.8735970000005,2.36686800000001,5
nissa,Rodrigues,female,nissa.Rodrigues.367@email.fr,nissaR367,nissaR367999,female,Il est / C'est clair que ,"tv,music,sport,sea,mountain,piercing,friends,vegan",36_photo_112233.jpeg,2-25-1965,48.9645970000009,2.50336800000001,10
mary,Bertin,female,mary.Bertin.368@email.fr,maryB368,maryB368999,bisexual,Est-ce que tu veux venir avec moi? ,friends,105_photo_112233.jpeg,4-24-1973,48.8520970000004,2.334618,8
dimitar,Martel,male,dimitar.Martel.369@email.fr,dimitarM369,dimitarM369999,bisexual,Chicago est très différente de Boston. ,"piercing,friends,geek,sport,music",male-model-7686778_640.jpg,12-21-1994,48.8720970000005,2.36461800000001,1
tel,Guibert,male,tel.Guibert.370@email.fr,telG370,telG370999,male,Il est / C'est impossible que ,"sea,vegan,friends,geek,lazy",78_photo_112233.jpeg,4-23-1968,48.9300970000008,2.45161800000001,6
britta,Blondel,female,britta.Blondel.371@email.fr,brittaB371,brittaB371999,female,C'est dommage. ,"tv,geek,sea,sport,piercing,mountain,vegan,music,friends,lazy",89_photo_112233.jpeg,9-11-1962,48.8240970000003,2.292618,9
yannic,Roger,male,yannic.Roger.372@email.fr,yannicR372,yannicR372999,male,Je lui dirai que tu as appelé. ,"lazy,sea,sport,music",50_photo_112233.jpeg,9-18-1985,48.8780970000005,2.37361800000001,2
aranka,Rousset,female,aranka.Rousset.373@email.fr,arankaR373,arankaR373999,male,Je considère que ,"vegan,geek,mountain,music,sea,piercing,tv,lazy,friends",fashion-3057295_640.jpg,3-25-1995,48.9475970000009,2.47786800000001,5
christianne,Maurice,female,christianne.Maurice.374@email.fr,christianneM374,christianneM374999,female,Je ne suis pas marié. ,"mountain,piercing,sport,music,vegan",27_photo_112233.jpeg,12-25-1960,48.9445970000008,2.47336800000001,5
graham,Martel,male,graham.Martel.375@email.fr,grahamM375,grahamM375999,male,Telle est mon opinion sur... ,"lazy,mountain,piercing,tv",man-3252165_640.jpg,3-21-1973,48.9565970000009,2.49136800000001,1
eleonoora,Sauvage,female,eleonoora.Sauvage.376@email.fr,eleonooraS376,eleonooraS376999,female,Est-ce que tu es libre ce soir? ,"piercing,sport,tv,mountain,friends,vegan,music,geek",17_photo_112233.jpeg,11-9-1986,48.9495970000009,2.48086800000001,10
lizzy,Delorme,female,lizzy.Delorme.377@email.fr,lizzyD377,lizzyD377999,female,Je parle un peu d'anglais. ,"music,mountain,piercing,lazy,tv,geek,vegan,sport,friends,sea",22_photo_112233.jpeg,12-9-1980,48.985097000001,2.53411800000001,5
romain,Duval,male,romain.Duval.378@email.fr,romainD378,romainD378999,bisexual,Tu es plus intelligent que lui. ,"friends,tv,sea,sport,music,geek",actor-63082_640.jpg,1-16-1984,48.8070970000002,2.267118,3
lia,Bouchet,female,lia.Bouchet.379@email.fr,liaB379,liaB379999,male,Je fais un mètre quatre-vingt. ,"mountain,lazy,piercing,sport,vegan",surprise-5321849_640.jpg,8-4-1972,48.9035970000006,2.41186800000001,9
andela,Laurent,female,andela.Laurent.380@email.fr,andelaL380,andelaL380999,male,Elle est forte. ,"mountain,piercing,sea,friends,geek,vegan,lazy,tv,sport",people-3209886_640.jpg,11-5-1984,48.7800970000001,2.226618,4
aristomache,Buisson,female,aristomache.Buisson.381@email.fr,aristomacheB381,aristomacheB381999,female,Selon vous ,"vegan,lazy,sea,mountain,sport,friends,music,piercing,tv",woman-1462683_640.jpg,12-7-1957,48.8620970000004,2.34961800000001,1
buz,Imbert,male,buz.Imbert.382@email.fr,buzI382,buzI382999,female,Quelle est votre attitude à l'égard de ,"piercing,vegan,sea,music,sport,mountain,lazy,tv,friends",man-8245780_640.webp,10-15-1998,48.8245970000003,2.293368,10
cajsa,Paris,female,cajsa.Paris.383@email.fr,cajsaP383,cajsaP383999,bisexual,Plus que ça. ,"lazy,geek,tv,sea,sport",fright-7989944_640.jpg,6-14-1962,48.7995970000002,2.255868,8
marcel,Chevalier,male,marcel.Chevalier.384@email.fr,marcelC384,marcelC384999,male,Je l'aime. ,"music,sport,piercing,tv,lazy,friends,mountain,sea,vegan",businessman-6248246_640.jpg,9-25-1975,48.9200970000007,2.43661800000001,3
george,Blanchet,male,george.Blanchet.385@email.fr,georgeB385,georgeB385999,bisexual,À mon avis ,"music,lazy,sea,sport,tv,friends,piercing,geek,vegan",58_photo_112233.jpeg,1-24-1987,48.9055970000007,2.41486800000001,2
benedek,Maurice,male,benedek.Maurice.386@email.fr,benedekM386,benedekM386999,female,J'ai entendu parler de ,"piercing,sport,friends,geek,sea,tv,vegan,music",jackie-chan-2689112_1280.jpg,8-19-1970,48.973097000001,2.51611800000001,6
rashmi,Gaudin,female,rashmi.Gaudin.387@email.fr,rashmiG387,rashmiG387999,female,Juste là. ,"lazy,geek,tv,sea,sport",13_photo_112233.jpeg,12-1-1969,48.973097000001,2.51611800000001,1
sakura,Roger,female,sakura.Roger.388@email.fr,sakuraR388,sakuraR388999,bisexual,Qu'est-ce que tu veux faire ? ,"mountain,friends,sea,lazy,vegan,piercing,geek,tv,sport,music",1_photo_112233.jpeg,3-23-1978,48.8385970000003,2.314368,1
cain,Aubert,male,cain.Aubert.389@email.fr,cainA389,cainA389999,bisexual,C'est très important. ,"sea,vegan,geek,tv,lazy",humphrey-bogart-male-1278138_640.jpg,11-24-1995,48.8555970000004,2.339868,9
susan,Roche,female,susan.Roche.390@email.fr,susanR390,susanR390999,bisexual,Ce n'est pas vrai. ,"mountain,tv,friends,lazy,sport,geek",portrait-3359403_640.jpg,5-25-1975,48.7780970000001,2.223618,6
krystyn,Germain,male,krystyn.Germain.391@email.fr,krystynG391,krystynG391999,male,Est-ce que tu fais du sport? ,"lazy,sport,vegan,mountain",31_photo_112233.jpeg,8-21-2002,48.9535970000009,2.48686800000001,6
aneirin,Mallet,male,aneirin.Mallet.392@email.fr,aneirinM392,aneirinM392999,female,Selon moi ,"music,geek,sport,tv,vegan,mountain",15_photo_112233.jpeg,11-2-2003,48.9505970000009,2.48236800000001,6
achim,Fabre,male,achim.Fabre.393@email.fr,achimF393,achimF393999,bisexual,Tout est prêt. ,"friends,lazy,mountain,vegan,geek,music,tv,piercing",man-6342455_640.jpg,3-15-1985,48.8605970000004,2.34736800000001,7
marlowe,Bazin,male,marlowe.Bazin.394@email.fr,marloweB394,marloweB394999,bisexual,Il est gros. ,"music,friends,sport,lazy,piercing,vegan,tv,geek,mountain,sea",82_photo_112233.jpeg,6-1-2002,48.8590970000004,2.34511800000001,10
misti,Valette,female,misti.Valette.395@email.fr,mistiV395,mistiV395999,male,Elle est forte. ,"geek,vegan,sea,friends,tv,piercing,lazy,mountain,music,sport",20_photo_112233.jpeg,9-7-1995,48.8490970000004,2.330118,9
derick,Georges,male,derick.Georges.396@email.fr,derickG396,derickG396999,female,Est-ce que tu as pris tes médicaments? ,"sea,geek,lazy",56_photo_112233.jpeg,9-16-1991,48.8360970000003,2.310618,4
akiko,Huet,female,akiko.Huet.397@email.fr,akikoH397,akikoH397999,male,J'ai mal à la tête. ,"music,lazy,vegan,friends",woman-7186987_640.jpg,5-25-1974,48.8360970000003,2.310618,2
lex,Le,male,lex.Le.398@email.fr,lexL398,lexL398999,bisexual,J'ignore tout de ,"mountain,piercing,sea,friends,geek,vegan,lazy,tv,sport",face-3265605_640.jpg,12-12-1987,48.8885970000006,2.38936800000001,10
leonty,Loiseau,male,leonty.Loiseau.399@email.fr,leontyL399,leontyL399999,bisexual,D'après moi ,"geek,vegan,sea,friends,tv,piercing,lazy,mountain,music,sport",man-8245776_640.webp,9-7-1967,48.9110970000007,2.42311800000001,8
oprah,Bonnet,female,oprah.Bonnet.400@email.fr,oprahB400,oprahB400999,female,Rien d'autre. ,"mountain,music,tv,sport,geek,sea,friends,piercing,lazy,vegan",85_photo_112233.jpeg,8-9-1960,48.973097000001,2.51611800000001,8
narinder,Martineau,male,narinder.Martineau.401@email.fr,narinderM401,narinderM401999,female,Il est / C'est certain que ,geek,kevin-bacon-83495_640.jpg,9-7-1962,48.8625970000004,2.35036800000001,4
behruz,Didier,male,behruz.Didier.402@email.fr,behruzD402,behruzD402999,male,Est-ce que tu viens ce soir? ,"mountain,music,tv,sport,geek,sea,friends,piercing,lazy,vegan",brett-952579_640.jpg,2-28-1985,48.775597,2.219868,10
linzi,Delmas,female,linzi.Delmas.403@email.fr,linziD403,linziD403999,bisexual,Je veux seulement un en-cas. ,"mountain,friends,sea,lazy,vegan,piercing,geek,tv,sport,music",3_photo_112233.jpeg,9-21-1993,48.9415970000008,2.46886800000001,5
allan,Mallet,male,allan.Mallet.404@email.fr,allanM404,allanM404999,male,Elle est laide ,"tv,geek,sea,sport,piercing,mountain,vegan,music,friends,lazy",portrait-3060106_640.jpg,12-28-1975,48.7790970000001,2.225118,8
slawomir,Blanchet,male,slawomir.Blanchet.405@email.fr,slawomirB405,slawomirB405999,female,On dit que ,"mountain,sport,sea,friends,lazy",18_photo_112233.jpeg,12-24-1987,48.8565970000004,2.341368,4
karsten,Dos,male,karsten.Dos.406@email.fr,karstenD406,karstenD406999,bisexual,Les affaires vont bien. ,"music,sport,piercing,tv,lazy,friends,mountain,sea,vegan",64_photo_112233.jpeg,7-23-2000,48.8435970000004,2.321868,8
jenaro,Lejeune,male,jenaro.Lejeune.407@email.fr,jenaroL407,jenaroL407999,female,Est-ce que tu en as un autre? ,"music,friends,sport,lazy,piercing,vegan,tv,geek,mountain,sea",80_photo_112233.jpeg,2-5-1974,48.8910970000006,2.39311800000001,8
onora,Bertin,female,onora.Bertin.408@email.fr,onoraB408,onoraB408999,bisexual,Excusez-moi. ,"mountain,piercing,sea,friends,geek,vegan,lazy,tv,sport",8_photo_112233.jpeg,1-13-1988,48.980097000001,2.52661800000001,7
sib,Rodrigues,male,sib.Rodrigues.409@email.fr,sibR409,sibR409999,female,Avez-vous une opinion sur ,"tv,geek,sea,sport,piercing,mountain,vegan,music,friends,lazy",brett-952561_640.jpg,10-27-1985,48.8335970000003,2.306868,2
donat,Caron,male,donat.Caron.410@email.fr,donatC410,donatC410999,bisexual,Je préférerais ne pas m'engager ,"tv,sea",87_photo_112233.jpeg,6-6-2002,48.978597000001,2.52436800000001,8
ilario,Fleury,male,ilario.Fleury.411@email.fr,ilarioF411,ilarioF411999,bisexual,C'est plus long que deux kilomètres. ,"friends,tv,sea,sport,music,geek",41_photo_112233.jpeg,4-14-2000,48.9580970000009,2.49361800000001,1
myrna,Langlois,female,myrna.Langlois.412@email.fr,myrnaL412,myrnaL412999,male,Juste ici. ,"piercing,sport,friends,geek,sea,tv,vegan,music",holland-315604_640.jpg,4-19-1998,48.7935970000001,2.246868,3
piety,Devaux,female,piety.Devaux.413@email.fr,pietyD413,pietyD413999,bisexual,Je suis sûr que ,"sea,mountain,music,tv,sport,friends,geek",61_photo_112233.jpeg,8-27-1997,48.8285970000003,2.299368,7
talya,Allain,female,talya.Allain.414@email.fr,talyaA414,talyaA414999,bisexual,Je t'aime. ,"mountain,tv,friends,lazy,sport,geek",45_photo_112233.jpeg,10-25-1950,48.8275970000003,2.297868,10
cyrille,Sanchez,male,cyrille.Sanchez.415@email.fr,cyrilleS415,cyrilleS415999,female,Voudriez-vous acheter ça ? ,"mountain,geek,tv",96_photo_112233.jpeg,9-9-1974,48.8005970000002,2.257368,3
ionel,Vial,male,ionel.Vial.416@email.fr,ionelV416,ionelV416999,male,J'ai besoin de changer de vêtements. ,"piercing,vegan,sea,music,sport,mountain,lazy,tv,friends",horse-144550_640.jpg,2-1-1966,48.9185970000007,2.43436800000001,6
basim,Lacroix,male,basim.Lacroix.417@email.fr,basimL417,basimL417999,male,Non. ,"lazy,vegan,piercing,friends,sea,mountain",108_photo_112233.jpeg,2-13-1983,48.7780970000001,2.223618,9
themistocles,Michel,male,themistocles.Michel.418@email.fr,themistoclesM418,themistoclesM418999,male,Je ne veux pas ça. ,"sport,music,friends,sea,mountain,lazy,tv",actor-63082_640.jpg,6-15-1999,48.9265970000008,2.44636800000001,3
della,Hamon,female,della.Hamon.419@email.fr,dellaH419,dellaH419999,male,Ma fille est ici. ,"sport,tv,sea",27_photo_112233.jpeg,11-6-1968,48.9290970000008,2.45011800000001,4
theophilus,Raymond,male,theophilus.Raymond.420@email.fr,theophilusR420,theophilusR420999,female,Je nettoie ma chambre. ,"lazy,music,tv,sport,vegan,mountain,piercing,sea",70_photo_112233.jpeg,9-16-1958,48.770097,2.211618,1
wardell,Garcia,male,wardell.Garcia.421@email.fr,wardellG421,wardellG421999,male,Il est mal élevé. ,"friends,sea,mountain,tv,music,geek,sport,piercing,vegan,lazy",2_photo_112233.jpeg,4-11-1999,48.8525970000004,2.335368,6
dmitri,Maurin,male,dmitri.Maurin.422@email.fr,dmitriM422,dmitriM422999,male,Tu es très sympa. ,"lazy,sea,sport,music",29_photo_112233.jpeg,9-14-1954,48.9125970000007,2.42536800000001,7
celestine,Allain,male,celestine.Allain.423@email.fr,celestineA423,celestineA423999,bisexual,Tina a les cheveux bouclés. ,friends,brett-952573_640.jpg,2-16-1995,48.9325970000008,2.45536800000001,2
anouk,Roche,female,anouk.Roche.424@email.fr,anoukR424,anoukR424999,bisexual,As-tu besoin de quelque chose? ,"mountain,geek,friends,piercing,sea,vegan,sport",22_photo_112233.jpeg,7-21-2004,48.9485970000009,2.47936800000001,4
viktoria,Maurin,female,viktoria.Maurin.425@email.fr,viktoriaM425,viktoriaM425999,male,Je considère que ,"geek,tv",90_photo_112233.jpeg,10-16-1960,48.9075970000007,2.41786800000001,7
lorena,Hernandez,female,lorena.Hernandez.426@email.fr,lorenaH426,lorenaH426999,bisexual,C'est la première fois que je viens ici. ,music,67_photo_112233.jpeg,4-11-1995,48.7960970000001,2.250618,10
sharlene,Seguin,female,sharlene.Seguin.427@email.fr,sharleneS427,sharleneS427999,bisexual,J'ai deux sœurs. ,"sea,vegan,geek,tv,lazy",67_photo_112233.jpeg,4-13-1953,48.8085970000002,2.269368,9
uzziel,Guillon,male,uzziel.Guillon.428@email.fr,uzzielG428,uzzielG428999,bisexual,Il est grand. ,"friends,lazy,mountain,vegan,geek,music,tv,piercing",india-7547363_640.jpg,8-23-1965,48.9355970000008,2.45986800000001,8
gorden,Blondel,male,gorden.Blondel.429@email.fr,gordenB429,gordenB429999,male,Je suis ici depuis deux jours. ,"friends,piercing,sea",43_photo_112233.jpeg,9-11-1985,48.8300970000003,2.301618,2
nahum,Guillet,male,nahum.Guillet.430@email.fr,nahumG430,nahumG430999,female,Est-ce que tu aimes ce livre? ,"sea,friends,piercing,mountain",allan-warren-872631_640.jpg,6-10-1970,48.8225970000003,2.290368,8
chauncey,Laporte,male,chauncey.Laporte.431@email.fr,chaunceyL431,chaunceyL431999,male,Je crois que ,"tv,music,vegan",groucho-marx-male-1278137_640.jpg,7-16-1951,48.8645970000005,2.35336800000001,4
hannelore,Verdier,female,hannelore.Verdier.432@email.fr,hanneloreV432,hanneloreV432999,bisexual,Combien de personnes est-ce qu'il y a dans ta famille? ,"friends,sea,mountain,tv,music,geek,sport,piercing,vegan,lazy",models-4277829_640.jpg,4-17-1950,48.9660970000009,2.50561800000001,8
osvaldo,Martins,male,osvaldo.Martins.433@email.fr,osvaldoM433,osvaldoM433999,female,Je nettoie ma chambre. ,"friends,lazy,mountain,vegan,geek,music,tv,piercing",snoop-dog-81879_640.jpg,8-19-1972,48.769097,2.210118,10
emilia,Potier,female,emilia.Potier.434@email.fr,emiliaP434,emiliaP434999,female,Juste ici. ,"friends,tv,sea,vegan,lazy,music,sport,geek,mountain,piercing",22_photo_112233.jpeg,11-8-1976,48.9495970000009,2.48086800000001,4
piritta,Dupuy,female,piritta.Dupuy.435@email.fr,pirittaD435,pirittaD435999,bisexual,C'est trop. ,"music,lazy,vegan,friends",90_photo_112233.jpeg,5-21-1959,48.8885970000006,2.38936800000001,8
caron,Riviere,female,caron.Riviere.436@email.fr,caronR436,caronR436999,bisexual,"Je suis désolé, nous sommes complets. ","friends,mountain,sea,vegan,music",people-1285245_640.jpg,6-1-1998,48.8190970000002,2.285118,2
pegasus,Leconte,male,pegasus.Leconte.437@email.fr,pegasusL437,pegasusL437999,female,C'est vrai. ,"lazy,geek",82_photo_112233.jpeg,6-27-1952,48.8630970000005,2.35111800000001,6
italo,Rousseau,male,italo.Rousseau.438@email.fr,italoR438,italoR438999,male,Elle est calme. ,"lazy,vegan,music",personification-1508890_640.jpg,10-14-1989,48.9475970000009,2.47786800000001,9
friedemann,Le,male,friedemann.Le.439@email.fr,friedemannL439,friedemannL439999,female,Elle est petite. ,"sport,music,piercing,lazy,tv,geek,vegan",man-8245780_640.webp,12-24-1985,48.8405970000003,2.317368,6
miguela,Peltier,female,miguela.Peltier.440@email.fr,miguelaP440,miguelaP440999,male,Ce sont les mêmes. ,"tv,piercing,geek,mountain,vegan,friends,lazy,sport,music,sea",cafe-1699128_640.jpg,6-22-1972,48.971597000001,2.51386800000001,6
esyllt,Bigot,female,esyllt.Bigot.441@email.fr,esylltB441,esylltB441999,bisexual,Nik a les cheveux courts. ,friends,ramayana-festival-1807516_640.jpg,10-16-1961,48.8405970000003,2.317368,2
darcey,Barbier,female,darcey.Barbier.442@email.fr,darceyB442,darceyB442999,male,Depuis combien de temps est-ce que tu es ici? ,"lazy,vegan,music",90_photo_112233.jpeg,5-2-1952,48.8305970000003,2.302368,4
colby,Roussel,male,colby.Roussel.443@email.fr,colbyR443,colbyR443999,female,Je ne sais pas m'en servir. ,"piercing,vegan,tv,mountain,sport,music,sea,lazy,geek",snoop-dog-81879_640.jpg,2-26-1960,48.9290970000008,2.45011800000001,8
muirenn,Dos,female,muirenn.Dos.444@email.fr,muirennD444,muirennD444999,bisexual,Tina a les cheveux bouclés. ,"lazy,sport,vegan,mountain",98_photo_112233.jpeg,4-5-1966,48.9470970000009,2.47711800000001,6
dorit,Maillot,female,dorit.Maillot.445@email.fr,doritM445,doritM445999,female,Laisse-moi vérifier. ,"piercing,vegan,sport",fashion-3057295_640.jpg,12-10-1972,48.776597,2.221368,3
jeanne,Fouquet,female,jeanne.Fouquet.446@email.fr,jeanneF446,jeanneF446999,female,Je crois que ,"sea,vegan,mountain,geek,sport,friends,music",68_photo_112233.jpeg,3-25-1989,48.8850970000006,2.38411800000001,3
allie,Martins,female,allie.Martins.447@email.fr,allieM447,allieM447999,bisexual,Je dois laver mes vêtements. ,"piercing,sea,vegan,geek,lazy,sport",street-performers-870119_640.jpg,2-22-1972,48.9170970000007,2.43211800000001,3
shamgar,Blanchet,male,shamgar.Blanchet.448@email.fr,shamgarB448,shamgarB448999,bisexual,A demain. ,"piercing,vegan,tv,mountain,sport,music,sea,lazy,geek",100_photo_112233.jpeg,7-26-1979,48.8630970000005,2.35111800000001,4
iago,Normand,male,iago.Normand.449@email.fr,iagoN449,iagoN449999,bisexual,Combien voudrais-tu? ,"sea,vegan,mountain,geek,sport,friends,music",backstage-951903_640.jpg,3-26-1983,48.8675970000005,2.35786800000001,2
akemi,Huet,female,akemi.Huet.450@email.fr,akemiH450,akemiH450999,female,Dépêche-toi! ,"music,mountain,piercing,lazy,tv,geek,vegan,sport,friends,sea",madame-tussauds-1720457_640.jpg,11-4-1955,48.7900970000001,2.241618,4
elizabeth,Pineau,female,elizabeth.Pineau.451@email.fr,elizabethP451,elizabethP451999,male,Il est mal élevé. ,"music,sea,lazy,vegan,geek",104_photo_112233.jpeg,3-1-1995,48.9035970000006,2.41186800000001,2
ziya,Maillard,male,ziya.Maillard.452@email.fr,ziyaM452,ziyaM452999,female,Je ne peux pas m'empêcher de penser que ,"friends,geek,music,vegan,piercing",83_photo_112233.jpeg,10-5-2003,48.9005970000006,2.40736800000001,2
feodor,Lombard,male,feodor.Lombard.453@email.fr,feodorL453,feodorL453999,female,Je ne vous entends pas. ,geek,godfather-4292451_640.jpg,6-18-1992,48.8195970000002,2.285868,7
nathan,Martinez,male,nathan.Martinez.454@email.fr,nathanM454,nathanM454999,male,C'est pas mal. ,"sea,mountain,vegan,music,lazy,tv,piercing,sport,geek",personification-1508890_640.jpg,11-9-2000,48.9645970000009,2.50336800000001,9
djamila,Carlier,female,djamila.Carlier.455@email.fr,djamilaC455,djamilaC455999,female,Il a de l‘humour. ,"lazy,geek",actor-6311507_640.jpg,10-24-1952,48.8360970000003,2.310618,4
cordula,Navarro,female,cordula.Navarro.456@email.fr,cordulaN456,cordulaN456999,male,Arrête! ,"sea,vegan,mountain,friends,lazy",37_photo_112233.jpeg,11-12-1976,48.7870970000001,2.237118,8
aindrea,Valette,male,aindrea.Valette.457@email.fr,aindreaV457,aindreaV457999,male,Il est mignon. ,"piercing,sport,tv,mountain,friends,vegan,music,geek",businessman-6248246_640.jpg,8-10-1986,48.984097000001,2.53261800000001,6
ingolf,Chevalier,male,ingolf.Chevalier.458@email.fr,ingolfC458,ingolfC458999,bisexual,Elle a les cheveux mi-longs. ,"tv,geek,sea,sport,piercing,mountain,vegan,music,friends,lazy",79_photo_112233.jpeg,1-2-1995,48.7875970000001,2.237868,5
zilla,Hernandez,female,zilla.Hernandez.459@email.fr,zillaH459,zillaH459999,female,Selon moi ,"piercing,sea,vegan,geek,lazy,sport",11_photo_112233.jpeg,3-26-1957,48.7795970000001,2.225868,5
guerino,Renaud,male,guerino.Renaud.460@email.fr,guerinoR460,guerinoR460999,bisexual,Il est / C'est vrai que ,"piercing,sea,sport,friends,vegan,mountain,geek,music,tv",man-3252165_640.jpg,2-7-1957,48.8215970000003,2.288868,4
iona,Leconte,female,iona.Leconte.461@email.fr,ionaL461,ionaL461999,male,Santé! ,"music,lazy,sea,sport,tv,friends,piercing,geek,vegan",ramayana-festival-1807516_640.jpg,5-27-1950,48.9020970000006,2.40961800000001,9
rosheen,Hoareau,female,rosheen.Hoareau.462@email.fr,rosheenH462,rosheenH462999,bisexual,Il l'aime beaucoup. ,"sport,geek,sea,lazy,piercing,friends,vegan,tv,music",28_photo_112233.jpeg,1-8-1967,48.9430970000008,2.47111800000001,2
ellen,Gros,female,ellen.Gros.463@email.fr,ellenG463,ellenG463999,female,Juste là. ,"geek,piercing,music,lazy,tv",32_photo_112233.jpeg,3-8-1980,48.8730970000005,2.36611800000001,7
innocenzo,Lacoste,male,innocenzo.Lacoste.464@email.fr,innocenzoL464,innocenzoL464999,male,Il est agréable ,"lazy,geek",kevin-bacon-83495_640.jpg,12-3-1963,48.9225970000007,2.44036800000001,2
flavia,Chevallier,female,flavia.Chevallier.465@email.fr,flaviaC465,flaviaC465999,female,Elle est plus âgée que moi. ,"mountain,geek,friends,piercing,sea,vegan,sport",11_photo_112233.jpeg,6-7-1951,48.7975970000001,2.252868,8
thane,Albert,male,thane.Albert.466@email.fr,thaneA466,thaneA466999,female,Il m'est impossible de donner un avis (définitif) sur ,"piercing,sport,tv,mountain,friends,vegan,music,geek",mountain-5823822_640.jpg,10-13-1994,48.9325970000008,2.45536800000001,10
zayd,Descamps,male,zayd.Descamps.467@email.fr,zaydD467,zaydD467999,bisexual,Tu es plus intelligent que lui. ,"lazy,sport,mountain,geek,vegan,friends,sea,music,tv",42_photo_112233.jpeg,2-22-1963,48.9590970000009,2.49511800000001,3
gayla,Picard,female,gayla.Picard.468@email.fr,gaylaP468,gaylaP468999,bisexual,Je viens te chercher. ,"lazy,geek",61_photo_112233.jpeg,12-4-1988,48.8350970000003,2.309118,5
thutmose,Nguyen,male,thutmose.Nguyen.469@email.fr,thutmoseN469,thutmoseN469999,female,Peu importe. ,"music,mountain,piercing,lazy,tv,geek,vegan,sport,friends,sea",man-7971966_640.jpg,5-19-1981,48.9155970000007,2.42986800000001,7
shaun,Monnier,male,shaun.Monnier.470@email.fr,shaunM470,shaunM470999,bisexual,J'y suis allé. ,"sea,vegan",brett-952573_640.jpg,2-1-1956,48.9155970000007,2.42986800000001,3
evelyn,Carlier,female,evelyn.Carlier.471@email.fr,evelynC471,evelynC471999,female,Je suis convaincu que ,"mountain,vegan,friends",39_photo_112233.jpeg,10-12-1996,48.7865970000001,2.236368,1
iuliana,Couturier,female,iuliana.Couturier.472@email.fr,iulianaC472,iulianaC472999,female,Réglez ça dehors. ,"tv,music,geek,friends,piercing,sea,sport",49_photo_112233.jpeg,3-20-1956,48.8590970000004,2.34511800000001,2
hrothgar,Guyot,male,hrothgar.Guyot.473@email.fr,hrothgarG473,hrothgarG473999,female,"Oui, vraiment. ","geek,sport,friends,piercing,sea",100_photo_112233.jpeg,5-1-1983,48.8865970000006,2.38636800000001,5
reggie,Laporte,male,reggie.Laporte.474@email.fr,reggieL474,reggieL474999,male,Elle a les cheveux mi-longs. ,tv,brett-952561_640.jpg,6-26-1963,48.8135970000002,2.276868,8
imamu,Martin,male,imamu.Martin.475@email.fr,imamuM475,imamuM475999,bisexual,Il est beau. ,"vegan,geek,mountain,music,sea,piercing,tv,lazy,friends",9_photo_112233.jpeg,3-14-1997,48.9280970000008,2.44861800000001,3
andraste,Lombard,female,andraste.Lombard.476@email.fr,andrasteL476,andrasteL476999,female,Je sais / Nous savons que ,"piercing,sea,vegan,geek,lazy,sport",34_photo_112233.jpeg,10-1-1996,48.8270970000003,2.297118,1
garth,Moreau,male,garth.Moreau.477@email.fr,garthM477,garthM477999,female,Je me sens bien. ,"sea,geek,lazy",people-5987395_640.jpg,5-22-1950,48.9355970000008,2.45986800000001,5
alphaeus,Tessier,male,alphaeus.Tessier.478@email.fr,alphaeusT478,alphaeusT478999,female,"Moi, je... ","lazy,vegan,music",charles-chaplin-3521070_640.jpg,9-13-1982,48.8870970000006,2.38711800000001,5
dinah,Morvan,female,dinah.Morvan.479@email.fr,dinahM479,dinahM479999,male,Santé! ,"music,sport,piercing,tv,lazy,friends,mountain,sea,vegan",40_photo_112233.jpeg,4-13-1965,48.9040970000007,2.41261800000001,3
laurentius,Allard,male,laurentius.Allard.480@email.fr,laurentiusA480,laurentiusA480999,bisexual,Ils vont revenir tout de suite. ,"mountain,piercing,sea,friends,geek,vegan,lazy,tv,sport",man-4134645_640.jpg,9-7-2000,48.8580970000004,2.343618,5
