prenom,nom,sexe,email,pseudo,password,orientation,bio,interests,profile_picture,date_birth,latitude,longitude,fame_rating
Clothilde,Collin,female,Clothilde.Collin.1@email.fr,ClothildeC1,ClothildeC1999,male,Pour ma part ,"vegan,music,mountain,sport,lazy",14_photo_112233.jpeg,3-1-1966,48.755129,2.597893,10
Claudine,Clerc,female,Claudine.Clerc.2@email.fr,ClaudineC2,ClaudineC2999,female,Laisse-moi vérifier. ,"music,sport,geek",woman-1462682_640.jpg,12-25-1965,48.898027,2.433122,5
Alphonse,Raymond,male,Alphonse.Raymond.3@email.fr,AlphonseR3,AlphonseR3999,male,Je sais / Nous savons que ,"lazy,mountain,vegan,piercing",brett-952579_640.jpg,9-18-2000,45.776136,4.792959,9
Josiane,Guilbert,female,Josiane.Guilbert.4@email.fr,JosianeG4,JosianeG4999,bisexual,À mon avis ,music,93_photo_112233.jpeg,11-15-1980,49.020831,2.162853,6
Onesime,Hardy,male,Onesime.Hardy.5@email.fr,OnesimeH5,OnesimeH5999,female,Elle est paresseuse. ,"vegan,geek,lazy",60_photo_112233.jpeg,9-21-1954,48.996483,2.429021,10
Cosette,Nguyen,female,Cosette.Nguyen.6@email.fr,CosetteN6,CosetteN6999,female,Elle est jolie. ,"tv,piercing,mountain,lazy",106_photo_112233.jpeg,11-4-1953,48.910595,2.057638,3
Orianne,Valentin,female,Orianne.Valentin.7@email.fr,OrianneV7,OrianneV7999,bisexual,Je crains qu'il ne soit ,"friends,lazy,vegan",89_photo_112233.jpeg,4-6-1975,48.838004,2.569699,8
Arlette,Maurice,female,Arlette.Maurice.8@email.fr,ArletteM8,ArletteM8999,male,Je suis malade. ,"sea,tv",72_photo_112233.jpeg,3-16-1972,45.782896,4.764451,6
Pons,Guilbert,male,Pons.Guilbert.9@email.fr,PonsG9,PonsG9999,male,Je sors du travail à six heures. ,"lazy,tv,vegan,piercing",kevin-bacon-83495_640.jpg,10-20-1992,43.255921,5.471485,5
Caroline,Guilbert,female,Caroline.Guilbert.10@email.fr,CarolineG10,CarolineG10999,bisexual,Mon fils étudie l'informatique. ,"lazy,music,sea,sport",woman-7186987_640.jpg,4-5-1957,45.713939,4.886103,10
Marcellin,Potier,male,Marcellin.Potier.11@email.fr,MarcellinP11,MarcellinP11999,female,Combien de personnes est-ce qu'il y a dans ta famille? ,"lazy,geek,friends",backstage-951903_640.jpg,5-3-1989,48.787134,2.276859,4
Nadine,Maury,female,Nadine.Maury.12@email.fr,NadineM12,NadineM12999,female,Excellent. ,"music,lazy,tv,sea",cafe-1699128_640.jpg,6-19-1954,45.781805,4.807883,4
Marguerite,Bouchet,female,Marguerite.Bouchet.13@email.fr,MargueriteB13,MargueriteB13999,bisexual,Juste ici. ,"friends,sport,music,tv,mountain",102_photo_112233.jpeg,2-24-1968,48.951972,2.512929,10
Constantin,Guillet,male,Constantin.Guillet.14@email.fr,ConstantinG14,ConstantinG14999,bisexual,Pourriez-vous me dire ce que vous pensez de ,"piercing,friends",horse-144550_640.jpg,5-8-1962,43.29091,5.414646,2
Marceline,Valentin,female,Marceline.Valentin.15@email.fr,MarcelineV15,MarcelineV15999,male,Il est marrant. ,"sport,tv,mountain,geek,vegan",11_photo_112233.jpeg,5-25-1959,43.337049,5.430596,9
Faustine,Fernandez,female,Faustine.Fernandez.16@email.fr,FaustineF16,FaustineF16999,male,Je ne suis pas occupé. ,vegan,london-5731175_640.jpg,11-15-1958,48.940318,2.3743,3
Amaury,Andre,male,Amaury.Andre.17@email.fr,AmauryA17,AmauryA17999,bisexual,Je n'en veux pas. ,"vegan,music,friends",60_photo_112233.jpeg,2-22-1974,45.748166,4.887087,9
Jeanine,Blanchard,female,Jeanine.Blanchard.18@email.fr,JeanineB18,JeanineB18999,male,J'ai entendu dire que le Texas était beau comme endroit. ,"lazy,mountain,vegan,piercing",ramayana-festival-1807516_640.jpg,11-3-1998,48.813072,2.576092,9
Benoite,Chauveau,female,Benoite.Chauveau.19@email.fr,BenoiteC19,BenoiteC19999,bisexual,Est-ce que tu vas prendre un avion ou un train? ,"geek,vegan,sea",46_photo_112233.jpeg,11-28-1961,45.761132,4.81538,4
Marie,Gerard,female,Marie.Gerard.20@email.fr,MarieG20,MarieG20999,male,Il est gros. ,"geek,piercing,music,mountain",49_photo_112233.jpeg,5-25-1986,48.866178,2.406438,10
Josiane,Guillon,female,Josiane.Guillon.21@email.fr,JosianeG21,JosianeG21999,female,Je voudrais connaître / avoir votre réaction face à ,music,street-performers-870127_640.jpg,6-3-1999,49.022263,2.496921,7
Rosalie,Royer,female,Rosalie.Royer.22@email.fr,RosalieR22,RosalieR22999,female,C'est vrai. ,"geek,mountain,music",69_photo_112233.jpeg,8-5-1983,48.963331,2.322578,7
Eloi,Huet,male,Eloi.Huet.23@email.fr,EloiH23,EloiH23999,bisexual,Merci pour tout. ,"mountain,lazy,music",actor-2181844_640.jpg,9-5-1958,48.878824,2.3312,10
Lucille,Maire,female,Lucille.Maire.24@email.fr,LucilleM24,LucilleM24999,male,Plus que ça. ,sport,101_photo_112233.jpeg,10-1-1979,43.24776,5.39679,8
Bastien,Rousseau,male,Bastien.Rousseau.25@email.fr,BastienR25,BastienR25999,bisexual,"Moi, je... ","friends,vegan,geek,sport,tv",33_photo_112233.jpeg,12-14-1965,43.308444,5.396967,9
Caroline,Bourgeois,female,Caroline.Bourgeois.26@email.fr,CarolineB26,CarolineB26999,female,De temps en temps. ,"tv,music,lazy,vegan,piercing",woman-1462686_640.jpg,2-18-1984,43.318399,5.44027,9
Claire,Perrier,female,Claire.Perrier.27@email.fr,ClaireP27,ClaireP27999,female,Elle est paresseuse. ,"tv,sea",98_photo_112233.jpeg,8-19-1980,48.832072,2.476419,3
Josette,Bertin,female,Josette.Bertin.28@email.fr,JosetteB28,JosetteB28999,male,Je n'ai jamais vu ça avant. ,"sea,piercing,mountain,lazy",people-3209886_640.jpg,12-11-1982,48.730651,2.360358,10
Rainier,Leroy,male,Rainier.Leroy.29@email.fr,RainierL29,RainierL29999,bisexual,J'ai besoin de changer de vêtements. ,"lazy,tv,vegan,piercing,mountain",portrait-3204879_640.jpg,11-1-1985,43.311582,5.408094,7
Delphine,Tessier,female,Delphine.Tessier.30@email.fr,DelphineT30,DelphineT30999,female,Il est grand. ,"sport,music,tv",cafe-1699128_640.jpg,11-8-1985,45.790644,4.925242,6
Gautier,Huet,male,Gautier.Huet.31@email.fr,GautierH31,GautierH31999,bisexual,Je ne veux pas ça. ,"lazy,tv,friends,piercing",38_photo_112233.jpeg,7-20-1997,48.830238,2.556414,4
Fernand,Renault,male,Fernand.Renault.32@email.fr,FernandR32,FernandR32999,female,Est-ce que ton frère est allé en France ? ,"lazy,geek,friends,sea",frank-sinatra-1281484_640.jpg,6-14-1966,43.277115,5.486047,7
Hyacinthe,Bouchet,female,Hyacinthe.Bouchet.33@email.fr,HyacintheB33,HyacintheB33999,female,"Moi, je... ","vegan,tv",5_photo_112233.jpeg,10-3-1987,48.933098,2.495007,2
Roselle,Descamps,female,Roselle.Descamps.34@email.fr,RoselleD34,RoselleD34999,female,Bien sûr. ,"lazy,mountain",like-5321848_640.jpg,4-16-1969,43.27314,5.454638,8
Gaspard,Fouquet,male,Gaspard.Fouquet.35@email.fr,GaspardF35,GaspardF35999,male,Tu parles le français très bien. ,"piercing,sea,sport,friends",kevin-bacon-83495_640.jpg,9-20-2002,45.720734,4.839444,2
Marcelle,Devaux,female,Marcelle.Devaux.36@email.fr,MarcelleD36,MarcelleD36999,bisexual,"Je suis désolé, nous sommes complets. ",friends,mask-4985280_640.jpg,9-23-1995,48.77011,2.1248,2
Margot,Millet,female,Margot.Millet.37@email.fr,MargotM37,MargotM37999,female,Je suppose que ,"vegan,music,lazy,sea",32_photo_112233.jpeg,3-3-2002,45.696249,4.894774,5
Gilles,Brun,male,Gilles.Brun.38@email.fr,GillesB38,GillesB38999,male,Selon moi ,piercing,6_photo_112233.jpeg,11-6-1952,48.910552,2.37717,3
Nicole,Dupuis,female,Nicole.Dupuis.39@email.fr,NicoleD39,NicoleD39999,female,Elle est intelligente. ,"sea,music,geek,sport,lazy",people-1285245_640.jpg,9-1-1988,45.702951,4.970217,2
Georgine,Roussel,female,Georgine.Roussel.40@email.fr,GeorgineR40,GeorgineR40999,female,"Je suis désolé, nous sommes complets. ","lazy,friends,geek,piercing,tv",ramayana-festival-1807516_640.jpg,7-23-1971,48.768274,2.314465,7
Marcelle,Dumas,female,Marcelle.Dumas.41@email.fr,MarcelleD41,MarcelleD41999,male,Il est / C'est injuste que ,"lazy,mountain,piercing",woman-7186987_640.jpg,7-18-1988,43.246886,5.426181,8
Nathalie,Delorme,female,Nathalie.Delorme.42@email.fr,NathalieD42,NathalieD42999,male,Il est très ennuyeux. ,geek,28_photo_112233.jpeg,1-20-1967,48.834736,2.171978,8
Berthe,Laporte,female,Berthe.Laporte.43@email.fr,BertheL43,BertheL43999,bisexual,Il est sophistiqué. ,"geek,tv,music",1_photo_112233.jpeg,4-26-1991,48.779449,2.101103,3
Ambroise,Fouquet,male,Ambroise.Fouquet.44@email.fr,AmbroiseF44,AmbroiseF44999,bisexual,Donne-moi un coup de fil. ,lazy,58_photo_112233.jpeg,12-16-1977,45.733569,4.825221,1
Edwige,Thierry,female,Edwige.Thierry.45@email.fr,EdwigeT45,EdwigeT45999,female,S'il vous plaît emmenez-moi à cette adresse. ,sea,portrait-3359403_640.jpg,7-21-1968,45.740985,4.826957,4
Chantal,Meunier,female,Chantal.Meunier.46@email.fr,ChantalM46,ChantalM46999,male,Est-ce que tu étudies français? ,"music,vegan,sea,lazy,mountain",63_photo_112233.jpeg,1-19-1998,48.730415,2.262269,9
Philippe,Delmas,male,Philippe.Delmas.47@email.fr,PhilippeD47,PhilippeD47999,female,J'ai acheté une chemise hier. ,"tv,mountain",portrait-3241737_640.jpg,7-15-1970,48.73312,2.2581,8
Virginie,Charrier,female,Virginie.Charrier.48@email.fr,VirginieC48,VirginieC48999,bisexual,C'est vrai. ,geek,sonam-prajapati-6893225_640.jpg,11-4-1986,48.984465,2.274347,9
Jean-baptiste,Duhamel,male,Jean-baptiste.Duhamel.49@email.fr,Jean-baptisteD49,Jean-baptisteD49999,female,Je suis content. ,"piercing,sea,geek",charles-chaplin-3521070_640.jpg,11-11-1982,48.842913,2.44053,2
Zacharie,Pereira,male,Zacharie.Pereira.50@email.fr,ZacharieP50,ZacharieP50999,male,Quel films est-ce que tu préfères ? ,"vegan,piercing,tv,music",64_photo_112233.jpeg,3-6-1985,48.933404,2.583829,4
Noella,Maillard,female,Noella.Maillard.51@email.fr,NoellaM51,NoellaM51999,bisexual,Pour ma part ,"geek,piercing,music,sport,tv",67_photo_112233.jpeg,3-6-2004,43.355474,5.359616,8
Lucie,Leclerc,female,Lucie.Leclerc.52@email.fr,LucieL52,LucieL52999,female,Elle est courageuse. ,"tv,mountain",portrait-3359403_640.jpg,1-26-1995,43.289836,5.40547,1
Yolande,Renard,female,Yolande.Renard.53@email.fr,YolandeR53,YolandeR53999,female,Je n'ai pas peur. ,"vegan,lazy,sea",39_photo_112233.jpeg,3-2-1981,45.682958,4.817936,7
Olivier,Wagner,male,Olivier.Wagner.54@email.fr,OlivierW54,OlivierW54999,female,J'imagine que ,"geek,tv",model-5176707_640.jpg,7-7-1980,48.842913,2.44053,9
Eloi,Martineau,male,Eloi.Martineau.55@email.fr,EloiM55,EloiM55999,male,C'est trop. ,"vegan,tv,lazy",portrait-3060106_640.jpg,2-27-1984,48.809226,2.094581,5
Carole,Lebrun,female,Carole.Lebrun.56@email.fr,CaroleL56,CaroleL56999,male,Tu es plus intelligent que lui. ,"vegan,music,tv",drama-1155445_640.jpg,1-1-2000,45.752272,4.88579,4
Charlot,Vial,male,Charlot.Vial.57@email.fr,CharlotV57,CharlotV57999,female,Ils vont revenir tout de suite. ,piercing,man-3252165_640.jpg,8-7-1997,48.813167,2.602319,10
Dion,Sanchez,male,Dion.Sanchez.58@email.fr,DionS58,DionS58999,male,C'est une question de point de vue. ,"music,lazy,tv,sea",103_photo_112233.jpeg,6-12-1976,45.734195,4.85221,1
Christelle,Collin,female,Christelle.Collin.59@email.fr,ChristelleC59,ChristelleC59999,bisexual,J'aimerais connaître / avoir votre réaction face à ,"tv,geek",actor-542726_640.jpg,3-12-2003,48.993357,2.29267,1
Auguste,Pinto,male,Auguste.Pinto.60@email.fr,AugusteP60,AugusteP60999,female,"Non, c'est la première fois. ","music,mountain,sport,piercing",96_photo_112233.jpeg,7-5-1952,43.355542,5.4026,7
Florentin,Renard,male,Florentin.Renard.61@email.fr,FlorentinR61,FlorentinR61999,female,Tu te sens mieux? ,"sport,tv,sea,friends,mountain",aamir-tameen-867782_640.jpg,10-2-2004,43.289166,5.391332,9
Cosette,Barthelemy,female,Cosette.Barthelemy.62@email.fr,CosetteB62,CosetteB62999,female,Je ne sais pas m'en servir. ,"piercing,geek,friends,tv",mask-4985280_640.jpg,1-10-1983,45.690328,4.776281,8
Yves,Launay,male,Yves.Launay.63@email.fr,YvesL63,YvesL63999,male,Laisse-moi vérifier. ,"sea,music,piercing,tv,friends",42_photo_112233.jpeg,8-15-1974,48.799902,2.42978,4
Guillaume,Duhamel,male,Guillaume.Duhamel.64@email.fr,GuillaumeD64,GuillaumeD64999,female,Elle a les cheveux ondulés. ,friends,94_photo_112233.jpeg,9-16-1976,43.281342,5.475527,3
Luc,Rodrigues,male,Luc.Rodrigues.65@email.fr,LucR65,LucR65999,male,Je pense que c'est très bon. ,"mountain,music",19_photo_112233.jpeg,5-8-2000,45.729028,4.801476,7
Luce,Guyot,female,Luce.Guyot.66@email.fr,LuceG66,LuceG66999,male,ma grand-mère est décédée l'année dernière. ,"music,lazy,vegan",26_photo_112233.jpeg,6-27-1974,48.915604,2.383028,3
Lucinde,Garcia,female,Lucinde.Garcia.67@email.fr,LucindeG67,LucindeG67999,male,Je suis certain que ,"sea,friends,piercing",39_photo_112233.jpeg,11-6-2002,48.937483,2.328117,2
Gabrielle,Durand,female,Gabrielle.Durand.68@email.fr,GabrielleD68,GabrielleD68999,female,Il est patient. ,"tv,music",90_photo_112233.jpeg,11-11-2004,48.996644,2.384498,4
Lucile,Vincent,female,Lucile.Vincent.69@email.fr,LucileV69,LucileV69999,female,Je ne suis pas sûr. ,"sea,geek",90_photo_112233.jpeg,3-19-1980,43.35425,5.374453,3
Gratien,Lebon,male,Gratien.Lebon.70@email.fr,GratienL70,GratienL70999,bisexual,Je ne comprends pas. ,"mountain,piercing,friends,music,tv",man-6342452_640.jpg,11-24-1957,48.834736,2.171978,10
Madeleine,Schneider,female,Madeleine.Schneider.71@email.fr,MadeleineS71,MadeleineS71999,male,Combien voudrais-tu? ,"music,lazy,sea,sport",21_photo_112233.jpeg,8-15-1989,43.332276,5.371558,1
Morgane,Delaunay,female,Morgane.Delaunay.72@email.fr,MorganeD72,MorganeD72999,female,Travailles-tu demain? ,"sea,music,mountain,lazy,vegan",head-shoot-1542339_640.jpg,12-2-1986,43.277115,5.486047,10
Henri,Dumont,male,Henri.Dumont.73@email.fr,HenriD73,HenriD73999,male,Il est agréable ,geek,man-6342455_640.jpg,7-25-1972,43.284989,5.388358,3
Noelle,Salmon,female,Noelle.Salmon.74@email.fr,NoelleS74,NoelleS74999,bisexual,Comment percevez-vous ,"piercing,geek",head-shoot-1542339_640.jpg,12-24-2002,45.706439,4.920341,8
Noella,Guillot,female,Noella.Guillot.75@email.fr,NoellaG75,NoellaG75999,female,De temps en temps. ,"sea,tv",theatre-3966147_640.jpg,9-19-1999,43.33614,5.354903,5
Paule,Jacob,female,Paule.Jacob.76@email.fr,PauleJ76,PauleJ76999,bisexual,Rien d'autre. ,"mountain,geek,sea,music",london-5731175_640.jpg,2-15-1988,48.976898,2.536981,8
Theirn,Paris,male,Theirn.Paris.77@email.fr,TheirnP77,TheirnP77999,female,Qu'est-ce que tu vas faire ce soir ? ,vegan,mountain-5823822_640.jpg,11-3-1963,48.912229,2.270131,6
Denise,Delorme,female,Denise.Delorme.78@email.fr,DeniseD78,DeniseD78999,bisexual,Je voudrais connaître / avoir votre avis / opinion sur ,"geek,sport,friends,sea",12_photo_112233.jpeg,5-13-1955,45.688276,4.780037,7
Gaspard,Rodriguez,male,Gaspard.Rodriguez.79@email.fr,GaspardR79,GaspardR79999,female,Ça a l'air super. ,"friends,tv,music,lazy,sport",kevin-bacon-83495_640.jpg,1-12-1989,43.335865,5.428182,6
Armel,Auger,male,Armel.Auger.80@email.fr,ArmelA80,ArmelA80999,bisexual,Pourrais-je parler à madame Smith s'il vous plaît? ,"sport,geek,sea,lazy,piercing",street-performers-870113_640.jpg,12-24-1975,45.744913,4.790978,8
Jean-baptiste,Breton,male,Jean-baptiste.Breton.81@email.fr,Jean-baptisteB81,Jean-baptisteB81999,female,Ça suffit. ,friends,79_photo_112233.jpeg,7-23-1982,48.779449,2.101103,4
Arlette,Marin,female,Arlette.Marin.82@email.fr,ArletteM82,ArletteM82999,female,Est-ce que tu veux venir avec moi? ,"vegan,sea,tv",theater-200716_640.jpg,12-26-1962,48.956901,2.488091,6
Nathalie,Lacoste,female,Nathalie.Lacoste.83@email.fr,NathalieL83,NathalieL83999,female,Quel films est-ce que tu préfères ? ,"lazy,vegan",actor-542726_640.jpg,9-22-2002,48.741033,2.226023,6
Thibault,Camus,male,Thibault.Camus.84@email.fr,ThibaultC84,ThibaultC84999,male,Je ne me le suis jamais demandé. ,"lazy,tv,friends,piercing,sport",48_photo_112233.jpeg,5-3-1953,48.755609,2.333219,5
Prosper,Hoarau,male,Prosper.Hoarau.85@email.fr,ProsperH85,ProsperH85999,bisexual,Je ne pense pas ,"piercing,geek",godfather-4292451_640.jpg,7-4-1998,45.723401,4.842365,1
Godelieve,Ferreira,male,Godelieve.Ferreira.86@email.fr,GodelieveF86,GodelieveF86999,bisexual,Qui a envoyé cette lettre ? ,music,charles-chaplin-3521070_640.jpg,11-1-1984,48.961064,2.429341,2
Lucien,Grondin,male,Lucien.Grondin.87@email.fr,LucienG87,LucienG87999,bisexual,Elle est jolie. ,tv,88_photo_112233.jpeg,6-10-1984,45.776393,4.875738,9
Gaspard,Joly,male,Gaspard.Joly.88@email.fr,GaspardJ88,GaspardJ88999,male,J'estime que ,"friends,sea,tv",7_photo_112233.jpeg,9-12-1988,43.346611,5.3953,7
Anne,Roy,female,Anne.Roy.89@email.fr,AnneR89,AnneR89999,bisexual,"Non, je suis américain. ","vegan,music,mountain,sport,lazy",44_photo_112233.jpeg,8-14-1993,48.966472,2.519668,8
Modestine,Picard,male,Modestine.Picard.90@email.fr,ModestineP90,ModestineP90999,female,J'imagine que ,"mountain,music",mountain-5823822_640.jpg,12-24-1955,48.762482,2.415631,7
Cesaire,Martinez,male,Cesaire.Martinez.91@email.fr,CesaireM91,CesaireM91999,female,Tu es très intelligent. ,"vegan,geek,lazy,friends",people-3230020_640.jpg,1-19-1985,43.289903,5.370391,4
Gaston,Lambert,male,Gaston.Lambert.92@email.fr,GastonL92,GastonL92999,female,Je n'ai pas peur. ,"lazy,vegan,piercing,friends,sea",29_photo_112233.jpeg,7-8-1963,45.757765,4.840575,7
Odette,Normand,female,Odette.Normand.93@email.fr,OdetteN93,OdetteN93999,bisexual,Ma fille est ici. ,vegan,ramayana-festival-1807516_640.jpg,8-7-1953,48.961064,2.429341,1
Cerise,Bonnin,female,Cerise.Bonnin.94@email.fr,CeriseB94,CeriseB94999,male,Il est gros. ,"vegan,piercing,music",35_photo_112233.jpeg,9-11-1978,48.8616,2.470084,1
Axelle,Lefort,female,Axelle.Lefort.95@email.fr,AxelleL95,AxelleL95999,male,Est-ce que tu fais du sport? ,sport,actress-825670_640.jpg,9-20-1953,45.688075,4.829195,8
Marceline,Boulanger,female,Marceline.Boulanger.96@email.fr,MarcelineB96,MarcelineB96999,male,Elle est pauvre. ,"friends,tv,sea,vegan",63_photo_112233.jpeg,8-6-1976,45.67985,4.823369,4
Yseult,Garcia,female,Yseult.Garcia.97@email.fr,YseultG97,YseultG97999,bisexual,Il me semble que ,"piercing,sea,geek",woman-7186987_640.jpg,12-28-1986,45.792201,4.757203,1
Roxane,Chevalier,female,Roxane.Chevalier.98@email.fr,RoxaneC98,RoxaneC98999,bisexual,Il est mal élevé. ,"tv,geek,music",90_photo_112233.jpeg,9-25-1994,45.749876,4.932821,4
Gaston,Prevost,male,Gaston.Prevost.99@email.fr,GastonP99,GastonP99999,male,Santé! ,"mountain,lazy",38_photo_112233.jpeg,5-24-2003,48.8616,2.470084,1
Arnaude,Collin,female,Arnaude.Collin.100@email.fr,ArnaudeC100,ArnaudeC100999,bisexual,Pourriez-vous me dire ce que vous pensez de ,"friends,tv,music,sport,sea",106_photo_112233.jpeg,9-25-1971,43.261701,5.411577,10
Laurette,Girard,female,Laurette.Girard.101@email.fr,LauretteG101,LauretteG101999,bisexual,Maria a les cheveux couleur noisette. ,"friends,mountain,lazy,tv",90_photo_112233.jpeg,4-19-2001,45.761132,4.81538,8
Rosette,Bonnet,female,Rosette.Bonnet.102@email.fr,RosetteB102,RosetteB102999,female,Il a le teint clair. ,"friends,sea,geek",61_photo_112233.jpeg,4-28-1984,48.785919,2.331801,3
Alphonse,Baron,male,Alphonse.Baron.103@email.fr,AlphonseB103,AlphonseB103999,male,Combien voudrais-tu? ,"piercing,mountain",95_photo_112233.jpeg,2-27-1977,45.76974,4.946696,3
Luce,Descamps,female,Luce.Descamps.104@email.fr,LuceD104,LuceD104999,female,Combien de personnes est-ce qu'il y a dans ta famille? ,music,portrait-3359403_640.jpg,6-15-1964,48.984464,2.532422,6
Ambroise,Morel,male,Ambroise.Morel.105@email.fr,AmbroiseM105,AmbroiseM105999,male,Je t’emmènerai à l'arrêt de bus. ,tv,2_photo_112233.jpeg,4-24-1950,45.768971,4.825925,2
Juste,Peltier,male,Juste.Peltier.106@email.fr,JusteP106,JusteP106999,female,Qu'est-ce que tu vas faire ce soir ? ,"sport,mountain,music,vegan",people-3224723_640.jpg,8-12-1979,48.730651,2.360358,8
Christelle,Girard,female,Christelle.Girard.107@email.fr,ChristelleG107,ChristelleG107999,bisexual,Si vous voulez mon opinion/avis ,"vegan,sport,friends,tv",81_photo_112233.jpeg,4-3-1995,45.752219,4.848408,10
Lunete,Pereira,female,Lunete.Pereira.108@email.fr,LuneteP108,LuneteP108999,bisexual,N'importe quoi. ,"friends,sport,music,piercing,vegan",13_photo_112233.jpeg,9-26-2003,45.688075,4.829195,3
Yseult,Boucher,female,Yseult.Boucher.109@email.fr,YseultB109,YseultB109999,female,Il m'est impossible de donner un avis (définitif) sur ,"sport,vegan",people-1285245_640.jpg,3-22-1970,43.294616,5.405469,4
Christelle,Pasquier,female,Christelle.Pasquier.110@email.fr,ChristelleP110,ChristelleP110999,bisexual,Il a les yeux bleus. ,"piercing,vegan",woman-6002459_640.jpg,3-13-1959,43.267065,5.400166,7
Loup,Caron,male,Loup.Caron.111@email.fr,LoupC111,LoupC111999,male,Pourriez-vous me donner / faire savoir votre réaction face à ,music,gregory-peck-90779_640.jpg,12-17-1997,43.270358,5.416959,10
Odette,Boulanger,female,Odette.Boulanger.112@email.fr,OdetteB112,OdetteB112999,female,Ça sent mauvais. ,vegan,street-performers-870119_640.jpg,4-18-1993,48.749389,2.368871,10
Maxime,Bouchet,male,Maxime.Bouchet.113@email.fr,MaximeB113,MaximeB113999,female,Cette voiture ressemble à ma voiture. ,"music,geek,sport,tv,vegan",109_photo_112233.jpeg,2-22-2002,45.789683,4.831782,10
Telesphore,Lopes,male,Telesphore.Lopes.114@email.fr,TelesphoreL114,TelesphoreL114999,female,Quelle est votre opinion/avis sur ,sport,100_photo_112233.jpeg,7-24-1972,48.996644,2.384498,8
Gwenaelle,Le,female,Gwenaelle.Le.115@email.fr,GwenaelleL115,GwenaelleL115999,male,Depuis combien de temps est tu es en France? ,sport,101_photo_112233.jpeg,1-26-1977,45.775084,4.814702,5
Renaud,Perret,male,Renaud.Perret.116@email.fr,RenaudP116,RenaudP116999,male,J'ai entendu dire que le Texas était beau comme endroit. ,sport,snoop-dog-81879_640.jpg,9-26-1986,48.796375,2.436479,7
Rolande,Lebrun,female,Rolande.Lebrun.117@email.fr,RolandeL117,RolandeL117999,bisexual,Je ne suis pas à même de dire si ,"tv,sport,friends,sea,mountain",1_photo_112233.jpeg,10-6-1987,48.768274,2.314465,1
Corinne,Bonneau,female,Corinne.Bonneau.118@email.fr,CorinneB118,CorinneB118999,male,Il me semble que ,sport,fashion-3057295_640.jpg,12-7-1993,48.910595,2.057638,10
Jeannot,Lacroix,male,Jeannot.Lacroix.119@email.fr,JeannotL119,JeannotL119999,female,Est-ce que tu étudies français? ,"mountain,tv,friends",30_photo_112233.jpeg,11-13-1993,45.738233,4.954843,4
Violette,Leclercq,female,Violette.Leclercq.120@email.fr,VioletteL120,VioletteL120999,female,Il a les cheveux raides. ,"tv,sea,geek,friends,music",21_photo_112233.jpeg,2-13-1976,48.725625,2.50134,9
Violette,Toussaint,female,Violette.Toussaint.121@email.fr,VioletteT121,VioletteT121999,male,Je suis marié. ,"friends,mountain,sea,vegan,music",actor-542726_640.jpg,8-9-1993,43.244711,5.376487,5
Benjamine,Moulin,female,Benjamine.Moulin.122@email.fr,BenjamineM122,BenjamineM122999,bisexual,Ce n'est pas juste. ,"sea,geek,lazy,piercing,mountain",46_photo_112233.jpeg,1-23-1952,48.986762,2.400322,4
Claire,Lesage,female,Claire.Lesage.123@email.fr,ClaireL123,ClaireL123999,female,Ils vont revenir tout de suite. ,"piercing,geek,friends",cafe-1699128_640.jpg,3-1-1997,48.761752,2.227691,3
Juliane,Maurice,female,Juliane.Maurice.124@email.fr,JulianeM124,JulianeM124999,male,ma grand-mère est décédée l'année dernière. ,vegan,drama-1155445_640.jpg,12-24-1972,45.690328,4.776281,8
Antoinette,Guillon,female,Antoinette.Guillon.125@email.fr,AntoinetteG125,AntoinetteG125999,female,Tu es très intelligent. ,geek,46_photo_112233.jpeg,2-2-1971,43.345356,5.370674,1
Sabine,Prevost,female,Sabine.Prevost.126@email.fr,SabineP126,SabineP126999,bisexual,J'ai déjà mangé. ,vegan,86_photo_112233.jpeg,10-22-1955,48.878063,2.529652,10
Jeanine,Lombard,female,Jeanine.Lombard.127@email.fr,JeanineL127,JeanineL127999,female,Elle a les cheveux ondulés. ,"lazy,piercing,vegan",69_photo_112233.jpeg,6-15-1971,48.741033,2.226023,1
Loup,Tran,male,Loup.Tran.128@email.fr,LoupT128,LoupT128999,male,J'ai entendu parler de ,lazy,59_photo_112233.jpeg,7-23-1962,45.696249,4.894774,4
Martine,Lebreton,female,Martine.Lebreton.129@email.fr,MartineL129,MartineL129999,bisexual,Il a raison. ,"piercing,sea,geek",woman-1462686_640.jpg,12-26-1957,43.271529,5.478229,2
Cerise,Leclerc,female,Cerise.Leclerc.130@email.fr,CeriseL130,CeriseL130999,bisexual,Je ne suis pas marié. ,"vegan,piercing",51_photo_112233.jpeg,12-15-1958,48.877503,2.150971,4
Henriette,Le,female,Henriette.Le.131@email.fr,HenrietteL131,HenrietteL131999,bisexual,Il est / C'est juste que ,"vegan,lazy,piercing,geek,tv",102_photo_112233.jpeg,11-17-1999,43.277737,5.462304,2
Lucie,Jacquet,female,Lucie.Jacquet.132@email.fr,LucieJ132,LucieJ132999,bisexual,Je ne peux pas m'empêcher de penser que ,"sea,sport",actor-6210338_640.jpg,3-14-1973,48.928143,2.548464,1
Giselle,Hamon,female,Giselle.Hamon.133@email.fr,GiselleH133,GiselleH133999,female,"Je vais bien, et toi? ","music,tv,vegan,lazy,mountain",72_photo_112233.jpeg,4-25-1973,48.77011,2.1248,3
Renaud,Tessier,male,Renaud.Tessier.134@email.fr,RenaudT134,RenaudT134999,bisexual,Il est lent. ,"lazy,geek,friends,music",aamir-tameen-867782_640.jpg,10-6-2004,48.882101,2.600595,7
Roxane,Poulain,female,Roxane.Poulain.135@email.fr,RoxaneP135,RoxaneP135999,bisexual,Je ne suis pas encore prêt. ,"lazy,friends,sport,piercing",105_photo_112233.jpeg,12-16-1959,48.917327,2.190355,2
Paulette,Clerc,female,Paulette.Clerc.136@email.fr,PauletteC136,PauletteC136999,male,D'accord. ,"piercing,mountain,geek,music",21_photo_112233.jpeg,3-20-1964,48.838004,2.569699,10
Pons,Millet,male,Pons.Millet.137@email.fr,PonsM137,PonsM137999,bisexual,C'est trop. ,"tv,sea,sport",91_photo_112233.jpeg,6-20-1985,49.018349,2.170314,10
Rainier,Bruneau,male,Rainier.Bruneau.138@email.fr,RainierB138,RainierB138999,female,C'est Monsieur Smith. ,"sea,sport,vegan,tv,piercing",112_photo_112233.jpeg,2-19-1967,45.776136,4.792959,2
Oriane,Poirier,female,Oriane.Poirier.139@email.fr,OrianeP139,OrianeP139999,male,Quels sont tes passe-temps ? ,"piercing,geek,friends,tv",mask-4985280_640.jpg,3-6-1994,45.728859,4.866759,9
Lucinde,Devaux,female,Lucinde.Devaux.140@email.fr,LucindeD140,LucindeD140999,bisexual,J'ai deux sœurs. ,"sea,friends,piercing",marilyn-monroe-555603_640.jpg,8-11-1966,45.702951,4.970217,8
Caroline,Vial,female,Caroline.Vial.141@email.fr,CarolineV141,CarolineV141999,male,Je sais / Nous savons que ,music,woman-1462682_640.jpg,8-8-1997,43.349092,5.372588,5
Edgard,Vasseur,male,Edgard.Vasseur.142@email.fr,EdgardV142,EdgardV142999,bisexual,Merci pour ton aide. ,"friends,tv,sea",man-4134645_640.jpg,2-2-1956,43.340104,5.360412,6
Dion,Bonneau,male,Dion.Bonneau.143@email.fr,DionB143,DionB143999,male,Ils sont très occupés. ,"geek,sport,vegan,music",97_photo_112233.jpeg,9-21-1994,48.895591,2.458086,7
Hyacinthe,Royer,female,Hyacinthe.Royer.144@email.fr,HyacintheR144,HyacintheR144999,bisexual,Je ne peux pas m'empêcher de penser que ,sport,40_photo_112233.jpeg,5-13-2001,45.720567,4.947203,7
Raoul,Normand,male,Raoul.Normand.145@email.fr,RaoulN145,RaoulN145999,male,Nous avons deux garçons et une fille. ,"piercing,friends",mountain-5823822_640.jpg,10-7-1998,48.926271,2.266898,5
Theirn,Da,male,Theirn.Da.146@email.fr,TheirnD146,TheirnD146999,female,Juste ici. ,"friends,sea,music",acteur1.png,5-8-1992,48.957056,2.238529,4
Pascal,Laurent,male,Pascal.Laurent.147@email.fr,PascalL147,PascalL147999,bisexual,Est-ce que tu étudies français? ,"mountain,tv,friends",godfather-4292451_640.jpg,12-10-2000,43.349152,5.470164,4
Romain,Lambert,male,Romain.Lambert.148@email.fr,RomainL148,RomainL148999,bisexual,Il est agréable ,"mountain,friends",100_photo_112233.jpeg,12-9-1997,43.345356,5.370674,10
Mirabelle,Texier,female,Mirabelle.Texier.149@email.fr,MirabelleT149,MirabelleT149999,bisexual,Cette voiture ressemble à ma voiture. ,"vegan,sea",theater-200716_640.jpg,11-9-1968,48.926271,2.266898,10
Marcel,Besnard,male,Marcel.Besnard.150@email.fr,MarcelB150,MarcelB150999,female,A demain. ,"mountain,sport,geek,sea",yoga-day-4329896_640.jpg,1-23-2001,43.318104,5.378736,5
Florianne,Pineau,female,Florianne.Pineau.151@email.fr,FlorianneP151,FlorianneP151999,male,Il est / C'est juste que ,music,101_photo_112233.jpeg,7-16-1971,45.709511,4.905843,3
Marin,Hardy,male,Marin.Hardy.152@email.fr,MarinH152,MarinH152999,male,A demain. ,"mountain,music",Jason_Statham_2018.jpg,7-21-1955,48.82731,2.238848,10
Ninon,Girard,female,Ninon.Girard.153@email.fr,NinonG153,NinonG153999,female,Ma fille est ici. ,"sea,sport,piercing",holland-315604_640.jpg,6-26-1963,43.270423,5.358867,3
Nathalie,Vasseur,female,Nathalie.Vasseur.154@email.fr,NathalieV154,NathalieV154999,male,Tu es plus intelligent que lui. ,"tv,vegan,geek,sport",woman-7186987_640.jpg,1-18-1978,45.737829,4.805637,10
Perceval,Fleury,male,Perceval.Fleury.155@email.fr,PercevalF155,PercevalF155999,male,Je pense que ,"vegan,geek,lazy,sport",33_photo_112233.jpeg,2-12-1994,48.765679,2.24856,3
Margot,Navarro,female,Margot.Navarro.156@email.fr,MargotN156,MargotN156999,male,Vraiment? ,sport,surprise-5321849_640.jpg,1-23-1968,43.325922,5.40378,8
Gabrielle,Pinto,female,Gabrielle.Pinto.157@email.fr,GabrielleP157,GabrielleP157999,female,Est-ce que ton mari est aussi de Boston? ,vegan,actress-825670_640.jpg,3-19-1986,48.81409,2.586201,10
Clementine,Marchal,female,Clementine.Marchal.158@email.fr,ClementineM158,ClementineM158999,male,Dis-moi. ,"lazy,tv,vegan,piercing,mountain",49_photo_112233.jpeg,5-1-1993,45.78126,4.800863,9
Yseult,Guillot,female,Yseult.Guillot.159@email.fr,YseultG159,YseultG159999,bisexual,Vos affaires sont toutes là. ,piercing,72_photo_112233.jpeg,12-25-1962,43.250909,5.357371,10
Vivienne,Fernandes,female,Vivienne.Fernandes.160@email.fr,VivienneF160,VivienneF160999,female,Combien d'enfants est-ce tu as? ,"lazy,tv,piercing",90_photo_112233.jpeg,10-18-1974,48.913738,2.182434,4
Arnaud,Loiseau,male,Arnaud.Loiseau.161@email.fr,ArnaudL161,ArnaudL161999,male,Elle est riche. ,"vegan,music,mountain,sport,lazy",horse-144550_640.jpg,12-15-2001,48.874203,2.500013,9
Laurentine,Hardy,female,Laurentine.Hardy.162@email.fr,LaurentineH162,LaurentineH162999,female,C'est tout. ,"geek,friends",51_photo_112233.jpeg,3-1-1976,48.790155,2.148384,5
Gratien,Gonzalez,male,Gratien.Gonzalez.163@email.fr,GratienG163,GratienG163999,male,Ça sent mauvais. ,"vegan,lazy",street-performers-870113_640.jpg,4-12-1967,48.899522,2.23306,9
Yves,Blanc,male,Yves.Blanc.164@email.fr,YvesB164,YvesB164999,male,Il est / C'est difficile de ,"lazy,sport,tv",india-7547363_640.jpg,8-22-1974,45.712818,4.827942,10
Vivienne,Bodin,female,Vivienne.Bodin.165@email.fr,VivienneB165,VivienneB165999,male,Je ne me suis jamais vraiment posé la question. ,"piercing,sea,friends",72_photo_112233.jpeg,4-19-1995,48.748955,2.279979,7
Amaury,Brun,male,Amaury.Brun.166@email.fr,AmauryB166,AmauryB166999,male,Est-ce que tu en as un autre? ,piercing,30_photo_112233.jpeg,11-27-1974,48.732418,2.330983,6
Francine,Maillard,female,Francine.Maillard.167@email.fr,FrancineM167,FrancineM167999,female,Tu es très sympa. ,"sport,vegan",32_photo_112233.jpeg,1-16-1964,48.910552,2.37717,10
Paulette,Laroche,female,Paulette.Laroche.168@email.fr,PauletteL168,PauletteL168999,female,À votre avis ,"geek,sea",68_photo_112233.jpeg,6-26-1984,48.924363,2.162071,5
Loic,Gaillard,male,Loic.Gaillard.169@email.fr,LoicG169,LoicG169999,male,Je nettoie ma chambre. ,"geek,friends",70_photo_112233.jpeg,11-3-1983,48.774922,2.13691,2
Ghislaine,Bonnin,female,Ghislaine.Bonnin.170@email.fr,GhislaineB170,GhislaineB170999,female,Fais attention en conduisant. ,"music,friends,sport",22_photo_112233.jpeg,11-8-1994,48.843041,2.477502,3
Ouida,Jourdan,female,Ouida.Jourdan.171@email.fr,OuidaJ171,OuidaJ171999,male,"Non, c'est la première fois. ",sea,35_photo_112233.jpeg,8-12-1966,48.929014,2.419187,4
Odette,Chauvet,female,Odette.Chauvet.172@email.fr,OdetteC172,OdetteC172999,male,Que pensez-vous de ,"sea,tv,sport",71_photo_112233.jpeg,12-25-1961,45.737696,4.896862,8
Dion,Hoarau,male,Dion.Hoarau.173@email.fr,DionH173,DionH173999,female,J'espère que vous ferez un bon voyage. ,"sport,sea,lazy",59_photo_112233.jpeg,7-5-1999,43.308444,5.396967,3
Arianne,Baron,female,Arianne.Baron.174@email.fr,ArianneB174,ArianneB174999,female,Ça a l'air super. ,sea,13_photo_112233.jpeg,11-10-1954,48.761752,2.227691,9
Violette,Bailly,female,Violette.Bailly.175@email.fr,VioletteB175,VioletteB175999,bisexual,Arrête! ,"friends,lazy,sea",17_photo_112233.jpeg,9-12-1987,45.746951,4.947178,5
Modestine,Vincent,male,Modestine.Vincent.176@email.fr,ModestineV176,ModestineV176999,bisexual,Je dois dire que ,"geek,mountain,music",face-3265605_640.jpg,3-22-1964,48.782099,2.087727,5
Vienne,Dufour,female,Vienne.Dufour.177@email.fr,VienneD177,VienneD177999,male,Pratiquons l'anglais. ,"music,friends,lazy,piercing",106_photo_112233.jpeg,7-9-1971,43.249827,5.46705,7
Placide,Lemaire,female,Placide.Lemaire.178@email.fr,PlacideL178,PlacideL178999,bisexual,Je voudrais connaître / avoir votre réaction face à ,"geek,mountain,music",21_photo_112233.jpeg,4-20-1996,45.76845,4.853675,3
Marc,Leveque,male,Marc.Leveque.179@email.fr,MarcL179,MarcL179999,male,Tout le monde le sais. ,"sport,sea",face-3265605_640.jpg,4-24-1977,48.734599,2.564343,9
Seraphine,Merle,female,Seraphine.Merle.180@email.fr,SeraphineM180,SeraphineM180999,bisexual,Combien de personnes est-ce qu'il y a dans ta famille? ,"sea,piercing",86_photo_112233.jpeg,10-4-1954,43.325111,5.421358,4
Claire,Lenoir,female,Claire.Lenoir.181@email.fr,ClaireL181,ClaireL181999,bisexual,Je préférerais ne pas m'engager ,"lazy,geek,friends",cafe-1699128_640.jpg,11-15-1987,45.740825,4.969176,2
Fernande,Gaillard,female,Fernande.Gaillard.182@email.fr,FernandeG182,FernandeG182999,bisexual,Il a le teint clair. ,"sport,friends,piercing",11_photo_112233.jpeg,8-18-1981,48.89027,2.507042,5
Zacharie,Garnier,male,Zacharie.Garnier.183@email.fr,ZacharieG183,ZacharieG183999,male,Je dois dire que ,"sport,geek,music,vegan",15_photo_112233.jpeg,6-20-1973,43.329203,5.444637,3
Auguste,Bonnin,male,Auguste.Bonnin.184@email.fr,AugusteB184,AugusteB184999,female,Je ne l'aime pas. ,"sea,geek,lazy,friends",model-5176707_640.jpg,3-4-1958,43.296338,5.45355,7
Oriane,Chauvet,female,Oriane.Chauvet.185@email.fr,OrianeC185,OrianeC185999,male,Est-ce que tu étudies français? ,vegan,head-shoot-1542339_640.jpg,11-14-1985,43.346611,5.3953,3
Georgine,Potier,female,Georgine.Potier.186@email.fr,GeorgineP186,GeorgineP186999,female,Cela dépend de ,"lazy,sport,mountain",34_photo_112233.jpeg,11-11-1959,48.829686,2.209752,10
Sylviane,Courtois,female,Sylviane.Courtois.187@email.fr,SylvianeC187,SylvianeC187999,bisexual,J'allais quitter le restaurant quand mes amis sont arrivés. ,"music,mountain,sport,piercing",1_photo_112233.jpeg,12-26-1968,45.788841,4.940512,10
Suzanne,Lacombe,female,Suzanne.Lacombe.188@email.fr,SuzanneL188,SuzanneL188999,female,Est-ce que ça suffit? ,"sport,music",woman-1462686_640.jpg,10-27-2002,43.312115,5.368244,5
Paschal,Leduc,male,Paschal.Leduc.189@email.fr,PaschalL189,PaschalL189999,male,Chicago est très différente de Boston. ,"geek,lazy,sea,music",people-5987395_640.jpg,6-1-1951,48.794154,2.063802,7
Monique,Dos,female,Monique.Dos.190@email.fr,MoniqueD190,MoniqueD190999,male,C'est pas mal. ,"mountain,vegan,lazy,friends",68_photo_112233.jpeg,9-6-1985,48.760721,2.450628,7
Yves,Valentin,male,Yves.Valentin.191@email.fr,YvesV191,YvesV191999,female,Je ne suis pas occupé. ,"piercing,friends",portrait-3204879_640.jpg,6-1-1961,48.993369,2.582358,1
Sophie,Brunet,female,Sophie.Brunet.192@email.fr,SophieB192,SophieB192999,female,Je fais une taille huit. ,"lazy,sea,sport,tv,mountain",mount-saint-helens-4395977_640.jpg,6-5-1982,45.695797,4.767796,1
Pascale,Leblanc,female,Pascale.Leblanc.193@email.fr,PascaleL193,PascaleL193999,bisexual,Comment ça va? ,"sport,geek,music,vegan",102_photo_112233.jpeg,12-22-1952,49.010235,2.503793,6
Axelle,Carpentier,female,Axelle.Carpentier.194@email.fr,AxelleC194,AxelleC194999,bisexual,Je ne sais pas m'en servir. ,"piercing,tv,geek,sport,music",11_photo_112233.jpeg,8-18-1995,48.840505,2.537882,2
Matthieu,Bazin,male,Matthieu.Bazin.195@email.fr,MatthieuB195,MatthieuB195999,male,Je suis marié. ,"lazy,geek",man-7971966_640.jpg,12-21-1974,43.349152,5.470164,6
Brice,Carpentier,male,Brice.Carpentier.196@email.fr,BriceC196,BriceC196999,male,Est-ce que tu en as un autre? ,piercing,frank-sinatra-1281484_640.jpg,10-10-1982,45.759033,4.889068,4
Aristide,Alves,male,Aristide.Alves.197@email.fr,AristideA197,AristideA197999,female,J'ai perdu ma montre. ,"vegan,music,friends,geek",filmproduction-485518_640.jpg,8-19-1966,45.767955,4.831126,3
Alexandre,Maurice,male,Alexandre.Maurice.198@email.fr,AlexandreM198,AlexandreM198999,bisexual,Il est / C'est impossible que ,"geek,tv,music,piercing",82_photo_112233.jpeg,10-13-1975,45.772508,4.964429,7
Laurentine,Maillot,female,Laurentine.Maillot.199@email.fr,LaurentineM199,LaurentineM199999,male,Est-ce que vous vendez des médicaments? (magasin) ,"piercing,lazy,sport",12_photo_112233.jpeg,7-7-2000,45.758312,4.945791,10
Doriane,Pinto,female,Doriane.Pinto.200@email.fr,DorianeP200,DorianeP200999,female,Travailles-tu demain? ,"lazy,mountain",actor-542726_640.jpg,1-6-1951,43.2997,5.349114,6
Germain,Laroche,male,Germain.Laroche.201@email.fr,GermainL201,GermainL201999,female,Allons voir. ,"piercing,vegan,sport,friends",56_photo_112233.jpeg,2-11-1952,48.921647,2.328793,10
Nathalie,Vaillant,female,Nathalie.Vaillant.202@email.fr,NathalieV202,NathalieV202999,bisexual,J'ai besoin d'aller chez moi. ,"vegan,tv,lazy",61_photo_112233.jpeg,5-13-1965,45.771883,4.9285,1
Apolline,Leconte,female,Apolline.Leconte.203@email.fr,ApollineL203,ApollineL203999,male,Je sais. ,"lazy,sea",93_photo_112233.jpeg,5-11-1989,49.010235,2.503793,1
Georgine,Leveque,female,Georgine.Leveque.204@email.fr,GeorgineL204,GeorgineL204999,male,À votre avis ,sea,8_photo_112233.jpeg,9-5-1967,45.712003,4.971029,7
Olympe,Salmon,female,Olympe.Salmon.205@email.fr,OlympeS205,OlympeS205999,female,Je n'en veux pas. ,"lazy,sport,friends,tv,geek",fashion-3057295_640.jpg,6-25-1972,43.261701,5.411577,10
Diane,Vincent,female,Diane.Vincent.206@email.fr,DianeV206,DianeV206999,bisexual,Ça ne marche pas. ,"tv,mountain,vegan,sea,music",44_photo_112233.jpeg,10-21-1983,43.245821,5.369133,2
Justine,Goncalves,female,Justine.Goncalves.207@email.fr,JustineG207,JustineG207999,bisexual,Elle est plus âgée que moi. ,"geek,sea",14_photo_112233.jpeg,3-9-1993,45.736191,4.938145,1
Rochelle,Camus,female,Rochelle.Camus.208@email.fr,RochelleC208,RochelleC208999,bisexual,J'ai l'impression que ,"music,lazy,tv,sea",like-5321848_640.jpg,8-27-1959,43.335865,5.428182,9
Rainier,Jacquet,male,Rainier.Jacquet.209@email.fr,RainierJ209,RainierJ209999,female,Selon vous ,music,59_photo_112233.jpeg,9-11-1977,48.984465,2.274347,4
Lunete,Georges,female,Lunete.Georges.210@email.fr,LuneteG210,LuneteG210999,male,Fais attention en conduisant. ,"sport,tv,geek",63_photo_112233.jpeg,4-15-1990,45.735477,4.88729,4
Raoul,Delorme,male,Raoul.Delorme.211@email.fr,RaoulD211,RaoulD211999,bisexual,Je ne veux pas te déranger. ,"tv,sport,mountain",man-6342452_640.jpg,3-26-1991,49.018349,2.170314,10
Fabienne,Martins,female,Fabienne.Martins.212@email.fr,FabienneM212,FabienneM212999,male,Bonne idée. ,"sea,sport,piercing",71_photo_112233.jpeg,12-26-2001,43.243898,5.41354,8
Bertrand,Diallo,male,Bertrand.Diallo.213@email.fr,BertrandD213,BertrandD213999,male,"Je vais bien, et toi? ","lazy,mountain",model-5176707_640.jpg,12-28-1963,43.336677,5.483753,8
Adolphe,Maurice,male,Adolphe.Maurice.214@email.fr,AdolpheM214,AdolpheM214999,male,Je suis américain. ,"vegan,music,sport",97_photo_112233.jpeg,3-7-1952,48.956102,2.055089,3
Perceval,Payet,male,Perceval.Payet.215@email.fr,PercevalP215,PercevalP215999,male,Elle est courageuse. ,"music,friends,sport",face-3265605_640.jpg,8-20-1996,45.742435,4.904822,4
Julienne,Delaunay,female,Julienne.Delaunay.216@email.fr,JulienneD216,JulienneD216999,male,Je ne l'aime pas. ,"geek,vegan",69_photo_112233.jpeg,1-28-1981,48.790922,2.342484,3
Blaise,Dupont,male,Blaise.Dupont.217@email.fr,BlaiseD217,BlaiseD217999,female,Merci Monsieur. ,geek,15_photo_112233.jpeg,8-21-1999,49.010235,2.503793,3
Corin,Faivre,male,Corin.Faivre.218@email.fr,CorinF218,CorinF218999,bisexual,Je ne suis pas sûr. ,"sea,geek,lazy",man-6342452_640.jpg,5-15-1976,43.269404,5.381133,9
Micheline,Bazin,female,Micheline.Bazin.219@email.fr,MichelineB219,MichelineB219999,bisexual,Comment ça va? ,"piercing,sea,geek",40_photo_112233.jpeg,10-13-1965,48.912061,2.189255,8
Armand,Lefebvre,male,Armand.Lefebvre.220@email.fr,ArmandL220,ArmandL220999,bisexual,Est-ce que tu vas souvent à Paris? ,music,man-3252165_640.jpg,7-27-1996,43.31679,5.475875,2
Jean-baptiste,Jean,male,Jean-baptiste.Jean.221@email.fr,Jean-baptisteJ221,Jean-baptisteJ221999,male,Désolé de vous déranger. ,"tv,mountain,vegan",55_photo_112233.jpeg,3-14-1977,45.740825,4.969176,5
Jacques,Bourdon,male,Jacques.Bourdon.222@email.fr,JacquesB222,JacquesB222999,bisexual,Quant à moi ,"lazy,sport",smile-1221915_640.jpg,1-15-1965,45.77346,4.83727,7
Ninon,Vallet,female,Ninon.Vallet.223@email.fr,NinonV223,NinonV223999,male,Je ne suis pas occupé. ,vegan,63_photo_112233.jpeg,10-17-1988,48.963331,2.322578,2
Liane,Vallet,female,Liane.Vallet.224@email.fr,LianeV224,LianeV224999,female,Mon fils étudie l'informatique. ,"mountain,tv",61_photo_112233.jpeg,11-6-1983,49.010623,2.497414,7
Madeleine,Pasquier,female,Madeleine.Pasquier.225@email.fr,MadeleineP225,MadeleineP225999,female,Il est / C'est certain que ,"lazy,sea",surprise-5321849_640.jpg,9-13-1964,45.761752,4.924158,2
Fernande,Grenier,female,Fernande.Grenier.226@email.fr,FernandeG226,FernandeG226999,bisexual,Ne t'inquiète pas. ,"vegan,sport,lazy",102_photo_112233.jpeg,5-21-1993,48.811052,2.536655,6
Armel,Valette,male,Armel.Valette.227@email.fr,ArmelV227,ArmelV227999,male,Plus que ça. ,vegan,57_photo_112233.jpeg,1-9-1979,45.714082,4.946295,3
Eloi,Gillet,male,Eloi.Gillet.228@email.fr,EloiG228,EloiG228999,female,Je ne comprends pas. ,lazy,street-performers-870113_640.jpg,1-9-1966,48.785598,2.444292,9
Toussaint,Joly,male,Toussaint.Joly.229@email.fr,ToussaintJ229,ToussaintJ229999,female,Elle est forte. ,"piercing,tv",66_photo_112233.jpeg,5-16-1953,48.768274,2.314465,9
Placide,Martinez,female,Placide.Martinez.230@email.fr,PlacideM230,PlacideM230999,female,Je pense que c'est bon. ,"mountain,geek,tv",like-5321848_640.jpg,6-15-1958,48.952421,2.095017,8
Bertrand,Laporte,male,Bertrand.Laporte.231@email.fr,BertrandL231,BertrandL231999,male,Nik a les cheveux courts. ,"vegan,music,sport",actor-63082_640.jpg,8-12-1990,48.87433,2.236627,8
Julien,Grenier,male,Julien.Grenier.232@email.fr,JulienG232,JulienG232999,male,J'aimerais connaître / avoir votre avis / opinion sur ,sea,india-7547363_640.jpg,8-16-1995,48.791689,2.490867,3
Evrard,Buisson,male,Evrard.Buisson.233@email.fr,EvrardB233,EvrardB233999,female,Ce sont les mêmes. ,"sport,mountain,piercing,lazy",55_photo_112233.jpeg,2-6-1990,43.296779,5.459896,7
Gustave,Joly,male,Gustave.Joly.234@email.fr,GustaveJ234,GustaveJ234999,female,Depuis combien de temps est-ce que tu habites ici? ,"mountain,geek",57_photo_112233.jpeg,10-12-1988,48.995015,2.52854,1
Donatien,Bodin,male,Donatien.Bodin.235@email.fr,DonatienB235,DonatienB235999,bisexual,Il est mignon. ,geek,male-model-7686778_640.jpg,1-28-1951,45.775924,4.92796,2
Victorine,Guillou,female,Victorine.Guillou.236@email.fr,VictorineG236,VictorineG236999,male,"Moi, je... ","tv,geek,music",71_photo_112233.jpeg,1-25-1950,45.688075,4.829195,3
Emmanuelle,Coste,female,Emmanuelle.Coste.237@email.fr,EmmanuelleC237,EmmanuelleC237999,female,C'est bon. ,"lazy,music,geek",68_photo_112233.jpeg,12-3-1990,48.948658,2.160908,7
Solange,Vasseur,female,Solange.Vasseur.238@email.fr,SolangeV238,SolangeV238999,male,Quel est votre nom de famille ? ,"sport,music,mountain",actor-6210338_640.jpg,11-10-1957,43.250455,5.427204,5
Lucille,Besson,female,Lucille.Besson.239@email.fr,LucilleB239,LucilleB239999,bisexual,Est-ce que ça suffit? ,"mountain,sea,lazy",girl-2491656_640.jpg,11-28-2002,48.95688,2.487145,8
Pascal,Vincent,male,Pascal.Vincent.240@email.fr,PascalV240,PascalV240999,male,Je crois que ,"sea,vegan,piercing,music",18_photo_112233.jpeg,2-17-1951,45.775623,4.864021,9
Angeline,Vallet,female,Angeline.Vallet.241@email.fr,AngelineV241,AngelineV241999,bisexual,Ce sont les mêmes. ,music,111_photo_112233.jpeg,11-14-1959,48.864045,2.596516,1
Noel,Pinto,male,Noel.Pinto.242@email.fr,NoelP242,NoelP242999,bisexual,Tu es belle. ,"geek,mountain,tv",humphrey-bogart-male-1278138_640.jpg,4-28-1953,45.717778,4.884823,6
Flavie,Fabre,female,Flavie.Fabre.243@email.fr,FlavieF243,FlavieF243999,male,Il a le teint clair. ,sport,ramayana-festival-1807516_640.jpg,12-17-2002,48.996644,2.384498,9
Christophe,Lopes,male,Christophe.Lopes.244@email.fr,ChristopheL244,ChristopheL244999,male,J'ai mal à la tête. ,mountain,56_photo_112233.jpeg,7-11-1967,43.321852,5.368038,9
Cesaire,Bourgeois,male,Cesaire.Bourgeois.245@email.fr,CesaireB245,CesaireB245999,bisexual,Elle est riche. ,friends,76_photo_112233.jpeg,4-7-2002,43.295266,5.427405,9
Fifi,Didier,female,Fifi.Didier.246@email.fr,FifiD246,FifiD246999,bisexual,Je pense que c'est bon. ,"geek,tv,sport",17_photo_112233.jpeg,9-22-1972,48.771491,2.366603,8
Evrard,Tran,male,Evrard.Tran.247@email.fr,EvrardT247,EvrardT247999,male,Elle a les cheveux ondulés. ,sea,face-3265605_640.jpg,9-27-2003,45.78438,4.92118,4
Jolie,Berthelot,female,Jolie.Berthelot.248@email.fr,JolieB248,JolieB248999,bisexual,Quels sont tes passe-temps ? ,"mountain,tv",like-5321848_640.jpg,9-11-1957,48.885113,2.250262,6
Romain,Hamon,male,Romain.Hamon.249@email.fr,RomainH249,RomainH249999,bisexual,Elle a les cheveux mi-longs. ,"lazy,mountain,vegan,tv,sport",businessman-6248246_640.jpg,12-5-1959,48.760721,2.450628,7
Solange,Noel,female,Solange.Noel.250@email.fr,SolangeN250,SolangeN250999,male,Depuis combien de temps est-ce que tu habites ici? ,"sea,mountain",theatre-3966147_640.jpg,7-12-1950,45.769072,4.929046,8
Jeannine,Vial,female,Jeannine.Vial.251@email.fr,JeannineV251,JeannineV251999,female,Dépêche-toi! ,"sea,lazy,friends",37_photo_112233.jpeg,8-27-1958,48.824834,2.231222,10
Caroline,Vial,female,Caroline.Vial.252@email.fr,CarolineV252,CarolineV252999,female,Il est sérieux. ,"lazy,mountain,vegan,tv,sport",like-5321848_640.jpg,3-11-1994,48.877503,2.150971,2
Philippine,Seguin,female,Philippine.Seguin.253@email.fr,PhilippineS253,PhilippineS253999,female,Qu'est-ce que tu étudies ? ,"friends,geek,music",street-performers-870119_640.jpg,2-13-1998,48.928143,2.548464,8
Nicolette,Lebreton,female,Nicolette.Lebreton.254@email.fr,NicoletteL254,NicoletteL254999,female,J'ai trente-deux ans. ,"friends,piercing,music,sea,lazy",people-3209886_640.jpg,7-1-1963,45.792201,4.757203,3
Raymonde,Boyer,female,Raymonde.Boyer.255@email.fr,RaymondeB255,RaymondeB255999,bisexual,Es-tu français? ,"vegan,music,friends,geek",holland-315604_640.jpg,8-15-1987,49.020831,2.162853,5
Michelle,Dumont,female,Michelle.Dumont.256@email.fr,MichelleD256,MichelleD256999,bisexual,Je suis allergique aux fruits de mer. ,"tv,lazy,geek,sea",21_photo_112233.jpeg,11-19-1998,45.754579,4.952812,2
Baptiste,Ribeiro,male,Baptiste.Ribeiro.257@email.fr,BaptisteR257,BaptisteR257999,male,Ne t'inquiète pas. ,"mountain,tv,friends,vegan,sea",men-7050835_640.jpg,8-21-1980,48.912061,2.189255,8
Loup,Dufour,male,Loup.Dufour.258@email.fr,LoupD258,LoupD258999,male,Je sais / Nous savons que ,"vegan,tv",kevin-bacon-83495_640.jpg,8-17-1974,45.79209,4.91264,4
Damien,Rolland,male,Damien.Rolland.259@email.fr,DamienR259,DamienR259999,bisexual,Est-ce que ton mari est aussi de Boston? ,"lazy,mountain",humphrey-bogart-male-1278138_640.jpg,9-2-1955,43.271649,5.482686,4
Sylvain,Lebrun,male,Sylvain.Lebrun.260@email.fr,SylvainL260,SylvainL260999,male,Ils sont très occupés. ,"sea,mountain",smile-1221915_640.jpg,6-9-1977,43.309165,5.464824,10
Anatole,Texier,male,Anatole.Texier.261@email.fr,AnatoleT261,AnatoleT261999,bisexual,Nous l'aimons beaucoup. ,"sport,lazy",man-6342452_640.jpg,5-20-1989,48.9735,2.105652,5
Edwige,Durand,female,Edwige.Durand.262@email.fr,EdwigeD262,EdwigeD262999,male,Depuis combien de temps est-ce que tu habites ici? ,"sea,vegan,piercing,music",46_photo_112233.jpeg,1-12-1977,48.742521,2.281044,6
Bastien,Morvan,male,Bastien.Morvan.263@email.fr,BastienM263,BastienM263999,male,A ce soir. ,"mountain,vegan,sport,friends",80_photo_112233.jpeg,11-5-2002,48.741273,2.462425,8
Olivier,Perez,male,Olivier.Perez.264@email.fr,OlivierP264,OlivierP264999,bisexual,Je ne suis pas à même de dire si ,"vegan,music,tv",man-7291967_640.jpg,4-23-1993,48.948658,2.160908,9
Philibert,Germain,male,Philibert.Germain.265@email.fr,PhilibertG265,PhilibertG265999,female,Désolé de vous déranger. ,"geek,friends,mountain,sea,lazy",people-5987395_640.jpg,10-16-1972,45.694704,4.858565,6
Ambroise,Royer,male,Ambroise.Royer.266@email.fr,AmbroiseR266,AmbroiseR266999,bisexual,Depuis combien de temps est tu es en France? ,"tv,music,vegan,geek",80_photo_112233.jpeg,9-28-1951,43.326199,5.433845,8
Avril,Barre,female,Avril.Barre.267@email.fr,AvrilB267,AvrilB267999,bisexual,Santé! ,"tv,music,vegan,geek",street-performers-870119_640.jpg,6-8-1995,48.88628,2.590599,4
Germaine,Briand,female,Germaine.Briand.268@email.fr,GermaineB268,GermaineB268999,male,Je pensais que les vêtements étaient plus chers. ,"sport,vegan",85_photo_112233.jpeg,10-7-1977,45.694704,4.858565,6
Onesime,Guichard,male,Onesime.Guichard.269@email.fr,OnesimeG269,OnesimeG269999,male,Vos affaires sont toutes là. ,sea,male-model-7686778_640.jpg,4-7-1969,45.765807,4.913341,6
Charlot,Buisson,male,Charlot.Buisson.270@email.fr,CharlotB270,CharlotB270999,male,J'ai soif. ,"music,friends,geek,sport,lazy",man-7291967_640.jpg,4-13-1966,48.727116,2.448405,7
Marise,Morvan,female,Marise.Morvan.271@email.fr,MariseM271,MariseM271999,male,Elle est forte. ,"tv,geek,music",20_photo_112233.jpeg,11-24-2001,48.767326,2.376678,3
Marguerite,Meunier,female,Marguerite.Meunier.272@email.fr,MargueriteM272,MargueriteM272999,female,Ils sont très occupés. ,sea,20_photo_112233.jpeg,3-15-1966,45.782783,4.847794,6
Prosper,Germain,male,Prosper.Germain.273@email.fr,ProsperG273,ProsperG273999,bisexual,C'est dommage. ,"mountain,sea,lazy",19_photo_112233.jpeg,3-9-1979,45.6896,4.956506,6
Arianne,Couturier,female,Arianne.Couturier.274@email.fr,ArianneC274,ArianneC274999,female,Est-ce que tu vas souvent à Paris? ,"lazy,friends,geek,piercing,tv",holland-315604_640.jpg,8-13-1988,45.764873,4.791683,3
Marielle,Godard,female,Marielle.Godard.275@email.fr,MarielleG275,MarielleG275999,female,Tu es très sympa. ,"mountain,geek",22_photo_112233.jpeg,2-23-1964,48.741273,2.462425,6
Cerise,Hamon,female,Cerise.Hamon.276@email.fr,CeriseH276,CeriseH276999,female,J'ai l'idée que ,"mountain,music,tv,sport",90_photo_112233.jpeg,11-6-1973,48.799902,2.42978,9
Myriam,Klein,female,Myriam.Klein.277@email.fr,MyriamK277,MyriamK277999,male,J'imagine que ,"lazy,geek,piercing,music,sport",drama-1155445_640.jpg,11-16-1998,45.731537,4.870614,1
Jean-baptiste,Deschamps,male,Jean-baptiste.Deschamps.278@email.fr,Jean-baptisteD278,Jean-baptisteD278999,bisexual,Bien sûr. ,mountain,41_photo_112233.jpeg,10-24-1967,45.717778,4.884823,10
Maxime,Merle,male,Maxime.Merle.279@email.fr,MaximeM279,MaximeM279999,female,Vraiment? ,"piercing,music,sea,vegan,tv",58_photo_112233.jpeg,10-22-1967,45.688075,4.829195,1
Romain,Vial,male,Romain.Vial.280@email.fr,RomainV280,RomainV280999,bisexual,En ce qui me concerne ,"music,tv,vegan,lazy,mountain",people-5987395_640.jpg,5-16-1952,45.681336,4.792996,4
Honorine,Michel,female,Honorine.Michel.281@email.fr,HonorineM281,HonorineM281999,female,Je préférerais ne pas (avoir à) me prononcer sur ,"sport,tv,mountain,geek,vegan",8_photo_112233.jpeg,6-16-1979,43.311582,5.408094,1
Nicolette,Gallet,female,Nicolette.Gallet.282@email.fr,NicoletteG282,NicoletteG282999,female,Elle a les cheveux mi-longs. ,friends,sonam-prajapati-6893225_640.jpg,1-15-1987,45.723311,4.845148,3
Brice,Reynaud,male,Brice.Reynaud.283@email.fr,BriceR283,BriceR283999,bisexual,Je préférerais ne pas m'engager ,"geek,mountain,friends,music",actor-2181844_640.jpg,8-9-1984,48.834736,2.171978,2
Romain,Dupuy,male,Romain.Dupuy.284@email.fr,RomainD284,RomainD284999,bisexual,Je suis marié. ,sport,33_photo_112233.jpeg,4-17-1987,45.768971,4.825925,8
Telesphore,Boutin,male,Telesphore.Boutin.285@email.fr,TelesphoreB285,TelesphoreB285999,female,Je paierai. ,"sea,geek,piercing,music,sport",96_photo_112233.jpeg,6-7-1996,43.285404,5.404912,8
Alexandrie,Loiseau,female,Alexandrie.Loiseau.286@email.fr,AlexandrieL286,AlexandrieL286999,female,A bientôt. ,"vegan,mountain,friends",111_photo_112233.jpeg,9-16-1951,48.82731,2.238848,10
Jeanne,Valette,female,Jeanne.Valette.287@email.fr,JeanneV287,JeanneV287999,female,Je vais partir. ,"sea,tv,piercing,vegan,mountain",8_photo_112233.jpeg,5-9-1963,48.918827,2.110378,6
Alphonse,Delage,male,Alphonse.Delage.288@email.fr,AlphonseD288,AlphonseD288999,bisexual,Ce sont les mêmes. ,"friends,geek,lazy",man-6342455_640.jpg,5-1-1954,49.011257,2.338414,8
Dion,Vial,male,Dion.Vial.289@email.fr,DionV289,DionV289999,female,Juste ici. ,"lazy,vegan",man-210379_640.jpg,12-26-1961,43.249827,5.46705,5
Axelle,Maurice,female,Axelle.Maurice.290@email.fr,AxelleM290,AxelleM290999,male,Je voudrais connaître / avoir votre réaction face à ,"piercing,vegan",3_photo_112233.jpeg,4-17-1998,45.690328,4.776281,3
Sophie,Humbert,female,Sophie.Humbert.291@email.fr,SophieH291,SophieH291999,male,J'aimerais connaître / avoir votre réaction face à ,"vegan,lazy,piercing,geek,tv",actress-825670_640.jpg,1-15-1959,45.748166,4.887087,7
Roch,Rey,male,Roch.Rey.292@email.fr,RochR292,RochR292999,bisexual,"Non, je suis américain. ","geek,tv,music,piercing",man-4134645_640.jpg,1-13-1993,45.67985,4.823369,5
Renard,Lopes,male,Renard.Lopes.293@email.fr,RenardL293,RenardL293999,bisexual,Ça sent mauvais. ,"sport,tv,sea,music,lazy",91_photo_112233.jpeg,1-16-1957,43.278579,5.373577,10
Marthe,Denis,female,Marthe.Denis.294@email.fr,MartheD294,MartheD294999,female,À mon avis ,"mountain,vegan,friends,sport",86_photo_112233.jpeg,4-4-1966,48.785001,2.067648,5
Doriane,Vallet,female,Doriane.Vallet.295@email.fr,DorianeV295,DorianeV295999,bisexual,Mon père y est allé. ,"music,vegan",model-3362457_640.jpg,10-11-1977,48.976898,2.536981,10
Rolande,Favre,female,Rolande.Favre.296@email.fr,RolandeF296,RolandeF296999,bisexual,"Non, c'est la première fois. ",lazy,mask-4985280_640.jpg,4-2-1983,43.355474,5.359616,1
Olivier,Courtois,male,Olivier.Courtois.297@email.fr,OlivierC297,OlivierC297999,female,Non. ,mountain,acteur1.png,2-2-1996,45.730599,4.790102,4
Prosper,Deschamps,male,Prosper.Deschamps.298@email.fr,ProsperD298,ProsperD298999,female,Dépêche-toi! ,"lazy,vegan",50_photo_112233.jpeg,1-8-1993,48.836729,2.602536,6
Angeline,Maurin,female,Angeline.Maurin.299@email.fr,AngelineM299,AngelineM299999,male,C'est ma mère. ,"lazy,tv,vegan,piercing,mountain",theatre-3966147_640.jpg,9-17-1987,45.778576,4.789492,5
Lucien,Carlier,male,Lucien.Carlier.300@email.fr,LucienC300,LucienC300999,bisexual,Pas récemment. ,"music,vegan,tv,sea,sport",57_photo_112233.jpeg,1-5-1954,48.881786,2.251712,9
Germain,Maurin,male,Germain.Maurin.301@email.fr,GermainM301,GermainM301999,bisexual,Excusez-moi. ,"lazy,sea,sport,tv,mountain",97_photo_112233.jpeg,10-23-1973,48.882101,2.600595,9
Seraphine,Fernandez,female,Seraphine.Fernandez.302@email.fr,SeraphineF302,SeraphineF302999,bisexual,Quelle est votre opinion/avis sur ,"mountain,geek,tv",63_photo_112233.jpeg,4-25-1963,48.98819,2.396428,4
Rosemonde,Leblanc,female,Rosemonde.Leblanc.303@email.fr,RosemondeL303,RosemondeL303999,bisexual,Je suis un Américain. ,tv,36_photo_112233.jpeg,2-11-1986,43.34001,5.470271,4
Angelique,Diallo,female,Angelique.Diallo.304@email.fr,AngeliqueD304,AngeliqueD304999,male,Pourrais-je parler à madame Smith s'il vous plaît? ,"tv,lazy,piercing",26_photo_112233.jpeg,12-20-1963,48.984464,2.532422,2
Nicolas,Bertrand,male,Nicolas.Bertrand.305@email.fr,NicolasB305,NicolasB305999,male,Il a les yeux marron. ,vegan,male-model-7686778_640.jpg,6-19-2001,48.740054,2.422778,3
Benoit,Toussaint,male,Benoit.Toussaint.306@email.fr,BenoitT306,BenoitT306999,male,Il est mignon. ,"mountain,lazy,piercing,sport,vegan",jorn-schlonvogt-1202320_640.jpg,9-5-1985,43.282818,5.401397,6
Papillion,Ribeiro,male,Papillion.Ribeiro.307@email.fr,PapillionR307,PapillionR307999,bisexual,Il est très ennuyeux. ,vegan,80_photo_112233.jpeg,8-8-2001,45.73853,4.758837,1
Fifi,Coste,female,Fifi.Coste.308@email.fr,FifiC308,FifiC308999,bisexual,Selon vous ,"sport,tv,sea,music,lazy",london-5731175_640.jpg,2-4-1964,43.243898,5.41354,2
Gratien,Voisin,male,Gratien.Voisin.309@email.fr,GratienV309,GratienV309999,male,Elle est courageuse. ,"sea,mountain",kevin-bacon-83495_640.jpg,11-17-1990,48.963331,2.322578,2
Joceline,Poirier,female,Joceline.Poirier.310@email.fr,JocelineP310,JocelineP310999,bisexual,J'ai entendu parler de ,"mountain,vegan",26_photo_112233.jpeg,12-25-1968,45.751255,4.933705,10
Denise,Leroy,female,Denise.Leroy.311@email.fr,DeniseL311,DeniseL311999,male,Je ne parle pas très bien. ,"music,vegan,piercing",actor-542726_640.jpg,8-5-1973,45.788536,4.821957,4
Laurent,Valentin,male,Laurent.Valentin.312@email.fr,LaurentV312,LaurentV312999,female,Quel est votre nom de famille ? ,"music,friends",men-7050835_640.jpg,6-4-1988,45.696249,4.894774,3
Lydie,Lamy,female,Lydie.Lamy.313@email.fr,LydieL313,LydieL313999,bisexual,Est-ce que tu veux venir avec moi? ,"sea,tv,lazy",26_photo_112233.jpeg,7-25-1981,48.915657,2.586914,10
Manon,Berger,female,Manon.Berger.314@email.fr,ManonB314,ManonB314999,female,Il a de l‘humour. ,"lazy,music,vegan",98_photo_112233.jpeg,9-4-1974,45.775084,4.814702,4
Pons,Couturier,male,Pons.Couturier.315@email.fr,PonsC315,PonsC315999,male,Je n'ai jamais vraiment réfléchi à ,"lazy,vegan",dracula-theater-7209931_640.jpg,5-21-1960,45.795236,4.878122,10
Henriette,Lefevre,female,Henriette.Lefevre.316@email.fr,HenrietteL316,HenrietteL316999,female,C'est vrai. ,"geek,tv",63_photo_112233.jpeg,5-7-1994,48.829895,2.440885,2
Eloi,Aubert,male,Eloi.Aubert.317@email.fr,EloiA317,EloiA317999,male,Je ne peux pas m'empêcher de penser que ,"vegan,tv,lazy",108_photo_112233.jpeg,6-24-2000,48.787134,2.276859,9
Vespasien,Andre,male,Vespasien.Andre.318@email.fr,VespasienA318,VespasienA318999,bisexual,Chicago est très différente de Boston. ,"geek,tv,lazy,piercing",88_photo_112233.jpeg,10-19-1985,45.791394,4.895787,1
Eustache,Loiseau,male,Eustache.Loiseau.319@email.fr,EustacheL319,EustacheL319999,female,Depuis combien de temps est-ce que tu habites ici? ,"lazy,geek,piercing,music,sport",95_photo_112233.jpeg,7-28-1975,45.787581,4.803011,5
Colette,Bonneau,female,Colette.Bonneau.320@email.fr,ColetteB320,ColetteB320999,male,Je n'ai pas d'opinion bien précise à / arrêtée sur ,"mountain,tv",3_photo_112233.jpeg,10-5-1999,43.2881,5.35046,6
Noella,Normand,female,Noella.Normand.321@email.fr,NoellaN321,NoellaN321999,bisexual,Bonne idée. ,"sea,vegan,friends,geek",17_photo_112233.jpeg,12-4-1991,45.733201,4.806752,5
Thierry,Julien,male,Thierry.Julien.322@email.fr,ThierryJ322,ThierryJ322999,female,Je l'aime. ,"music,friends",brett-952579_640.jpg,11-27-1966,48.761752,2.227691,1
Mirabelle,Roy,female,Mirabelle.Roy.323@email.fr,MirabelleR323,MirabelleR323999,bisexual,Pour moi ,"tv,music,sport",104_photo_112233.jpeg,12-3-1964,48.844292,2.464901,4
Lucie,Loiseau,female,Lucie.Loiseau.324@email.fr,LucieL324,LucieL324999,male,"Je vais bien, et toi? ",music,68_photo_112233.jpeg,11-2-1969,48.796724,2.274,1
Benoite,Schmitt,female,Benoite.Schmitt.325@email.fr,BenoiteS325,BenoiteS325999,male,Il est marrant. ,"piercing,geek,mountain,lazy",105_photo_112233.jpeg,5-23-1999,48.762482,2.415631,3
Anselme,Briand,male,Anselme.Briand.326@email.fr,AnselmeB326,AnselmeB326999,male,C'est du moins mon opinion. ,piercing,41_photo_112233.jpeg,11-8-1998,43.269264,5.408265,7
Margot,Allain,female,Margot.Allain.327@email.fr,MargotA327,MargotA327999,female,Je sais. ,"music,mountain,friends,lazy,vegan",93_photo_112233.jpeg,2-4-1968,45.745521,4.963296,9
Zephyrine,Joly,female,Zephyrine.Joly.328@email.fr,ZephyrineJ328,ZephyrineJ328999,bisexual,Telle est mon opinion sur... ,"piercing,vegan",71_photo_112233.jpeg,11-22-1992,45.691783,4.810638,7
Arlette,Leclerc,female,Arlette.Leclerc.329@email.fr,ArletteL329,ArletteL329999,male,Elle est forte. ,piercing,89_photo_112233.jpeg,2-12-1989,45.743562,4.810943,7
Luce,Rolland,female,Luce.Rolland.330@email.fr,LuceR330,LuceR330999,male,Merci pour tout. ,"sea,tv",85_photo_112233.jpeg,5-28-1974,48.898208,2.296671,7
Morgaine,Laurent,female,Morgaine.Laurent.331@email.fr,MorgaineL331,MorgaineL331999,bisexual,J'ai faim. ,music,actor-6311507_640.jpg,5-3-1992,43.328766,5.354546,3
Armelle,Riou,female,Armelle.Riou.332@email.fr,ArmelleR332,ArmelleR332999,male,Juste ici. ,"mountain,vegan,sea",85_photo_112233.jpeg,10-4-1964,48.905871,2.100486,9
Gilles,Langlois,male,Gilles.Langlois.333@email.fr,GillesL333,GillesL333999,bisexual,Je suis persuadé que ,mountain,41_photo_112233.jpeg,2-21-1962,48.838004,2.569699,10
Cerise,Moreau,female,Cerise.Moreau.334@email.fr,CeriseM334,CeriseM334999,bisexual,Ma fille est ici. ,"friends,sport,music,tv,sea",39_photo_112233.jpeg,3-11-1997,45.698757,4.78265,3
Sylvie,Navarro,female,Sylvie.Navarro.335@email.fr,SylvieN335,SylvieN335999,bisexual,Je n'ai jamais vu ça avant. ,"vegan,music,tv",1_photo_112233.jpeg,1-28-1963,45.736085,4.864049,7
Odile,Bigot,female,Odile.Bigot.336@email.fr,OdileB336,OdileB336999,bisexual,Il est / C'est probable que ,sport,27_photo_112233.jpeg,2-22-1956,45.736085,4.864049,10
Seraphine,Boucher,female,Seraphine.Boucher.337@email.fr,SeraphineB337,SeraphineB337999,male,Je nettoie ma chambre. ,"mountain,sport",13_photo_112233.jpeg,5-20-1973,45.771883,4.9285,10
Jeannine,Le,female,Jeannine.Le.338@email.fr,JeannineL338,JeannineL338999,male,À mon avis ,vegan,street-performers-870119_640.jpg,5-23-1971,43.351531,5.392342,3
Eulalie,Laurent,female,Eulalie.Laurent.339@email.fr,EulalieL339,EulalieL339999,female,laisse-moi y réfléchir. ,"sport,music,vegan,piercing,mountain",woman-1462683_640.jpg,11-13-1977,48.790922,2.342484,5
Charlotte,Guilbert,female,Charlotte.Guilbert.340@email.fr,CharlotteG340,CharlotteG340999,female,Est-ce que tu en as un autre? ,"mountain,geek",86_photo_112233.jpeg,11-11-1955,43.278463,5.485846,4
Monique,Duhamel,female,Monique.Duhamel.341@email.fr,MoniqueD341,MoniqueD341999,bisexual,Tout le monde le sais. ,"tv,sea,friends,music,geek",actor-6210338_640.jpg,5-14-1999,43.287167,5.352416,10
Loup,Denis,male,Loup.Denis.342@email.fr,LoupD342,LoupD342999,bisexual,Est-ce que ton frère est allé en France ? ,"vegan,friends,music,sport,geek",76_photo_112233.jpeg,4-21-1955,48.752266,2.060415,5
Papillion,Riviere,male,Papillion.Riviere.343@email.fr,PapillionR343,PapillionR343999,female,De temps en temps. ,"sea,music,geek,sport,lazy",gregory-peck-90779_640.jpg,7-16-1992,48.978855,2.183342,9
Antoine,Royer,male,Antoine.Royer.344@email.fr,AntoineR344,AntoineR344999,bisexual,Je ne parle pas très bien. ,"sport,tv,geek",jorn-schlonvogt-1202320_640.jpg,9-15-1995,48.785919,2.331801,4
Laurent,Cousin,male,Laurent.Cousin.345@email.fr,LaurentC345,LaurentC345999,female,Quel est votre nom de famille ? ,"sport,vegan",street-performers-870113_640.jpg,10-21-1994,48.996644,2.384498,8
Yvette,Barthelemy,female,Yvette.Barthelemy.346@email.fr,YvetteB346,YvetteB346999,bisexual,As-tu reçu mon e-mail? ,"vegan,sport",mount-saint-helens-4395977_640.jpg,5-28-2000,45.791394,4.895787,1
Lucrece,Favre,female,Lucrece.Favre.347@email.fr,LucreceF347,LucreceF347999,male,Nous avons deux garçons et une fille. ,music,21_photo_112233.jpeg,5-25-1960,48.935159,2.390469,9
Pauline,Gaudin,female,Pauline.Gaudin.348@email.fr,PaulineG348,PaulineG348999,bisexual,Est-ce que tu peux traduire ça pour moi? ,"mountain,lazy,geek",model-3362457_640.jpg,7-28-1965,45.73696,4.849222,9
Telesphore,Collet,male,Telesphore.Collet.349@email.fr,TelesphoreC349,TelesphoreC349999,female,Ils sont très occupés. ,sea,people-3230020_640.jpg,4-11-1989,48.999023,2.238122,8
Maximilien,Levy,male,Maximilien.Levy.350@email.fr,MaximilienL350,MaximilienL350999,bisexual,Je viens te chercher. ,"vegan,piercing",man-3252165_640.jpg,10-16-1966,43.271529,5.478229,7
Gaetane,Martins,female,Gaetane.Martins.351@email.fr,GaetaneM351,GaetaneM351999,bisexual,Mon père y est allé. ,"piercing,friends",theater-200716_640.jpg,10-24-1961,48.769464,2.088608,5
Roxane,Guillon,female,Roxane.Guillon.352@email.fr,RoxaneG352,RoxaneG352999,female,C'est Monsieur Smith. ,"vegan,sport,mountain,geek,music",69_photo_112233.jpeg,8-11-2004,48.806617,2.485366,1
Michel,Charpentier,male,Michel.Charpentier.353@email.fr,MichelC353,MichelC353999,female,"Non, je suis américain. ","sea,lazy,friends",80_photo_112233.jpeg,3-26-2000,45.723146,4.917299,8
Claudine,Carre,female,Claudine.Carre.354@email.fr,ClaudineC354,ClaudineC354999,female,Es-tu français? ,"friends,piercing",11_photo_112233.jpeg,10-6-1989,48.9735,2.105652,7
Henriette,Maury,female,Henriette.Maury.355@email.fr,HenrietteM355,HenrietteM355999,bisexual,Il me semble que ,"vegan,tv",woman-1462683_640.jpg,9-6-1958,48.78228,2.058015,7
Noel,Cohen,male,Noel.Cohen.356@email.fr,NoelC356,NoelC356999,female,Ce n'est pas juste. ,geek,59_photo_112233.jpeg,1-16-1998,45.702951,4.970217,9
Modeste,Lefebvre,male,Modeste.Lefebvre.357@email.fr,ModesteL357,ModesteL357999,bisexual,Elle a les cheveux mi-longs. ,"lazy,tv,piercing",face-3265605_640.jpg,6-12-1981,48.755901,2.59765,6
Blanche,Baudry,female,Blanche.Baudry.358@email.fr,BlancheB358,BlancheB358999,male,Que pensez-vous de ,"mountain,piercing,friends,music,tv",35_photo_112233.jpeg,7-19-1958,45.761752,4.924158,7
Florentin,Garcia,male,Florentin.Garcia.359@email.fr,FlorentinG359,FlorentinG359999,male,Je suis sûr que ,"vegan,mountain,music",people-3224723_640.jpg,10-28-1962,48.924363,2.162071,8
Edwige,Humbert,female,Edwige.Humbert.360@email.fr,EdwigeH360,EdwigeH360999,bisexual,Travailles-tu demain? ,"lazy,sport,tv,friends",woman-6002459_640.jpg,7-22-1990,43.302283,5.350721,8
Arnaude,Rey,female,Arnaude.Rey.361@email.fr,ArnaudeR361,ArnaudeR361999,bisexual,Je parle un peu d'anglais. ,"lazy,music,vegan,sea,mountain",actor-6311507_640.jpg,2-24-1973,48.928181,2.22393,8
Alexandrie,Vincent,female,Alexandrie.Vincent.362@email.fr,AlexandrieV362,AlexandrieV362999,bisexual,Est-ce que ça suffit? ,vegan,37_photo_112233.jpeg,8-21-1989,48.895591,2.458086,7
Aurore,Benard,female,Aurore.Benard.363@email.fr,AuroreB363,AuroreB363999,male,Je trouve que ,"lazy,tv,friends,piercing,sport",90_photo_112233.jpeg,2-24-1955,48.88628,2.590599,3
Charline,Lamy,female,Charline.Lamy.364@email.fr,CharlineL364,CharlineL364999,male,Est-ce que tu as pris tes médicaments? ,"lazy,music,vegan,sea,mountain",portrait-3359403_640.jpg,7-2-1970,43.299138,5.399672,9
Perceval,Cordier,male,Perceval.Cordier.365@email.fr,PercevalC365,PercevalC365999,male,Merci. ,"sea,music,mountain,lazy,friends",55_photo_112233.jpeg,12-27-1981,45.79209,4.91264,1
Hilaire,Boulanger,male,Hilaire.Boulanger.366@email.fr,HilaireB366,HilaireB366999,female,Mon fils étudie l'informatique. ,"tv,mountain,geek",55_photo_112233.jpeg,11-6-1994,43.299624,5.442588,5
Gilles,Ribeiro,male,Gilles.Ribeiro.367@email.fr,GillesR367,GillesR367999,female,Quel âge as-tu? ,"sport,music,tv",filmproduction-485518_640.jpg,12-6-1960,48.773049,2.376097,10
Noella,Andre,female,Noella.Andre.368@email.fr,NoellaA368,NoellaA368999,bisexual,Il est gentil. ,"sea,friends,piercing",104_photo_112233.jpeg,7-17-1959,43.289836,5.40547,8
Marcelle,Renard,female,Marcelle.Renard.369@email.fr,MarcelleR369,MarcelleR369999,female,C'est très important. ,lazy,sonam-prajapati-6893225_640.jpg,10-21-1961,45.704559,4.968931,1
Solange,Maurin,female,Solange.Maurin.370@email.fr,SolangeM370,SolangeM370999,female,Tu es très sympa. ,vegan,39_photo_112233.jpeg,4-21-1968,45.717091,4.891284,6
Fabien,Launay,male,Fabien.Launay.371@email.fr,FabienL371,FabienL371999,male,Pour moi ,"music,friends",portrait-3204879_640.jpg,2-3-1957,45.743811,4.912695,9
Gabrielle,Dupuy,female,Gabrielle.Dupuy.372@email.fr,GabrielleD372,GabrielleD372999,bisexual,Quel âge as-tu? ,music,surprise-5321849_640.jpg,2-12-1995,48.730651,2.360358,2
Charlotte,Chartier,female,Charlotte.Chartier.373@email.fr,CharlotteC373,CharlotteC373999,male,Tu es très sympa. ,"lazy,music,sea,sport",61_photo_112233.jpeg,1-3-1971,48.928318,2.308458,5
Placide,Marchal,female,Placide.Marchal.374@email.fr,PlacideM374,PlacideM374999,female,Peu importe. ,"vegan,tv,lazy",68_photo_112233.jpeg,12-22-1982,43.270533,5.47782,5
Ghislain,Dumas,male,Ghislain.Dumas.375@email.fr,GhislainD375,GhislainD375999,bisexual,Je dois laver mes vêtements. ,vegan,man-8245780_640.webp,7-26-1996,45.757765,4.840575,1
Eloi,Levy,male,Eloi.Levy.376@email.fr,EloiL376,EloiL376999,male,Je crains qu'il ne soit ,"geek,sea,tv,vegan,friends",Jason_Statham_2018.jpg,8-13-1963,48.843758,2.45243,10
Armel,Costa,male,Armel.Costa.377@email.fr,ArmelC377,ArmelC377999,male,À mon avis ,"sea,tv,lazy,geek,piercing",100_photo_112233.jpeg,4-8-2000,48.741033,2.226023,5
Arianne,Pereira,female,Arianne.Pereira.378@email.fr,ArianneP378,ArianneP378999,male,Je suis content. ,"lazy,tv,sport",head-shoot-1542339_640.jpg,10-22-1974,43.332217,5.372185,3
Loic,Lenoir,male,Loic.Lenoir.379@email.fr,LoicL379,LoicL379999,female,Elle a les yeux verts. ,mountain,31_photo_112233.jpeg,7-13-1960,45.702085,4.766326,9
Serge,Costa,male,Serge.Costa.380@email.fr,SergeC380,SergeC380999,female,Je fais une taille huit. ,"geek,friends,mountain,sea,lazy",42_photo_112233.jpeg,7-26-1992,45.76974,4.946696,4
Florentin,Chauvin,male,Florentin.Chauvin.381@email.fr,FlorentinC381,FlorentinC381999,male,Je vais le prendre. ,"piercing,vegan",actor-2181844_640.jpg,1-26-1973,48.867596,2.56897,1
Laure,Weber,female,Laure.Weber.382@email.fr,LaureW382,LaureW382999,bisexual,Je ne suis pas encore prêt. ,"geek,tv,lazy,piercing",model-3362457_640.jpg,12-2-2002,43.324994,5.435892,10
Mathilde,Dupuy,female,Mathilde.Dupuy.383@email.fr,MathildeD383,MathildeD383999,bisexual,Tu es très intelligent. ,"mountain,tv",woman-1462683_640.jpg,3-22-1963,48.782099,2.087727,8
Faustine,Lefevre,female,Faustine.Lefevre.384@email.fr,FaustineL384,FaustineL384999,male,Elle est spécialiste. ,lazy,girl-2491656_640.jpg,9-23-1969,45.714082,4.946295,3
Florette,Durand,female,Florette.Durand.385@email.fr,FloretteD385,FloretteD385999,female,Quelle est votre attitude à l'égard de ,"lazy,friends",52_photo_112233.jpeg,6-3-1994,43.277115,5.486047,2
Anselme,Buisson,male,Anselme.Buisson.386@email.fr,AnselmeB386,AnselmeB386999,female,Je viens te chercher. ,"friends,piercing",31_photo_112233.jpeg,1-9-1956,48.983749,2.316647,6
Luce,Carlier,female,Luce.Carlier.387@email.fr,LuceC387,LuceC387999,male,Est-ce que tu fais du sport? ,"vegan,sea",52_photo_112233.jpeg,8-14-1956,45.738233,4.954843,1
Cesaire,Dupuis,male,Cesaire.Dupuis.388@email.fr,CesaireD388,CesaireD388999,female,Où es-tu allé ? ,vegan,dracula-theater-7209931_640.jpg,9-24-1954,43.309165,5.464824,1
Armel,Colas,male,Armel.Colas.389@email.fr,ArmelC389,ArmelC389999,bisexual,J'ai trente-deux ans. ,"lazy,sea,sport,tv,mountain",25_photo_112233.jpeg,6-10-1997,48.935159,2.390469,9
Juliane,Renard,female,Juliane.Renard.390@email.fr,JulianeR390,JulianeR390999,female,Mon père y est allé. ,"sea,geek,piercing,music,sport",woman-6002459_640.jpg,7-7-1963,45.731537,4.870614,6
Roch,Bertrand,male,Roch.Bertrand.391@email.fr,RochB391,RochB391999,bisexual,C'est plus long que deux kilomètres. ,"piercing,geek,music,mountain,tv",jackie-chan-2689112_1280.jpg,8-3-1963,43.261701,5.411577,6
Sylvaine,Le,female,Sylvaine.Le.392@email.fr,SylvaineL392,SylvaineL392999,female,Merci pour tout. ,lazy,fashion-4746903_640.jpg,12-27-1963,48.921232,2.237278,6
Fiacre,Pichon,male,Fiacre.Pichon.393@email.fr,FiacreP393,FiacreP393999,female,J'ai entendu parler de ,"lazy,sea,sport,friends,vegan",people-3230020_640.jpg,6-19-1974,45.69255,4.858803,7
Odette,Auger,female,Odette.Auger.394@email.fr,OdetteA394,OdetteA394999,bisexual,Je ne veux pas te déranger. ,"mountain,piercing,geek,tv",theater-200716_640.jpg,5-6-1986,45.702951,4.970217,10
Aristide,Delattre,male,Aristide.Delattre.395@email.fr,AristideD395,AristideD395999,female,Elle a les yeux verts. ,"mountain,lazy",man-8245776_640.webp,2-2-1963,48.95688,2.487145,9
Prosper,Royer,male,Prosper.Royer.396@email.fr,ProsperR396,ProsperR396999,female,Je crains qu'il ne soit ,"sea,music,mountain,lazy,friends",42_photo_112233.jpeg,11-19-1973,45.754579,4.952812,4
Eulalie,Merle,female,Eulalie.Merle.397@email.fr,EulalieM397,EulalieM397999,female,J'espère que vous ferez un bon voyage. ,"vegan,tv,piercing",85_photo_112233.jpeg,5-13-1965,45.704,4.855166,2
Virginie,Pereira,female,Virginie.Pereira.398@email.fr,VirginieP398,VirginieP398999,male,C'est pas mal. ,lazy,34_photo_112233.jpeg,7-12-2000,43.314354,5.432285,10
Gilberte,Poulain,female,Gilberte.Poulain.399@email.fr,GilberteP399,GilberteP399999,bisexual,J'ai perdu ma montre. ,music,1_photo_112233.jpeg,11-28-2002,45.730332,4.823083,8
Charlotte,Noel,female,Charlotte.Noel.400@email.fr,CharlotteN400,CharlotteN400999,male,Je préférerais ne pas (avoir à) me prononcer sur ,"sport,tv,piercing",fright-7989944_640.jpg,2-19-2001,48.741273,2.462425,8
Marc,Gilles,male,Marc.Gilles.401@email.fr,MarcG401,MarcG401999,male,Je crains qu'il ne soit ,"lazy,vegan,mountain,friends,music",man-8245780_640.webp,5-2-1950,48.725625,2.50134,4
Louis,Besson,male,Louis.Besson.402@email.fr,LouisB402,LouisB402999,female,C'est ma mère. ,"piercing,sport,friends",man-6342455_640.jpg,4-28-1956,45.76845,4.853675,10
Jeanne,Gallet,female,Jeanne.Gallet.403@email.fr,JeanneG403,JeanneG403999,bisexual,Je suis américain. ,vegan,17_photo_112233.jpeg,11-27-1966,45.717091,4.891284,5
Victoire,Thierry,female,Victoire.Thierry.404@email.fr,VictoireT404,VictoireT404999,bisexual,Es-tu sûr? ,geek,models-4277829_640.jpg,5-16-1993,48.978855,2.183342,8
Florentin,Guillou,male,Florentin.Guillou.405@email.fr,FlorentinG405,FlorentinG405999,female,Je paierai. ,"vegan,sport,friends,tv",actor-63082_640.jpg,3-20-1969,45.720567,4.947203,4
Bernadette,Maillot,female,Bernadette.Maillot.406@email.fr,BernadetteM406,BernadetteM406999,female,Je suis très occupé. Je n'ai pas le temps maintenant. ,"vegan,friends,sea,geek",london-5731175_640.jpg,8-25-2004,45.67985,4.823369,8
Aude,Chartier,female,Aude.Chartier.407@email.fr,AudeC407,AudeC407999,bisexual,Je suis un Américain. ,"geek,music,piercing",85_photo_112233.jpeg,1-19-1957,43.35425,5.374453,8
Donatien,Chevallier,male,Donatien.Chevallier.408@email.fr,DonatienC408,DonatienC408999,bisexual,Il est / C'est probable que ,"vegan,lazy",people-3230020_640.jpg,11-24-1955,43.28954,5.416482,7
Rolande,Lopez,female,Rolande.Lopez.409@email.fr,RolandeL409,RolandeL409999,female,Est-ce que Monsieur Smith est un Américain? ,"sea,music",17_photo_112233.jpeg,10-1-1959,48.796375,2.436479,2
Marthe,Dupuis,female,Marthe.Dupuis.410@email.fr,MartheD410,MartheD410999,female,Je n'en veux pas. ,"friends,tv,sea",102_photo_112233.jpeg,4-3-2004,49.016073,2.208772,8
Emeline,Jean,female,Emeline.Jean.411@email.fr,EmelineJ411,EmelineJ411999,female,J'allais quitter le restaurant quand mes amis sont arrivés. ,mountain,37_photo_112233.jpeg,6-11-1982,48.840505,2.537882,1
Sidonie,Guillon,female,Sidonie.Guillon.412@email.fr,SidonieG412,SidonieG412999,female,Je sors du travail à six heures. ,"tv,sea,vegan,mountain",104_photo_112233.jpeg,4-24-1963,45.704096,4.875507,3
Loup,Roussel,male,Loup.Roussel.413@email.fr,LoupR413,LoupR413999,female,S'il te plaît écris-le. ,"mountain,geek,sea,music",57_photo_112233.jpeg,9-8-1976,48.933888,2.334634,7
Corinne,Deschamps,female,Corinne.Deschamps.414@email.fr,CorinneD414,CorinneD414999,bisexual,Il est / C'est possible que ,"tv,mountain,vegan",16_photo_112233.jpeg,1-6-1984,48.982924,2.188869,10
Theirn,Monnier,male,Theirn.Monnier.415@email.fr,TheirnM415,TheirnM415999,bisexual,En ce qui me concerne ,"geek,friends,tv",jorn-schlonvogt-1202320_640.jpg,7-24-1954,48.796724,2.274,3
Armelle,Lacroix,female,Armelle.Lacroix.416@email.fr,ArmelleL416,ArmelleL416999,female,Maria a les cheveux couleur noisette. ,"sea,sport,friends,lazy",drama-1155445_640.jpg,7-2-1994,43.304097,5.397443,6
Michelle,Da,female,Michelle.Da.417@email.fr,MichelleD417,MichelleD417999,male,Je vais partir. ,"tv,mountain,piercing",london-5731175_640.jpg,10-8-1975,48.819779,2.350345,9
Rodolphe,Le,male,Rodolphe.Le.418@email.fr,RodolpheL418,RodolpheL418999,female,Il est lent. ,"sea,friends,piercing",acteur1.png,10-16-1975,48.95788,2.387799,3
Ouida,Perret,female,Ouida.Perret.419@email.fr,OuidaP419,OuidaP419999,bisexual,Selon moi ,"friends,piercing",woman-1462682_640.jpg,5-8-1953,45.682422,4.913125,4
Lucile,Tanguy,female,Lucile.Tanguy.420@email.fr,LucileT420,LucileT420999,female,D'après moi ,"lazy,sport,vegan",71_photo_112233.jpeg,8-7-1996,45.756515,4.83412,1
Claire,Benard,female,Claire.Benard.421@email.fr,ClaireB421,ClaireB421999,bisexual,J'ai deux sœurs. ,"geek,tv,sport,friends,lazy",girl-2491656_640.jpg,9-26-1953,43.2997,5.349114,6
Julienne,Leconte,female,Julienne.Leconte.422@email.fr,JulienneL422,JulienneL422999,male,Tout dépend de,"sport,friends",street-performers-870127_640.jpg,1-14-1960,48.732418,2.330983,7
Jean-marie,Bourgeois,male,Jean-marie.Bourgeois.423@email.fr,Jean-marieB423,Jean-marieB423999,female,Il est lent. ,"geek,sport,vegan",109_photo_112233.jpeg,4-12-1990,45.730599,4.790102,2
Margot,Besnard,female,Margot.Besnard.424@email.fr,MargotB424,MargotB424999,female,laisse-moi y réfléchir. ,"mountain,lazy,music,sport",32_photo_112233.jpeg,11-8-1983,43.260453,5.371619,4
Sylvaine,Fleury,female,Sylvaine.Fleury.425@email.fr,SylvaineF425,SylvaineF425999,female,C'est la première fois que je viens ici. ,"piercing,friends",51_photo_112233.jpeg,3-26-1962,48.984465,2.274347,7
Geoffroi,Jacob,male,Geoffroi.Jacob.426@email.fr,GeoffroiJ426,GeoffroiJ426999,bisexual,Je sors du travail à six heures. ,"tv,mountain,piercing",59_photo_112233.jpeg,9-6-1973,48.755129,2.597893,10
Denise,Gaillard,female,Denise.Gaillard.427@email.fr,DeniseG427,DeniseG427999,female,"Non, merci. ","tv,vegan,geek,sport",101_photo_112233.jpeg,2-16-1983,43.335092,5.351547,9
Florentin,Pons,male,Florentin.Pons.428@email.fr,FlorentinP428,FlorentinP428999,male,J'ai déjà mangé. ,"music,sport,mountain,friends",actor-2181844_640.jpg,8-16-2003,48.826904,2.229103,8
Laure,Bigot,female,Laure.Bigot.429@email.fr,LaureB429,LaureB429999,male,Combien voudrais-tu? ,"mountain,geek,tv",actor-6311507_640.jpg,4-6-2000,45.710381,4.820991,2
Anne,Blanc,female,Anne.Blanc.430@email.fr,AnneB430,AnneB430999,bisexual,Est-ce que ton frère est allé en France ? ,"tv,sea,lazy,vegan",105_photo_112233.jpeg,5-22-1959,48.860249,2.44545,8
Olivier,Gerard,male,Olivier.Gerard.431@email.fr,OlivierG431,OlivierG431999,male,S'il te plaît écris-le. ,"vegan,sea,tv",Jason_Statham_2018.jpg,8-22-1956,49.022192,2.150928,4
Nazaire,Guichard,male,Nazaire.Guichard.432@email.fr,NazaireG432,NazaireG432999,male,J'ai faim. ,lazy,41_photo_112233.jpeg,5-28-2004,43.275517,5.468899,8
Axelle,Roger,female,Axelle.Roger.433@email.fr,AxelleR433,AxelleR433999,female,Merci Mademoiselle. ,"vegan,lazy,sea",102_photo_112233.jpeg,10-20-1988,48.729654,2.526147,10
Christelle,Lacoste,female,Christelle.Lacoste.434@email.fr,ChristelleL434,ChristelleL434999,female,Elle est pauvre. ,"lazy,friends,tv,mountain,geek",16_photo_112233.jpeg,6-27-1957,48.755609,2.333219,4
Laurent,Tran,male,Laurent.Tran.435@email.fr,LaurentT435,LaurentT435999,male,"Si vous avez besoin de mon aide, faites-le-moi savoir s'il vous plaît. ","mountain,sport",allan-warren-872631_640.jpg,9-7-1952,45.699268,4.879837,8
Michel,Thierry,male,Michel.Thierry.436@email.fr,MichelT436,MichelT436999,female,"Non, c'est la première fois. ","sea,lazy,friends",brett-952573_640.jpg,1-7-1975,48.833511,2.317695,2
Jeanine,Neveu,female,Jeanine.Neveu.437@email.fr,JeanineN437,JeanineN437999,female,Quel âge as-tu? ,sport,woman-1462682_640.jpg,1-5-1985,48.768274,2.314465,6
Honorine,Merle,female,Honorine.Merle.438@email.fr,HonorineM438,HonorineM438999,male,C'est tout. ,geek,13_photo_112233.jpeg,12-1-1970,45.698255,4.807313,9
Marie,Leduc,female,Marie.Leduc.439@email.fr,MarieL439,MarieL439999,male,Travailles-tu demain? ,friends,101_photo_112233.jpeg,3-20-1998,43.295405,5.433052,6
Dianne,Martel,female,Dianne.Martel.440@email.fr,DianneM440,DianneM440999,female,Comment va le travail? ,piercing,people-3209886_640.jpg,8-23-1955,45.714082,4.946295,6
Doriane,Robin,female,Doriane.Robin.441@email.fr,DorianeR441,DorianeR441999,male,En ce qui me concerne ,"sea,geek,music,mountain",woman-7186987_640.jpg,6-14-2000,48.739506,2.364345,2
Paulette,Godard,female,Paulette.Godard.442@email.fr,PauletteG442,PauletteG442999,bisexual,Est-ce que vous vendez des médicaments? (magasin) ,sea,93_photo_112233.jpeg,2-6-1995,43.310628,5.370293,4
Lucien,Bourgeois,male,Lucien.Bourgeois.443@email.fr,LucienB443,LucienB443999,female,Arrête! ,"sport,vegan,tv,sea",portrait-3241737_640.jpg,11-8-1990,45.792201,4.757203,8
Gwenaelle,Carlier,female,Gwenaelle.Carlier.444@email.fr,GwenaelleC444,GwenaelleC444999,bisexual,Elle est faible ,"mountain,geek",85_photo_112233.jpeg,8-10-1974,43.318622,5.426921,6
Georgine,Rey,female,Georgine.Rey.445@email.fr,GeorgineR445,GeorgineR445999,female,Je veux seulement un en-cas. ,"sea,tv,geek,sport",marilyn-monroe-555603_640.jpg,4-21-1997,45.746951,4.947178,3
Ouida,Guyot,female,Ouida.Guyot.446@email.fr,OuidaG446,OuidaG446999,female,Voudriez-vous prendre un message s'il vous plaît? ,"vegan,lazy",51_photo_112233.jpeg,11-10-1965,43.285404,5.404912,3
Jeannette,Millet,female,Jeannette.Millet.447@email.fr,JeannetteM447,JeannetteM447999,bisexual,Quel est votre nom de famille ? ,"piercing,sea,lazy,mountain,friends",61_photo_112233.jpeg,7-9-1971,43.282818,5.401397,3
Corin,Dubois,male,Corin.Dubois.448@email.fr,CorinD448,CorinD448999,female,Elle est forte. ,"sea,friends,geek,music",103_photo_112233.jpeg,2-13-1982,48.913617,2.361457,4
Marise,Neveu,female,Marise.Neveu.449@email.fr,MariseN449,MariseN449999,bisexual,Je t’emmènerai à l'arrêt de bus. ,"sport,sea,mountain",fashion-3057295_640.jpg,1-22-1964,45.723311,4.845148,2
Ambre,Vidal,female,Ambre.Vidal.450@email.fr,AmbreV450,AmbreV450999,bisexual,Je préférerais ne pas m'engager ,"geek,vegan",39_photo_112233.jpeg,7-25-1978,45.766154,4.972578,4
Anatole,Meunier,male,Anatole.Meunier.451@email.fr,AnatoleM451,AnatoleM451999,bisexual,Dis-moi. ,"sea,tv,lazy,geek,piercing",79_photo_112233.jpeg,11-23-1959,45.778208,4.825579,2
Perrine,Martel,female,Perrine.Martel.452@email.fr,PerrineM452,PerrineM452999,male,Peu importe. ,"lazy,sport",49_photo_112233.jpeg,12-24-1960,48.843758,2.45243,2
Yseult,Muller,female,Yseult.Muller.453@email.fr,YseultM453,YseultM453999,bisexual,Je n'en veux pas. ,"sport,sea,lazy",woman-7186987_640.jpg,3-7-1998,48.882101,2.600595,7
Armelle,Pons,female,Armelle.Pons.454@email.fr,ArmelleP454,ArmelleP454999,male,Est-ce que ça suffit? ,"vegan,friends",69_photo_112233.jpeg,5-22-1952,48.986366,2.507079,9
Pons,Dubois,male,Pons.Dubois.455@email.fr,PonsD455,PonsD455999,female,Est-ce que tu étudies français? ,"sport,tv,sea,music,lazy",97_photo_112233.jpeg,6-2-1977,45.773503,4.844669,4
Claudine,Chauvin,female,Claudine.Chauvin.456@email.fr,ClaudineC456,ClaudineC456999,bisexual,Il est très célèbre. ,"friends,sea",models-4277829_640.jpg,5-1-2000,48.767669,2.488933,8
Didier,Lacoste,male,Didier.Lacoste.457@email.fr,DidierL457,DidierL457999,male,Elle est jolie. ,"geek,piercing,music,sport,tv",india-7547363_640.jpg,4-1-1969,45.775084,4.814702,6
Mariette,Jacob,female,Mariette.Jacob.458@email.fr,MarietteJ458,MarietteJ458999,male,Il est sophistiqué. ,"sport,lazy,mountain,music,sea",20_photo_112233.jpeg,6-28-1998,45.744913,4.790978,5
Solange,Charpentier,female,Solange.Charpentier.459@email.fr,SolangeC459,SolangeC459999,male,Rien d'autre. ,"sea,lazy,sport,music",8_photo_112233.jpeg,4-14-1987,43.285184,5.439659,5
Franck,Potier,male,Franck.Potier.460@email.fr,FranckP460,FranckP460999,female,C'est plus long que deux kilomètres. ,"sea,sport,piercing",street-performers-870113_640.jpg,1-12-1963,43.319685,5.35794,4
Vespasien,Perrot,male,Vespasien.Perrot.461@email.fr,VespasienP461,VespasienP461999,male,Je ne vous entends pas. ,"music,sea,mountain",filmproduction-485518_640.jpg,1-10-1995,43.317511,5.385113,9
Georgine,Denis,female,Georgine.Denis.462@email.fr,GeorgineD462,GeorgineD462999,female,Bien sûr. ,"lazy,sport",35_photo_112233.jpeg,6-11-1971,48.761752,2.227691,2
Lucille,Baudry,female,Lucille.Baudry.463@email.fr,LucilleB463,LucilleB463999,bisexual,"Très bien, merci. ","mountain,piercing,friends,music,tv",63_photo_112233.jpeg,2-10-1994,43.308231,5.47734,7
Augustin,Besson,male,Augustin.Besson.464@email.fr,AugustinB464,AugustinB464999,bisexual,C'est trop. ,"friends,tv,sea,vegan",41_photo_112233.jpeg,10-8-1953,48.924909,2.056524,2
Aline,Albert,female,Aline.Albert.465@email.fr,AlineA465,AlineA465999,female,Il est lent. ,"sea,geek",39_photo_112233.jpeg,2-10-1955,43.317511,5.385113,8
Fernande,Riou,female,Fernande.Riou.466@email.fr,FernandeR466,FernandeR466999,female,C'est tout. ,"tv,sea,vegan",90_photo_112233.jpeg,4-13-1968,48.85934,2.122599,10
Yvonne,Hardy,female,Yvonne.Hardy.467@email.fr,YvonneH467,YvonneH467999,male,Maria a les cheveux couleur noisette. ,"geek,mountain,tv",90_photo_112233.jpeg,11-21-1956,49.022192,2.150928,3
Emmanuelle,Da,female,Emmanuelle.Da.468@email.fr,EmmanuelleD468,EmmanuelleD468999,female,Tu es belle. ,vegan,mask-4985280_640.jpg,7-4-1988,43.33614,5.354903,5
Armelle,Jourdan,female,Armelle.Jourdan.469@email.fr,ArmelleJ469,ArmelleJ469999,bisexual,Je ne suis pas à même de dire si ,"mountain,piercing,geek,sea",65_photo_112233.jpeg,12-17-1950,43.33966,5.410327,7
Aristide,Blanchet,male,Aristide.Blanchet.470@email.fr,AristideB470,AristideB470999,bisexual,Il est gentil. ,"vegan,geek,sea,tv,piercing",94_photo_112233.jpeg,10-8-1958,48.727697,2.504928,3
Pascaline,Rey,female,Pascaline.Rey.471@email.fr,PascalineR471,PascalineR471999,male,Est-ce que Monsieur Smith est un Américain? ,"sea,vegan,lazy",mask-4985280_640.jpg,10-22-1984,45.779563,4.765459,1
Julie,Fernandes,female,Julie.Fernandes.472@email.fr,JulieF472,JulieF472999,bisexual,J'ai perdu ma montre. ,"sea,geek,friends,piercing,tv",12_photo_112233.jpeg,6-10-1961,48.751051,2.263797,2
Laurentine,Fabre,female,Laurentine.Fabre.473@email.fr,LaurentineF473,LaurentineF473999,female,J'ai entendu parler de ,"mountain,geek",madame-tussauds-1720457_640.jpg,4-8-1958,43.351531,5.392342,5
Anatole,Pereira,male,Anatole.Pereira.474@email.fr,AnatoleP474,AnatoleP474999,female,"Je vais bien, et toi? ","vegan,sport",human-3094550_640.jpg,6-28-2002,48.843758,2.45243,8
Eustache,Lemoine,male,Eustache.Lemoine.475@email.fr,EustacheL475,EustacheL475999,female,Est-ce qu'il a neigé hier? ,"sport,tv,geek,friends,lazy",88_photo_112233.jpeg,2-5-1977,43.250455,5.427204,3
Julien,Costa,male,Julien.Costa.476@email.fr,JulienC476,JulienC476999,female,Je ne comprends pas. ,"mountain,lazy",personification-1508890_640.jpg,3-26-1961,43.269083,5.379428,1
Achille,Perrin,male,Achille.Perrin.477@email.fr,AchilleP477,AchilleP477999,male,Il est marrant. ,"sea,lazy,friends",2_photo_112233.jpeg,1-17-1999,48.799902,2.42978,5
Baptiste,Tran,male,Baptiste.Tran.478@email.fr,BaptisteT478,BaptisteT478999,female,Nous avons deux garçons et une fille. ,"friends,geek",53_photo_112233.jpeg,10-7-1991,45.768971,4.825925,5
Loic,Leduc,male,Loic.Leduc.479@email.fr,LoicL479,LoicL479999,female,J'ai froid. ,"geek,vegan",man-6342455_640.jpg,8-18-1960,43.270358,5.416959,3
Pierre,Gros,male,Pierre.Gros.480@email.fr,PierreG480,PierreG480999,female,Je t’emmènerai à l'arrêt de bus. ,"friends,sea",man-5757539_640.jpg,5-25-1999,48.948658,2.160908,5
Aristide,Fabre,male,Aristide.Fabre.481@email.fr,AristideF481,AristideF481999,female,Ce n'est pas vrai. ,"lazy,tv,sport",godfather-4292451_640.jpg,3-8-1966,48.809682,2.350214,4
Virginie,Raynaud,female,Virginie.Raynaud.482@email.fr,VirginieR482,VirginieR482999,female,Je reviendrai plus tard. ,piercing,36_photo_112233.jpeg,7-8-1970,43.349152,5.470164,2
Pascal,Riou,male,Pascal.Riou.483@email.fr,PascalR483,PascalR483999,male,Es-tu français? ,"mountain,friends,lazy",personification-1508890_640.jpg,10-6-1976,43.260563,5.375518,10
Urbain,Loiseau,male,Urbain.Loiseau.484@email.fr,UrbainL484,UrbainL484999,male,Il est grand. ,vegan,groucho-marx-male-1278137_640.jpg,9-3-1975,43.328766,5.354546,5
Arnaud,Fabre,male,Arnaud.Fabre.485@email.fr,ArnaudF485,ArnaudF485999,male,Dis-moi. ,"sea,sport,geek,mountain",95_photo_112233.jpeg,9-8-2001,45.733569,4.825221,8
Theirn,Ruiz,male,Theirn.Ruiz.486@email.fr,TheirnR486,TheirnR486999,female,J'allais quitter le restaurant quand mes amis sont arrivés. ,"lazy,sea,music,friends,piercing",smile-1221915_640.jpg,7-4-1958,45.782551,4.765977,9
Amaury,Picard,male,Amaury.Picard.487@email.fr,AmauryP487,AmauryP487999,female,Je ne me sens pas bien. ,"tv,sea,friends,music,geek",man-7291967_640.jpg,6-23-2003,48.836051,2.497296,5
Arnaud,Guillot,male,Arnaud.Guillot.488@email.fr,ArnaudG488,ArnaudG488999,female,Il est maigre. ,"tv,lazy",42_photo_112233.jpeg,5-27-1980,43.275489,5.442238,3
Luc,Marchal,male,Luc.Marchal.489@email.fr,LucM489,LucM489999,male,Je dois laver mes vêtements. ,"sport,music,tv,geek,piercing",29_photo_112233.jpeg,12-4-1998,48.809682,2.350214,10
Juliette,Descamps,female,Juliette.Descamps.490@email.fr,JulietteD490,JulietteD490999,bisexual,Il est grand. ,"sport,vegan,geek",mask-4985280_640.jpg,1-3-1965,43.346611,5.3953,2
Gwenaelle,Morin,female,Gwenaelle.Morin.491@email.fr,GwenaelleM491,GwenaelleM491999,female,Elle est jolie. ,"lazy,geek,sea",people-1285245_640.jpg,4-2-1961,45.756515,4.83412,10
Gustave,Barbe,male,Gustave.Barbe.492@email.fr,GustaveB492,GustaveB492999,male,Je suis content. ,"music,mountain,geek,vegan,sport",57_photo_112233.jpeg,3-16-1984,48.811052,2.536655,1
Mignon,Blanc,female,Mignon.Blanc.493@email.fr,MignonB493,MignonB493999,female,J'ai l'idée que ,"mountain,sport",104_photo_112233.jpeg,8-7-2001,48.747756,2.129524,2
Louis,Payet,male,Louis.Payet.494@email.fr,LouisP494,LouisP494999,bisexual,Les affaires vont bien. ,"sea,geek,vegan,piercing",model-5176707_640.jpg,10-17-2001,48.953947,2.371311,3
Aline,Lacroix,female,Aline.Lacroix.495@email.fr,AlineL495,AlineL495999,bisexual,Je préférerais ne pas (avoir à) me prononcer sur ,"tv,sport,mountain",106_photo_112233.jpeg,7-3-1972,45.697736,4.857225,3
Adrien,Maillard,male,Adrien.Maillard.496@email.fr,AdrienM496,AdrienM496999,female,As-tu reçu mon e-mail? ,"tv,mountain",man-7971966_640.jpg,9-5-1983,48.982924,2.188869,3
Florianne,Andre,female,Florianne.Andre.497@email.fr,FlorianneA497,FlorianneA497999,male,Juste un peu. ,"sea,sport,geek,mountain",1_photo_112233.jpeg,8-9-1953,43.277737,5.462304,4
Felicienne,Berthelot,female,Felicienne.Berthelot.498@email.fr,FelicienneB498,FelicienneB498999,male,J'ai perdu ma montre. ,"tv,mountain,geek",51_photo_112233.jpeg,6-18-2002,43.29293,5.349314,8
Claire,Leduc,female,Claire.Leduc.499@email.fr,ClaireL499,ClaireL499999,female,Qu'est-ce que tu étudies ? ,"mountain,geek",marilyn-monroe-555603_640.jpg,8-11-1979,43.344274,5.38631,1
Cesaire,Tessier,male,Cesaire.Tessier.500@email.fr,CesaireT500,CesaireT500999,female,Est-ce que tu vas souvent à Paris? ,"piercing,sea,lazy,mountain,friends",dracula-theater-7209931_640.jpg,1-2-1955,48.899522,2.23306,6
Aude,Leclerc,female,Aude.Leclerc.501@email.fr,AudeL501,AudeL501999,bisexual,J'ai déjà mangé. ,"geek,sea,lazy,mountain,sport",71_photo_112233.jpeg,2-15-1988,43.260991,5.458214,10
Marceline,Guillon,female,Marceline.Guillon.502@email.fr,MarcelineG502,MarcelineG502999,female,Quel est votre nom de famille ? ,"sea,geek,piercing,music,sport",26_photo_112233.jpeg,4-9-1980,48.923469,2.474364,9
Juliette,Bailly,female,Juliette.Bailly.503@email.fr,JulietteB503,JulietteB503999,bisexual,Je n'ai pas d'opinion bien précise à / arrêtée sur ,"music,sport,geek",16_photo_112233.jpeg,6-5-1999,43.296338,5.45355,1
Vienne,Briand,female,Vienne.Briand.504@email.fr,VienneB504,VienneB504999,male,Chicago est très différente de Boston. ,"sea,geek",72_photo_112233.jpeg,3-28-1956,48.845618,2.445421,9
Zephyrine,Guillon,female,Zephyrine.Guillon.505@email.fr,ZephyrineG505,ZephyrineG505999,female,Je fais une taille huit. ,"geek,mountain,music",49_photo_112233.jpeg,9-8-1950,43.299023,5.459824,3
Gabrielle,Morel,female,Gabrielle.Morel.506@email.fr,GabrielleM506,GabrielleM506999,male,Je paierai. ,"vegan,tv",actor-542726_640.jpg,12-22-1990,45.773503,4.844669,6
Ouida,Vincent,female,Ouida.Vincent.507@email.fr,OuidaV507,OuidaV507999,female,Je n'en veux pas. ,sport,marilyn-monroe-555603_640.jpg,4-8-1990,43.26532,5.468073,8
Jeanine,Marty,female,Jeanine.Marty.508@email.fr,JeanineM508,JeanineM508999,male,C'est une question de point de vue. ,"sea,vegan,piercing,music",90_photo_112233.jpeg,12-11-1959,48.843041,2.477502,2
Armand,Bazin,male,Armand.Bazin.509@email.fr,ArmandB509,ArmandB509999,female,Je voudrais connaître / avoir votre réaction face à ,"tv,music",80_photo_112233.jpeg,3-23-1966,48.970254,2.100345,9
Georgine,Charpentier,female,Georgine.Charpentier.510@email.fr,GeorgineC510,GeorgineC510999,female,Il est gentil. ,"lazy,sport",actors-1851317_640.jpg,9-27-1985,48.734599,2.564343,8
Ouida,Guillon,female,Ouida.Guillon.511@email.fr,OuidaG511,OuidaG511999,female,Je t'appellerai vendredi. ,"sea,geek",51_photo_112233.jpeg,5-6-1980,45.775084,4.814702,3
Lothaire,Jacob,male,Lothaire.Jacob.512@email.fr,LothaireJ512,LothaireJ512999,male,Vraiment? ,"mountain,music,friends,piercing",66_photo_112233.jpeg,1-23-1963,45.758312,4.945791,3
Jacinthe,Blanchard,female,Jacinthe.Blanchard.513@email.fr,JacintheB513,JacintheB513999,male,Pour ma part ,"piercing,lazy,sport",44_photo_112233.jpeg,7-22-1999,43.278579,5.373577,1
Gervais,Millet,male,Gervais.Millet.514@email.fr,GervaisM514,GervaisM514999,bisexual,C'est une question de point de vue. ,vegan,23_photo_112233.jpeg,2-12-1999,48.984299,2.600143,2
Nathalie,Goncalves,female,Nathalie.Goncalves.515@email.fr,NathalieG515,NathalieG515999,bisexual,Ce n'est pas vrai. ,"lazy,sea,sport,geek",actor-6210338_640.jpg,1-23-2004,43.299206,5.473034,8
Madeline,Buisson,female,Madeline.Buisson.516@email.fr,MadelineB516,MadelineB516999,bisexual,Il a les cheveux raides. ,"friends,sea",actress-825670_640.jpg,7-24-1991,45.778208,4.825579,6
Patrice,Boucher,male,Patrice.Boucher.517@email.fr,PatriceB517,PatriceB517999,female,Est-ce que tu en as un autre? ,"piercing,geek",yoga-day-4329896_640.jpg,12-1-1957,48.992173,2.108017,10
Gwenaelle,Levy,female,Gwenaelle.Levy.518@email.fr,GwenaelleL518,GwenaelleL518999,bisexual,Il est / C'est injuste que ,"sea,sport,piercing",65_photo_112233.jpeg,7-21-1978,48.740054,2.422778,2
Christine,Foucher,female,Christine.Foucher.519@email.fr,ChristineF519,ChristineF519999,female,Comment t'appelles-tu ? ,"music,sea,mountain",32_photo_112233.jpeg,12-7-1972,48.809226,2.094581,10
Vienne,Costa,female,Vienne.Costa.520@email.fr,VienneC520,VienneC520999,male,Je suis un Américain. ,"mountain,vegan,friends",girl-2491656_640.jpg,2-26-1951,45.728294,4.934095,1
Monique,Bigot,female,Monique.Bigot.521@email.fr,MoniqueB521,MoniqueB521999,female,Je ne parle pas très bien. ,"friends,vegan,lazy",girl-2491656_640.jpg,1-3-1967,48.910595,2.057638,4
Ghislaine,Delorme,female,Ghislaine.Delorme.522@email.fr,GhislaineD522,GhislaineD522999,bisexual,Je ne suis pas encore prêt. ,"sea,vegan",people-3209886_640.jpg,9-24-1989,45.710909,4.910618,1
Adrien,Pons,male,Adrien.Pons.523@email.fr,AdrienP523,AdrienP523999,male,Est-ce que vous savez où il y a un magasin qui vend des serviettes? ,"lazy,vegan,music",brett-952561_640.jpg,7-3-1979,48.872927,2.474533,10
Angeline,Renaud,female,Angeline.Renaud.524@email.fr,AngelineR524,AngelineR524999,female,Merci pour ton aide. ,"mountain,vegan,sea,music,tv",67_photo_112233.jpeg,12-24-1953,43.304097,5.397443,10
Mathilde,Godard,female,Mathilde.Godard.525@email.fr,MathildeG525,MathildeG525999,male,Rien d'autre. ,tv,madame-tussauds-1720457_640.jpg,5-24-1955,48.909311,2.576504,4
Gaetane,Perrot,female,Gaetane.Perrot.526@email.fr,GaetaneP526,GaetaneP526999,female,Je ne suis pas à même de dire si ,vegan,london-5731175_640.jpg,8-1-1998,45.698255,4.807313,2
Gwenaelle,Goncalves,female,Gwenaelle.Goncalves.527@email.fr,GwenaelleG527,GwenaelleG527999,female,Je t'aime. ,music,27_photo_112233.jpeg,2-1-1957,48.785249,2.058685,3
Micheline,Roche,female,Micheline.Roche.528@email.fr,MichelineR528,MichelineR528999,female,Je paierai. ,sea,street-performers-870119_640.jpg,9-17-1982,48.8616,2.470084,4
Emmanuelle,Ollivier,female,Emmanuelle.Ollivier.529@email.fr,EmmanuelleO529,EmmanuelleO529999,female,Il est sophistiqué. ,"music,piercing,friends",8_photo_112233.jpeg,8-18-1980,43.344166,5.355783,4
Justine,Lebrun,female,Justine.Lebrun.530@email.fr,JustineL530,JustineL530999,bisexual,Mon fils étudie l'informatique. ,"sea,geek,lazy",woman-1462686_640.jpg,9-18-1998,45.729028,4.801476,8
Christelle,Bourgeois,female,Christelle.Bourgeois.531@email.fr,ChristelleB531,ChristelleB531999,bisexual,Peu importe. ,"music,piercing,geek,vegan",portrait-3359403_640.jpg,1-26-1997,43.269229,5.393568,5
Maximilienne,Marchal,female,Maximilienne.Marchal.532@email.fr,MaximilienneM532,MaximilienneM532999,bisexual,Est-ce que tu es libre ce soir? ,"friends,vegan,lazy",69_photo_112233.jpeg,12-16-1972,45.69255,4.858803,7
Gervais,Garnier,male,Gervais.Garnier.533@email.fr,GervaisG533,GervaisG533999,female,Il est sophistiqué. ,"mountain,vegan,lazy,friends",model-5176707_640.jpg,12-28-1966,43.302705,5.41482,8
Marthe,Langlois,female,Marthe.Langlois.534@email.fr,MartheL534,MartheL534999,male,Je n'ai pas peur. ,piercing,44_photo_112233.jpeg,12-8-1998,45.734561,4.778282,8
Georges,Potier,male,Georges.Potier.535@email.fr,GeorgesP535,GeorgesP535999,female,Je dois dire que ,mountain,shakespeare-4959130_640.jpg,2-3-1993,48.838004,2.569699,5
Claudette,Andre,female,Claudette.Andre.536@email.fr,ClaudetteA536,ClaudetteA536999,female,Je fais un mètre quatre-vingt. ,sport,106_photo_112233.jpeg,5-20-1953,45.697112,4.772067,10
Paulette,Weber,female,Paulette.Weber.537@email.fr,PauletteW537,PauletteW537999,male,Vos enfants sont très bien élevés. ,geek,89_photo_112233.jpeg,2-7-1961,43.269404,5.381133,9
Lisette,Charpentier,female,Lisette.Charpentier.538@email.fr,LisetteC538,LisetteC538999,female,Je suis certain que ,"music,sea",51_photo_112233.jpeg,4-5-1968,45.737696,4.896862,2
Maximilienne,Fontaine,female,Maximilienne.Fontaine.539@email.fr,MaximilienneF539,MaximilienneF539999,female,C'est dommage. ,"sea,vegan,friends,geek",mask-4985280_640.jpg,9-24-1954,48.912395,2.573989,6
Gilles,Lefort,male,Gilles.Lefort.540@email.fr,GillesL540,GillesL540999,bisexual,Lisa a les cheveux longs. ,piercing,82_photo_112233.jpeg,12-6-1981,48.938712,2.055595,4
Jeanne,Ferrand,female,Jeanne.Ferrand.541@email.fr,JeanneF541,JeanneF541999,female,Peter a les cheveux noirs. ,tv,cafe-1699128_640.jpg,5-16-1970,45.722946,4.941394,9
Maximilienne,Verdier,female,Maximilienne.Verdier.542@email.fr,MaximilienneV542,MaximilienneV542999,female,Elle a les cheveux mi-longs. ,"geek,sea",20_photo_112233.jpeg,4-21-1956,48.906036,2.331572,10
Romain,Marty,male,Romain.Marty.543@email.fr,RomainM543,RomainM543999,female,Je suis certain que ,"sea,vegan",66_photo_112233.jpeg,8-26-1964,48.877484,2.06783,6
Gwenaelle,Perrot,female,Gwenaelle.Perrot.544@email.fr,GwenaelleP544,GwenaelleP544999,male,Juste un peu. ,"tv,lazy",model-3362457_640.jpg,4-26-1969,43.326199,5.433845,5
Lunete,Perrier,female,Lunete.Perrier.545@email.fr,LuneteP545,LuneteP545999,female,J'espère que vous ferez un bon voyage. ,"vegan,tv,lazy",101_photo_112233.jpeg,8-20-1977,43.266159,5.430929,10
Urbain,Hamon,male,Urbain.Hamon.546@email.fr,UrbainH546,UrbainH546999,female,Je crains qu'il ne soit ,"sea,friends,geek,music",mountain-5823822_640.jpg,11-11-1983,48.82072,2.275406,5
Henri,Tessier,male,Henri.Tessier.547@email.fr,HenriT547,HenriT547999,bisexual,"Non, merci. ",piercing,83_photo_112233.jpeg,5-13-1971,43.318743,5.427525,4
Paulette,Roche,female,Paulette.Roche.548@email.fr,PauletteR548,PauletteR548999,female,Que pensez-vous de ,"lazy,vegan,mountain,friends,music",people-3209886_640.jpg,6-17-1956,45.693368,4.767483,7
Julienne,Gerard,female,Julienne.Gerard.549@email.fr,JulienneG549,JulienneG549999,female,Combien d'enfants est-ce tu as? ,lazy,3_photo_112233.jpeg,8-24-1973,48.95868,2.431686,1
Victorine,Leveque,female,Victorine.Leveque.550@email.fr,VictorineL550,VictorineL550999,female,À mon avis ,"music,piercing,sea",35_photo_112233.jpeg,9-28-1979,48.85934,2.122599,2
Christelle,Michel,female,Christelle.Michel.551@email.fr,ChristelleM551,ChristelleM551999,female,Où est-ce que tu habites ? ,"tv,mountain,geek,lazy",105_photo_112233.jpeg,2-11-1962,48.771491,2.366603,5
Lucile,Bouchet,female,Lucile.Bouchet.552@email.fr,LucileB552,LucileB552999,male,Il est / C'est évident que ,"lazy,sea,music,friends,piercing",people-3209886_640.jpg,5-3-1971,45.787581,4.803011,3
