prenom,nom,sexe,email,pseudo,password,orientation,bio,interests,profile_picture,date_birth,latitude,longitude,fame_rating
malin,Joseph,female,malin.Joseph.1@email.fr,malinJ1,malinJ1999,female,C'est ma mère. ,vegan geek piercing sea mountain sport tv lazy,shakespeare-4959130_640.jpg,10-28-1983,48.9405970000008,2.46736800000001,10
euclid,Marion,male,euclid.Marion.2@email.fr,euclidM2,euclidM2999,bisexual,Je n'ai pas d'opinion bien précise à / arrêtée sur ,vegan,businessman-6248246_640.jpg,12-1-1955,48.8255970000003,2.294868,5
killian,Grondin,male,killian.Grondin.3@email.fr,killianG3,killianG3999,female,J'ai besoin de changer de vêtements. ,vegan geek piercing sea mountain sport tv,fashion-3057295_640.jpg,4-14-1976,48.8760970000005,2.37061800000001,9
jacinthe,Neveu,female,jacinthe.Neveu.4@email.fr,jacintheN4,jacintheN4999,male,Personnellement ,vegan geek piercing sea mountain sport tv lazy music friends fidelity,head-shoot-1542339_640.jpg,8-15-1985,48.777097,2.222118,6
nanaea,Fournier,female,nanaea.Fournier.5@email.fr,nanaeaF5,nanaeaF5999,bisexual,Il est / C'est probable que ,vegan geek piercing sea mountain sport tv lazy music friends,woman-1462683_640.jpg,8-18-1965,48.9585970000009,2.49436800000001,10
fritzi,Berthelot,female,fritzi.Berthelot.6@email.fr,fritziB6,fritziB6999,female,Il est / C'est difficile de ,vegan geek piercing,groucho-marx-male-1278137_640.jpg,4-15-1966,48.8800970000005,2.37661800000001,3
anneliese,Klein,female,anneliese.Klein.7@email.fr,annelieseK7,annelieseK7999,female,Je n'ai jamais vraiment réfléchi à ,vegan geek piercing,london-5731175_640.jpg,2-2-1984,48.8665970000005,2.35636800000001,8
felicity,Martin,female,felicity.Martin.8@email.fr,felicityM8,felicityM8999,female,J'ai faim. ,vegan geek piercing sea mountain sport tv lazy music friends,charles-chaplin-3521070_640.jpg,3-16-1956,48.9545970000009,2.48836800000001,6
appius,Da,male,appius.Da.9@email.fr,appiusD9,appiusD9999,female,Je pensais que les vêtements étaient plus chers. ,vegan,man-4134645_640.jpg,9-2-1994,48.9030970000006,2.41111800000001,5
perceval,Delmas,male,perceval.Delmas.10@email.fr,percevalD10,percevalD10999,bisexual,Ce n'est pas vrai. ,vegan geek piercing sea mountain sport tv lazy music friends,model-5176707_640.jpg,1-9-1964,48.9600970000009,2.49661800000001,10
nasira,Perret,female,nasira.Perret.11@email.fr,nasiraP11,nasiraP11999,bisexual,Est-ce que tu en as un autre? ,vegan geek piercing sea mountain sport tv,groucho-marx-male-1278137_640.jpg,10-26-1980,48.769597,2.210868,4
jamaal,Buisson,male,jamaal.Buisson.12@email.fr,jamaalB12,jamaalB12999,female,Je suis allergique aux fruits de mer. ,vegan geek piercing sea mountain sport tv lazy music,mount-saint-helens-4395977_640.jpg,2-5-1967,48.9060970000007,2.41561800000001,4
haifa,Chauveau,female,haifa.Chauveau.13@email.fr,haifaC13,haifaC13999,female,Laisse-moi vérifier. ,vegan geek piercing sea mountain sport tv lazy music,mask-4985280_640.jpg,5-10-1967,48.9360970000008,2.46061800000001,10
grisha,Lucas,male,grisha.Lucas.14@email.fr,grishaL14,grishaL14999,bisexual,Comment va le travail? ,vegan geek piercing sea mountain,marilyn-monroe-555603_640.jpg,12-27-1950,48.9560970000009,2.49061800000001,2
gershom,Gonzalez,male,gershom.Gonzalez.15@email.fr,gershomG15,gershomG15999,female,Ce n'est pas très cher. ,vegan geek piercing sea,head-shoot-1542339_640.jpg,1-14-1980,48.9585970000009,2.49436800000001,9
pietari,Robin,male,pietari.Robin.16@email.fr,pietariR16,pietariR16999,bisexual,C'est bon. ,vegan geek piercing sea mountain sport tv,brad-pitt-164880_640.jpg,12-15-1973,48.8480970000004,2.328618,3
bearach,Martinez,male,bearach.Martinez.17@email.fr,bearachM17,bearachM17999,female,Ma fille est ici. ,vegan geek piercing,people-5987395_640.jpg,11-1-1982,48.8785970000005,2.37436800000001,9
kenny,Bouvier,male,kenny.Bouvier.18@email.fr,kennyB18,kennyB18999,male,Est-ce que tu étudies français? ,vegan geek piercing sea mountain sport tv lazy music friends fidelity,man-6342455_640.jpg,12-14-1970,48.8015970000002,2.258868,9
ayelet,Lambert,female,ayelet.Lambert.19@email.fr,ayeletL19,ayeletL19999,male,Tu es belle. ,vegan geek piercing sea,drama-1155445_640.jpg,4-7-1988,48.8535970000004,2.336868,4
aias,Fournier,male,aias.Fournier.20@email.fr,aiasF20,aiasF20999,female,Je ne suis pas encore prêt. ,vegan geek piercing sea mountain sport tv lazy,man-210379_640.jpg,2-19-1995,48.8800970000005,2.37661800000001,10
dorothea,Courtois,female,dorothea.Courtois.21@email.fr,dorotheaC21,dorotheaC21999,bisexual,Il est / C'est probable que ,vegan,fashion-3057295_640.jpg,12-9-1954,48.8260970000003,2.295618,7
lavender,Bourdon,female,lavender.Bourdon.22@email.fr,lavenderB22,lavenderB22999,bisexual,Je ne me le suis jamais demandé. ,vegan geek piercing sea mountain sport tv lazy music friends,filmproduction-485518_640.jpg,9-17-1979,48.9005970000006,2.40736800000001,7
diego,Descamps,male,diego.Descamps.23@email.fr,diegoD23,diegoD23999,female,Il est marrant. ,vegan geek piercing sea mountain sport tv lazy,surprise-5321849_640.jpg,6-4-2000,48.8825970000005,2.38036800000001,10
arista,Normand,female,arista.Normand.24@email.fr,aristaN24,aristaN24999,male,Tu es très sympa. ,vegan geek piercing sea,woman-7186987_640.jpg,1-15-2004,48.9105970000007,2.42236800000001,8
zusman,Vidal,male,zusman.Vidal.25@email.fr,zusmanV25,zusmanV25999,bisexual,À mon avis ,vegan geek piercing sea mountain sport tv lazy,girl-2491656_640.jpg,7-28-1950,48.9255970000008,2.44486800000001,9
sankar,Andre,male,sankar.Andre.26@email.fr,sankarA26,sankarA26999,female,Oli est blonde. ,vegan geek piercing sea mountain sport tv lazy music,man-6342452_640.jpg,8-7-1994,48.8370970000003,2.312118,9
antoinette,Langlois,female,antoinette.Langlois.27@email.fr,antoinetteL27,antoinetteL27999,female,Il est patient. ,vegan geek piercing sea mountain sport tv lazy music,mount-saint-helens-4395977_640.jpg,5-3-1992,48.769597,2.210868,3
nahum,Vallet,male,nahum.Vallet.28@email.fr,nahumV28,nahumV28999,bisexual,Je ne peux pas m'empêcher de penser que ,vegan geek piercing,fashion-4746903_640.jpg,10-1-1989,48.7920970000001,2.244618,10
varg,Gallet,male,varg.Gallet.29@email.fr,vargG29,vargG29999,bisexual,A quelle école est-ce que tu es allé? ,vegan geek,actor-63082_640.jpg,3-24-1952,48.9120970000007,2.42461800000001,7
bonnie,Lebon,female,bonnie.Lebon.30@email.fr,bonnieL30,bonnieL30999,female,Est-ce que tu as pris tes médicaments? ,vegan geek piercing sea mountain sport tv lazy music friends fidelity,male-model-7686778_640.jpg,1-2-1953,48.8960970000006,2.40061800000001,6
nea,Hardy,female,nea.Hardy.31@email.fr,neaH31,neaH31999,male,Comment t'appelles-tu ? ,vegan geek,woman-6002459_640.jpg,1-8-2004,48.9260970000008,2.44561800000001,4
melody,Mallet,female,melody.Mallet.32@email.fr,melodyM32,melodyM32999,female,J'ai trente-deux ans. , ,backstage-951903_640.jpg,4-3-1995,48.8990970000006,2.40511800000001,7
olabode,Cordier,male,olabode.Cordier.33@email.fr,olabodeC33,olabodeC33999,bisexual,A ce soir. ,vegan geek piercing sea mountain sport,Jason_Statham_2018.jpg,3-23-1995,48.9485970000009,2.47936800000001,2
eliana,Bruneau,female,eliana.Bruneau.34@email.fr,elianaB34,elianaB34999,male,Tente ta chance. ,vegan geek piercing,man-3252165_640.jpg,12-23-1987,48.8275970000003,2.297868,8
sekel,Voisin,male,sekel.Voisin.35@email.fr,sekelV35,sekelV35999,male,Je préférerais ne pas m'engager ,vegan geek piercing sea mountain,man-5757539_640.jpg,5-19-1959,48.970597000001,2.51236800000001,2
platon,Masson,male,platon.Masson.36@email.fr,platonM36,platonM36999,female,On dit que ,vegan geek piercing,personification-1508890_640.jpg,10-20-1959,48.9135970000007,2.42686800000001,2
federigo,Guillon,male,federigo.Guillon.37@email.fr,federigoG37,federigoG37999,female,Je fais une taille huit. ,vegan geek piercing sea,gregory-peck-90779_640.jpg,7-1-1989,48.969097000001,2.51011800000001,5
sheherazade,Lombard,female,sheherazade.Lombard.38@email.fr,sheherazadeL38,sheherazadeL38999,bisexual,Je considère que ,vegan,man-4134645_640.jpg,3-17-1952,48.8495970000004,2.330868,3
khamisi,Normand,male,khamisi.Normand.39@email.fr,khamisiN39,khamisiN39999,male,Rien d'autre. ,vegan geek piercing sea mountain sport tv lazy music friends,snoop-dog-81879_640.jpg,6-21-1991,48.7905970000001,2.242368,2
edwina,Voisin,female,edwina.Voisin.40@email.fr,edwinaV40,edwinaV40999,male,Ce sont les mêmes. ,vegan geek piercing sea mountain sport tv lazy music friends fidelity,woman-1462682_640.jpg,11-26-1965,48.776097,2.220618,7
wybert,Rey,male,wybert.Rey.41@email.fr,wybertR41,wybertR41999,female,J'aimerais connaître / avoir votre réaction face à ,vegan,male-model-7686778_640.jpg,11-28-1980,48.8295970000003,2.300868,8
ekwueme,Launay,male,ekwueme.Launay.42@email.fr,ekwuemeL42,ekwuemeL42999,male,Merci. ,vegan geek,man-6342455_640.jpg,1-19-1990,48.7940970000001,2.247618,8
alter,Raymond,male,alter.Raymond.43@email.fr,alterR43,alterR43999,male,Quels sont tes passe-temps ? ,vegan geek piercing sea mountain sport tv lazy,model-5176707_640.jpg,11-3-1968,48.9395970000008,2.46586800000001,3
monroe,Ferreira,male,monroe.Ferreira.44@email.fr,monroeF44,monroeF44999,bisexual,"Je vais bien, et toi? ", ,actress-825670_640.jpg,11-20-1984,48.985097000001,2.53411800000001,1
isandro,Bonnet,male,isandro.Bonnet.45@email.fr,isandroB45,isandroB45999,bisexual,Il a de l‘humour. ,vegan geek piercing,groucho-marx-male-1278137_640.jpg,1-23-1957,48.9250970000007,2.44411800000001,4
aonghas,Robin,male,aonghas.Robin.46@email.fr,aonghasR46,aonghasR46999,male,C'est Monsieur Smith. ,vegan geek piercing sea mountain sport,Jason_Statham_2018.jpg,8-12-1951,48.8070970000002,2.267118,9
riaz,Gros,male,riaz.Gros.47@email.fr,riazG47,riazG47999,bisexual,Merci pour tout. ,vegan,acteur1.png,5-9-1968,48.8015970000002,2.258868,8
johanna,Lebreton,female,johanna.Lebreton.48@email.fr,johannaL48,johannaL48999,female,Elle est courageuse. ,vegan geek,india-7547363_640.jpg,11-17-1967,48.9255970000008,2.44486800000001,9
pepe,Simon,male,pepe.Simon.49@email.fr,pepeS49,pepeS49999,female,C'est dommage. ,vegan geek piercing,aamir-tameen-867782_640.jpg,3-20-1958,48.9030970000006,2.41111800000001,2
keely,Breton,female,keely.Breton.50@email.fr,keelyB50,keelyB50999,female,Pour ma part ,vegan geek piercing sea mountain sport tv lazy music,ramayana-festival-1807516_640.jpg,7-22-1972,48.8165970000002,2.281368,4
anatole,Muller,male,anatole.Muller.51@email.fr,anatoleM51,anatoleM51999,male,Comment t'appelles-tu ? ,vegan geek piercing sea mountain sport,woman-6002459_640.jpg,5-26-1973,48.972097000001,2.51461800000001,8
andreu,Dupont,male,andreu.Dupont.52@email.fr,andreuD52,andreuD52999,bisexual,J'ai soif. ,vegan,gregory-peck-90779_640.jpg,2-9-1974,48.9465970000009,2.47636800000001,1
ailsa,Aubry,female,ailsa.Aubry.53@email.fr,ailsaA53,ailsaA53999,bisexual,Elle est rapide. ,vegan geek piercing sea mountain,actor-6311507_640.jpg,2-21-1950,48.8535970000004,2.336868,7
ajit,Faure,male,ajit.Faure.54@email.fr,ajitF54,ajitF54999,female,Quel films est-ce que tu préfères ? ,vegan geek piercing,gregory-peck-90779_640.jpg,7-12-1989,48.8365970000003,2.311368,9
hendrik,Vidal,male,hendrik.Vidal.55@email.fr,hendrikV55,hendrikV55999,male,Il est maigre. ,vegan geek piercing sea mountain sport tv lazy music friends,shakespeare-4959130_640.jpg,6-15-1979,48.8955970000006,2.39986800000001,5
rodney,Bruneau,male,rodney.Bruneau.56@email.fr,rodneyB56,rodneyB56999,female,Tout le monde le sais. ,vegan geek piercing sea mountain sport tv lazy music friends,girl-2491656_640.jpg,11-7-2004,48.9615970000009,2.49886800000001,4
lincoln,Thierry,male,lincoln.Thierry.57@email.fr,lincolnT57,lincolnT57999,male,Il est lent. ,vegan geek,woman-1462683_640.jpg,2-3-1990,48.9380970000008,2.46361800000001,10
rik,Bousquet,male,rik.Bousquet.58@email.fr,rikB58,rikB58999,bisexual,Tu es très intelligent. ,vegan,portrait-3204879_640.jpg,12-2-1991,48.9515970000009,2.48386800000001,1
shane,Georges,male,shane.Georges.59@email.fr,shaneG59,shaneG59999,female,Elle est calme. ,vegan,brett-952579_640.jpg,7-1-1966,48.8050970000002,2.264118,1
tatton,Pottier,male,tatton.Pottier.60@email.fr,tattonP60,tattonP60999,bisexual,Quelle est votre attitude à l'égard de ,vegan geek piercing sea,portrait-3241737_640.jpg,7-23-1991,48.9255970000008,2.44486800000001,7
harmonie,Guyon,female,harmonie.Guyon.61@email.fr,harmonieG61,harmonieG61999,female,Je fais une taille huit. ,vegan geek piercing sea,street-performers-870113_640.jpg,5-7-1990,48.8835970000006,2.38186800000001,9
rosalba,Hamon,female,rosalba.Hamon.62@email.fr,rosalbaH62,rosalbaH62999,male,Il est / C'est sûr que ,vegan geek piercing,fright-7989944_640.jpg,6-3-1958,48.8745970000005,2.36836800000001,8
corin,Salmon,male,corin.Salmon.63@email.fr,corinS63,corinS63999,male,Je vais partir. ,vegan,personification-1508890_640.jpg,5-21-1971,48.8705970000005,2.36236800000001,4
deodan,Guillon,male,deodan.Guillon.64@email.fr,deodanG64,deodanG64999,bisexual,Mon père y est allé. ,vegan geek piercing sea mountain sport,mount-saint-helens-4395977_640.jpg,9-2-1988,48.9505970000009,2.48236800000001,3
konstantin,Reynaud,male,konstantin.Reynaud.65@email.fr,konstantinR65,konstantinR65999,male,Sans vouloir vous contredire ,vegan geek piercing,filmproduction-485518_640.jpg,3-10-1967,48.9160970000007,2.43061800000001,7
amando,Sauvage,male,amando.Sauvage.66@email.fr,amandoS66,amandoS66999,female,J'aimerais / Je voudrais savoir ce que vous pensez de , ,backstage-951903_640.jpg,3-6-1960,48.8190970000002,2.285118,3
mandy,Paul,female,mandy.Paul.67@email.fr,mandyP67,mandyP67999,male,J'imagine que ,vegan geek piercing sea mountain sport tv lazy music,brett-952573_640.jpg,8-4-1977,48.9675970000009,2.50786800000001,2
ceallagh,Grondin,male,ceallagh.Grondin.68@email.fr,ceallaghG68,ceallaghG68999,male,Santé! ,vegan geek piercing sea mountain,ramayana-festival-1807516_640.jpg,1-23-1955,48.8675970000005,2.35786800000001,4
coinneach,Muller,male,coinneach.Muller.69@email.fr,coinneachM69,coinneachM69999,female,Mon fils étudie l'informatique. ,vegan geek piercing sea mountain sport tv lazy music,jorn-schlonvogt-1202320_640.jpg,6-27-1991,48.8515970000004,2.333868,3
roselle,Goncalves,female,roselle.Goncalves.70@email.fr,roselleG70,roselleG70999,female,J'ai deux sœurs. ,vegan,woman-7186987_640.jpg,5-4-2000,48.778597,2.224368,10
eleanora,Vasseur,female,eleanora.Vasseur.71@email.fr,eleanoraV71,eleanoraV71999,female,Il est lent. ,vegan geek piercing sea mountain sport tv lazy music friends,man-8162325_640.jpg,6-11-1963,48.8540970000004,2.337618,1
sushila,Duhamel,female,sushila.Duhamel.72@email.fr,sushilaD72,sushilaD72999,male,Je préférerais ne pas m'engager , ,filmproduction-485518_640.jpg,2-13-1959,48.9220970000007,2.43961800000001,10
claire,Guyon,female,claire.Guyon.73@email.fr,claireG73,claireG73999,bisexual,C'est trop. ,vegan geek piercing sea mountain sport tv lazy music friends fidelity,woman-1462683_640.jpg,12-15-1961,48.9370970000008,2.46211800000001,3
stina,Perrin,female,stina.Perrin.74@email.fr,stinaP74,stinaP74999,male,Elle est riche. ,vegan geek,portrait-3204879_640.jpg,8-16-1988,48.9405970000008,2.46736800000001,8
razvan,Fernandez,male,razvan.Fernandez.75@email.fr,razvanF75,razvanF75999,bisexual,Je suis d'avis que ,vegan geek piercing,fashion-4746903_640.jpg,3-9-1977,48.9640970000009,2.50261800000001,5
benedikt,Guibert,male,benedikt.Guibert.76@email.fr,benediktG76,benediktG76999,male,Depuis combien de temps est tu es en France? ,vegan geek piercing sea mountain sport tv lazy music friends,gregory-peck-90779_640.jpg,2-23-1994,48.8020970000002,2.259618,8
henda,Simon,female,henda.Simon.77@email.fr,hendaS77,hendaS77999,male,C'est pas mal. ,vegan geek piercing sea mountain sport tv lazy music friends,man-8162325_640.jpg,5-27-1952,48.773097,2.216118,6
mollie,Gros,female,mollie.Gros.78@email.fr,mollieG78,mollieG78999,male,It's impossible ,vegan geek piercing sea mountain sport tv,fashion-3057295_640.jpg,7-25-1993,48.777097,2.222118,7
margarete,Carpentier,female,margarete.Carpentier.79@email.fr,margareteC79,margareteC79999,bisexual,Merci pour ton aide. ,vegan geek piercing sea mountain sport tv lazy music,humphrey-bogart-male-1278138_640.jpg,1-15-1968,48.7915970000001,2.243868,6
aeron,Verdier,male,aeron.Verdier.80@email.fr,aeronV80,aeronV80999,bisexual,Je sais / Nous savons que , ,fashion-4746903_640.jpg,8-15-2003,48.8880970000006,2.38861800000001,8
ruth,Lopez,female,ruth.Lopez.81@email.fr,ruthL81,ruthL81999,bisexual,Je suis sûr que ,vegan geek piercing sea mountain sport tv,godfather-4292451_640.jpg,6-9-1954,48.8955970000006,2.39986800000001,4
arachne,Roy,female,arachne.Roy.82@email.fr,arachneR82,arachneR82999,bisexual,Combien de langues est-ce que tu parles? ,vegan geek piercing,people-3230020_640.jpg,8-7-1958,48.9645970000009,2.50336800000001,6
rosalia,Fernandes,female,rosalia.Fernandes.83@email.fr,rosaliaF83,rosaliaF83999,male,Elle est calme. ,vegan geek,man-4134645_640.jpg,8-20-1977,48.8200970000002,2.286618,6
elov,Lopes,male,elov.Lopes.84@email.fr,elovL84,elovL84999,female,Il m'est impossible de donner un avis (définitif) sur ,vegan geek piercing sea mountain sport tv lazy music friends fidelity,men-7050835_640.jpg,9-21-1970,48.9495970000009,2.48086800000001,5
bahman,Maillard,male,bahman.Maillard.85@email.fr,bahmanM85,bahmanM85999,female,Elle est laide ,vegan geek,man-6342452_640.jpg,12-11-2003,48.8635970000005,2.35186800000001,1
ruy,Gilles,male,ruy.Gilles.86@email.fr,ruyG86,ruyG86999,male,Fais attention en conduisant. ,vegan geek piercing sea mountain sport tv lazy music friends,like-5321848_640.jpg,9-28-1967,48.9530970000009,2.48611800000001,2
ally,Guillon,female,ally.Guillon.87@email.fr,allyG87,allyG87999,bisexual,Tu es plus intelligent que lui. ,vegan geek piercing,actor-542726_640.jpg,9-10-1983,48.974597000001,2.51836800000001,9
mariette,Mallet,female,mariette.Mallet.88@email.fr,marietteM88,marietteM88999,male,Je reviendrai plus tard. ,vegan geek piercing sea,drama-1155445_640.jpg,12-28-1980,48.9215970000007,2.43886800000001,7
dand,Millet,male,dand.Millet.89@email.fr,dandM89,dandM89999,male,Tu es très sympa. ,vegan geek,actor-542726_640.jpg,9-27-1989,48.9510970000009,2.48311800000001,8
jake,Denis,male,jake.Denis.90@email.fr,jakeD90,jakeD90999,female,Est-ce que votre maison est comme celle-ci? ,vegan geek piercing sea mountain sport tv lazy music,woman-1462683_640.jpg,4-4-1957,48.8730970000005,2.36611800000001,7
marlyn,Brunet,female,marlyn.Brunet.91@email.fr,marlynB91,marlynB91999,male,Elle est laide ,vegan geek piercing sea mountain sport,acteur1.png,6-22-1996,48.9585970000009,2.49436800000001,4
lilac,Berthelot,female,lilac.Berthelot.92@email.fr,lilacB92,lilacB92999,bisexual,Je ne vous entends pas. ,vegan geek piercing sea,charles-chaplin-3521070_640.jpg,8-19-1950,48.9095970000007,2.42086800000001,7
chaz,Bonnet,male,chaz.Bonnet.93@email.fr,chazB93,chazB93999,female,J'ai déjà mangé. , ,men-7050835_640.jpg,8-4-2002,48.9275970000008,2.44786800000001,1
elzbieta,Philippe,female,elzbieta.Philippe.94@email.fr,elzbietaP94,elzbietaP94999,female,Je n'ai jamais vraiment réfléchi à ,vegan geek piercing sea mountain sport tv lazy music,brett-952561_640.jpg,10-28-1998,48.978597000001,2.52436800000001,1
orli,Sauvage,female,orli.Sauvage.95@email.fr,orliS95,orliS95999,male,Il est gentil. ,vegan geek,godfather-4292451_640.jpg,6-19-1980,48.8080970000002,2.268618,8
urania,Blanchet,female,urania.Blanchet.96@email.fr,uraniaB96,uraniaB96999,female,J'ai l'idée que , ,backstage-951903_640.jpg,10-3-1964,48.7815970000001,2.228868,4
rebeccah,Lagarde,female,rebeccah.Lagarde.97@email.fr,rebeccahL97,rebeccahL97999,male,Je suis persuadé que , ,brett-952561_640.jpg,6-23-1953,48.7950970000001,2.249118,1
sender,Rodrigues,male,sender.Rodrigues.98@email.fr,senderR98,senderR98999,male,Il est gentil. ,vegan geek piercing sea mountain,photoshoot-5107285_640.jpg,5-15-1964,48.9095970000007,2.42086800000001,4
alfsigr,Jacob,female,alfsigr.Jacob.99@email.fr,alfsigrJ99,alfsigrJ99999,female,Il est grand. ,vegan geek piercing sea mountain sport tv lazy,woman-6002459_640.jpg,5-10-1958,48.8970970000006,2.40211800000001,1
vincenza,Huet,female,vincenza.Huet.100@email.fr,vincenzaH100,vincenzaH100999,male,Il est / C'est probable que ,vegan geek,madame-tussauds-1720457_640.jpg,11-11-2004,48.969097000001,2.51011800000001,10
thabo,Ribeiro,male,thabo.Ribeiro.101@email.fr,thaboR101,thaboR101999,male,Nous avons deux garçons et une fille. ,vegan geek piercing sea mountain sport tv lazy music friends fidelity,charles-chaplin-3521070_640.jpg,4-17-1971,48.7955970000001,2.249868,8
amita,Tran,female,amita.Tran.102@email.fr,amitaT102,amitaT102999,male,Je ne suis pas marié. ,vegan geek piercing,male-model-7686778_640.jpg,11-7-1986,48.9605970000009,2.49736800000001,3
pawel,Normand,male,pawel.Normand.103@email.fr,pawelN103,pawelN103999,male,Quel est votre nom de famille ? ,vegan geek piercing sea mountain sport tv lazy music,filmproduction-485518_640.jpg,5-4-1971,48.8830970000006,2.38111800000001,3
kingsley,Bouchet,male,kingsley.Bouchet.104@email.fr,kingsleyB104,kingsleyB104999,bisexual,Voudriez-vous prendre un message s'il vous plaît? ,vegan geek piercing sea mountain sport tv lazy,acteur1.png,7-20-1970,48.773597,2.216868,6
eideard,Cordier,male,eideard.Cordier.105@email.fr,eideardC105,eideardC105999,female,Quelle est votre attitude à l'égard de ,vegan geek piercing sea mountain sport,man-3252165_640.jpg,9-9-1978,48.8355970000003,2.309868,2
haidar,Julien,male,haidar.Julien.106@email.fr,haidarJ106,haidarJ106999,male,Elle est amicale. ,vegan geek piercing sea mountain,charles-chaplin-3521070_640.jpg,2-11-1952,48.9040970000007,2.41261800000001,8
priya,Dupuis,female,priya.Dupuis.107@email.fr,priyaD107,priyaD107999,male,"Non, c'est la première fois. ",vegan geek piercing sea mountain sport,mask-4985280_640.jpg,4-16-1965,48.982597000001,2.53036800000001,10
mahmud,Duhamel,male,mahmud.Duhamel.108@email.fr,mahmudD108,mahmudD108999,male,J'ai deux sœurs. ,vegan geek piercing sea mountain sport,ramayana-festival-1807516_640.jpg,3-10-1965,48.983097000001,2.53111800000001,3
mokosh,Collet,female,mokosh.Collet.109@email.fr,mokoshC109,mokoshC109999,male,Il est / C'est impossible que ,vegan geek piercing sea mountain sport tv lazy music,shakespeare-4959130_640.jpg,6-5-2001,48.8605970000004,2.34736800000001,4
nikole,Grondin,female,nikole.Grondin.110@email.fr,nikoleG110,nikoleG110999,bisexual,J'ai besoin de changer de vêtements. ,vegan geek piercing,actor-2181844_640.jpg,10-18-1954,48.773097,2.216118,7
orville,Lejeune,male,orville.Lejeune.111@email.fr,orvilleL111,orvilleL111999,bisexual,Est-ce que tu as faim? ,vegan geek piercing sea,girl-2491656_640.jpg,9-22-1985,48.7865970000001,2.236368,10
lenora,Gaudin,female,lenora.Gaudin.112@email.fr,lenoraG112,lenoraG112999,male,Tu te sens mieux? ,vegan geek piercing,head-shoot-1542339_640.jpg,8-20-1957,48.8095970000002,2.270868,10
zenon,Bazin,male,zenon.Bazin.113@email.fr,zenonB113,zenonB113999,bisexual,Est-ce que tu fais du sport? ,vegan geek piercing sea mountain sport tv lazy music friends,allan-warren-872631_640.jpg,3-14-1973,48.8530970000004,2.336118,10
kamala,Aubert,female,kamala.Aubert.114@email.fr,kamalaA114,kamalaA114999,female,Je suis d'avis que ,vegan geek,dracula-theater-7209931_640.jpg,12-15-1975,48.8565970000004,2.341368,8
parvati,Guillou,female,parvati.Guillou.115@email.fr,parvatiG115,parvatiG115999,male,J'ai besoin d'aller chez moi. ,vegan geek piercing sea mountain sport tv lazy music friends fidelity,model-5176707_640.jpg,1-28-1973,48.9165970000007,2.43136800000001,5
krikor,Etienne,male,krikor.Etienne.116@email.fr,krikorE116,krikorE116999,female,Elle est petite. ,vegan,sonam-prajapati-6893225_640.jpg,8-18-1983,48.8840970000006,2.38261800000001,7
arisha,Dubois,female,arisha.Dubois.117@email.fr,arishaD117,arishaD117999,bisexual,J'espère que vous ferez un bon voyage. ,vegan geek piercing sea mountain sport tv lazy music,actress-825670_640.jpg,8-7-1997,48.7815970000001,2.228868,1
mehmet,Perez,male,mehmet.Perez.118@email.fr,mehmetP118,mehmetP118999,female,Je ne peux pas m'empêcher de penser que , ,portrait-3359403_640.jpg,2-1-1991,48.8585970000004,2.344368,10
cherish,Allard,female,cherish.Allard.119@email.fr,cherishA119,cherishA119999,bisexual,A bientôt. , ,man-8245780_640.webp,12-19-1997,48.9250970000007,2.44411800000001,4
aggie,Chevallier,female,aggie.Chevallier.120@email.fr,aggieC120,aggieC120999,male,Je voudrais connaître / avoir votre avis / opinion sur ,vegan geek,street-performers-870113_640.jpg,8-26-2002,48.8985970000006,2.40436800000001,9
castor,Perret,male,castor.Perret.121@email.fr,castorP121,castorP121999,male,Pourriez-vous me donner / faire savoir votre avis/opinion sur ,vegan geek piercing sea mountain sport tv lazy,filmproduction-485518_640.jpg,4-28-1969,48.8360970000003,2.310618,5
boaz,David,male,boaz.David.122@email.fr,boazD122,boazD122999,male,Je ne peux pas m'empêcher de penser que ,vegan geek piercing sea mountain sport tv,man-7291967_640.jpg,6-2-1984,48.8560970000004,2.340618,4
gianna,Paul,female,gianna.Paul.123@email.fr,giannaP123,giannaP123999,male,Je pense que c'est très bon. ,vegan geek piercing,man-8162325_640.jpg,7-12-1950,48.770597,2.212368,3
sidony,Lopes,female,sidony.Lopes.124@email.fr,sidonyL124,sidonyL124999,bisexual,J'ai besoin de changer de vêtements. ,vegan geek piercing sea,mime-4871674_640.jpg,10-14-1992,48.9155970000007,2.42986800000001,8
robina,Godard,female,robina.Godard.125@email.fr,robinaG125,robinaG125999,bisexual,Il est / C'est injuste que ,vegan geek piercing sea mountain sport tv lazy,portrait-3241737_640.jpg,7-26-1991,48.8200970000002,2.286618,1
bram,Lopes,male,bram.Lopes.126@email.fr,bramL126,bramL126999,female,Est-ce que tu as fait ça avant ? ,vegan geek piercing sea mountain,brett-952561_640.jpg,9-4-1965,48.8020970000002,2.259618,10
anas,Renault,male,anas.Renault.127@email.fr,anasR127,anasR127999,female,Il est marrant. , ,fright-7989944_640.jpg,11-17-1954,48.9620970000009,2.49961800000001,1
bettie,Guillou,female,bettie.Guillou.128@email.fr,bettieG128,bettieG128999,female,Selon vous ,vegan geek piercing,aamir-tameen-867782_640.jpg,6-21-1950,48.9650970000009,2.50411800000001,4
johanneke,Chartier,female,johanneke.Chartier.129@email.fr,johannekeC129,johannekeC129999,bisexual,Je n'ai pas peur. ,vegan,portrait-3241737_640.jpg,10-19-1969,48.8985970000006,2.40436800000001,2
iantha,Thibault,female,iantha.Thibault.130@email.fr,ianthaT130,ianthaT130999,male,Est-ce que tu te plais ici? ,vegan,portrait-3359403_640.jpg,9-19-1998,48.8110970000002,2.273118,4
markus,Bertrand,male,markus.Bertrand.131@email.fr,markusB131,markusB131999,male,Je ne me sens pas bien. ,vegan geek piercing sea mountain,face-3265605_640.jpg,4-19-1957,48.7970970000001,2.252118,2
hudson,Goncalves,male,hudson.Goncalves.132@email.fr,hudsonG132,hudsonG132999,female,J'espère que vous ferez un bon voyage. ,vegan geek piercing sea mountain sport,men-7050835_640.jpg,7-15-1954,48.9045970000007,2.41336800000001,1
yakov,Lefevre,male,yakov.Lefevre.133@email.fr,yakovL133,yakovL133999,male,Je suis allergique aux fruits de mer. ,vegan geek,actress-825670_640.jpg,4-5-1968,48.8675970000005,2.35786800000001,3
chester,Philippe,male,chester.Philippe.134@email.fr,chesterP134,chesterP134999,female,Je t’emmènerai à l'arrêt de bus. ,vegan,godfather-4292451_640.jpg,9-8-1963,48.8405970000003,2.317368,7
dietrich,Coste,male,dietrich.Coste.135@email.fr,dietrichC135,dietrichC135999,female,Comment ça va? ,vegan geek,man-8162325_640.jpg,7-10-1998,48.8950970000006,2.39911800000001,2
wiktoria,Lebrun,female,wiktoria.Lebrun.136@email.fr,wiktoriaL136,wiktoriaL136999,female,J'aimerais connaître / avoir votre réaction face à , ,woman-7186987_640.jpg,6-8-2000,48.8425970000004,2.320368,10
cristi,Sanchez,male,cristi.Sanchez.137@email.fr,cristiS137,cristiS137999,male,Il est / C'est certain que ,vegan geek,woman-7186987_640.jpg,6-10-1962,48.8240970000003,2.292618,10
misty,Delaunay,female,misty.Delaunay.138@email.fr,mistyD138,mistyD138999,bisexual,Je suis persuadé que ,vegan geek piercing sea mountain sport tv lazy,godfather-4292451_640.jpg,2-26-1962,48.8650970000005,2.35411800000001,2
heitor,Picard,male,heitor.Picard.139@email.fr,heitorP139,heitorP139999,male,Il est agréable ,vegan geek piercing sea mountain sport tv lazy music friends fidelity,jorn-schlonvogt-1202320_640.jpg,11-7-1992,48.9070970000007,2.41711800000001,9
paavo,Valentin,male,paavo.Valentin.140@email.fr,paavoV140,paavoV140999,bisexual,Est-ce que tu es libre ce soir? ,vegan geek piercing,aamir-tameen-867782_640.jpg,5-2-1982,48.9555970000009,2.48986800000001,8
pentti,Charpentier,male,pentti.Charpentier.141@email.fr,penttiC141,penttiC141999,female,"Très bien, merci. ",vegan geek piercing sea mountain sport tv,man-6342455_640.jpg,12-23-1999,48.981097000001,2.52811800000001,5
agrippina,Cordier,female,agrippina.Cordier.142@email.fr,agrippinaC142,agrippinaC142999,male,Je m'appelle John Smith. ,vegan geek piercing sea,pm-jason-statham.jpg,5-27-1986,48.9150970000007,2.42911800000001,6
lorrie,Delaunay,female,lorrie.Delaunay.143@email.fr,lorrieD143,lorrieD143999,bisexual,Je pense que c'est très bon. ,vegan geek piercing sea mountain sport tv lazy,man-210379_640.jpg,8-13-1967,48.9065970000007,2.41636800000001,7
tapani,Loiseau,male,tapani.Loiseau.144@email.fr,tapaniL144,tapaniL144999,male,A demain. ,vegan geek,mask-4985280_640.jpg,11-14-1999,48.7925970000001,2.245368,7
aron,Joubert,male,aron.Joubert.145@email.fr,aronJ145,aronJ145999,bisexual,Je ne comprends pas. ,vegan geek piercing sea mountain,mask-4985280_640.jpg,6-1-1964,48.8680970000005,2.35861800000001,5
ranjit,Tran,male,ranjit.Tran.146@email.fr,ranjitT146,ranjitT146999,male,Tente ta chance. ,vegan geek piercing,madame-tussauds-1720457_640.jpg,11-16-1950,48.9265970000008,2.44636800000001,4
candelas,Fabre,female,candelas.Fabre.147@email.fr,candelasF147,candelasF147999,male,J'ai déjà mangé. ,vegan geek piercing sea mountain sport tv lazy music friends,shakespeare-4959130_640.jpg,8-23-1952,48.8360970000003,2.310618,4
sophia,Aubry,female,sophia.Aubry.148@email.fr,sophiaA148,sophiaA148999,female,C'est très important. ,vegan geek piercing sea mountain sport tv,man-5757539_640.jpg,7-21-1952,48.8610970000004,2.34811800000001,10
floris,Guillou,male,floris.Guillou.149@email.fr,florisG149,florisG149999,male,Je suis marié. ,vegan geek piercing sea mountain sport tv,groucho-marx-male-1278137_640.jpg,12-14-1999,48.8700970000005,2.36161800000001,10
aya,Lombard,female,aya.Lombard.150@email.fr,ayaL150,ayaL150999,bisexual,D'après moi ,vegan geek piercing sea mountain sport tv lazy music,actor-63082_640.jpg,3-2-1989,48.8175970000002,2.282868,5
antono,Marchand,male,antono.Marchand.151@email.fr,antonoM151,antonoM151999,bisexual,Je fais un mètre quatre-vingt. ,vegan,actors-1851317_640.jpg,1-27-1956,48.8370970000003,2.312118,3
glen,Nguyen,male,glen.Nguyen.152@email.fr,glenN152,glenN152999,male,Je pense que c'est bon. ,vegan geek piercing sea mountain sport,mask-4985280_640.jpg,4-24-1992,48.8000970000001,2.256618,10
amice,Masson,female,amice.Masson.153@email.fr,amiceM153,amiceM153999,male,Es-tu sûr? ,vegan geek piercing sea mountain sport,man-6342452_640.jpg,2-6-1984,48.9340970000008,2.45761800000001,3
telma,Blanchard,female,telma.Blanchard.154@email.fr,telmaB154,telmaB154999,bisexual,Je vais le prendre. , ,photoshoot-5107285_640.jpg,9-10-1973,48.968097000001,2.50861800000001,10
leandro,Cohen,male,leandro.Cohen.155@email.fr,leandroC155,leandroC155999,male,J'ai acheté une chemise hier. ,vegan geek piercing sea mountain sport tv lazy music friends,businessman-6248246_640.jpg,1-9-1973,48.9640970000009,2.50261800000001,3
hermenegildo,Merle,male,hermenegildo.Merle.156@email.fr,hermenegildoM156,hermenegildoM156999,bisexual,Ce n'est pas très cher. ,vegan geek piercing sea mountain sport tv lazy,woman-7186987_640.jpg,8-27-1972,48.9420970000008,2.46961800000001,8
bala,Costa,male,bala.Costa.157@email.fr,balaC157,balaC157999,male,C'est bon. ,vegan geek piercing sea mountain sport tv,man-8162325_640.jpg,2-11-1967,48.8570970000004,2.342118,10
apollinariya,Dubois,female,apollinariya.Dubois.158@email.fr,apollinariyaD158,apollinariyaD158999,female,As-tu reçu mon e-mail? ,vegan geek piercing sea,actress-825670_640.jpg,2-1-1999,48.982597000001,2.53036800000001,9
kishore,Maillot,male,kishore.Maillot.159@email.fr,kishoreM159,kishoreM159999,female,J'espère que vous ferez un bon voyage. ,vegan geek piercing sea mountain sport tv,london-5731175_640.jpg,4-6-1969,48.9520970000009,2.48461800000001,10
iseabail,Mathieu,female,iseabail.Mathieu.160@email.fr,iseabailM160,iseabailM160999,male,Telle est mon opinion sur... ,vegan geek piercing sea mountain,man-6342455_640.jpg,4-5-1988,48.8070970000002,2.267118,4
amhlaoibh,Coulon,male,amhlaoibh.Coulon.161@email.fr,amhlaoibhC161,amhlaoibhC161999,bisexual,Mon fils étudie l'informatique. ,vegan geek piercing sea,fashion-3057295_640.jpg,6-1-1999,48.8495970000004,2.330868,9
fabienne,Prevost,female,fabienne.Prevost.162@email.fr,fabienneP162,fabienneP162999,male,Rosi est rousse. ,vegan geek piercing sea mountain sport tv lazy music,brett-952561_640.jpg,2-24-1972,48.8120970000002,2.274618,5
america,Daniel,female,america.Daniel.163@email.fr,americaD163,americaD163999,male,Il est patient. ,vegan geek piercing sea mountain,man-3252165_640.jpg,12-16-1956,48.9635970000009,2.50186800000001,9
mckayla,Olivier,female,mckayla.Olivier.164@email.fr,mckaylaO164,mckaylaO164999,male,Elle est intelligente. , ,model-3362457_640.jpg,11-3-1989,48.9325970000008,2.45536800000001,10
fikriyya,Hamon,female,fikriyya.Hamon.165@email.fr,fikriyyaH165,fikriyyaH165999,bisexual,Je vais le prendre. , ,photoshoot-5107285_640.jpg,12-6-1959,48.9615970000009,2.49886800000001,7
chonsie,Lacoste,female,chonsie.Lacoste.166@email.fr,chonsieL166,chonsieL166999,male,Tu parles le français très bien. ,vegan geek,model-5176707_640.jpg,3-22-2003,48.974097000001,2.51761800000001,6
emil,Gonzalez,male,emil.Gonzalez.167@email.fr,emilG167,emilG167999,male,Il est très ennuyeux. ,vegan geek piercing sea mountain sport tv,pm-jason-statham.jpg,8-15-1953,48.8480970000004,2.328618,10
marcello,Hubert,male,marcello.Hubert.168@email.fr,marcelloH168,marcelloH168999,male,Quelle est votre attitude à l'égard de , ,man-5757539_640.jpg,11-19-1993,48.7890970000001,2.240118,5
deanna,Roussel,female,deanna.Roussel.169@email.fr,deannaR169,deannaR169999,female,Est-ce que tu étudies français? ,vegan geek piercing sea,man-8245780_640.webp,7-15-1972,48.9410970000008,2.46811800000001,2
mhairi,Sanchez,female,mhairi.Sanchez.170@email.fr,mhairiS170,mhairiS170999,female,Il est très ennuyeux. , ,people-3209886_640.jpg,2-3-1970,48.8765970000005,2.37136800000001,3
corinne,Garnier,female,corinne.Garnier.171@email.fr,corinneG171,corinneG171999,female,Quel est votre nom de famille ? ,vegan geek piercing sea mountain,Jason_Statham_2018.jpg,7-15-1970,48.9195970000007,2.43586800000001,4
zachary,Daniel,male,zachary.Daniel.172@email.fr,zacharyD172,zacharyD172999,male,J'ai besoin de changer de vêtements. ,vegan geek piercing sea mountain sport tv lazy,aamir-tameen-867782_640.jpg,2-3-1975,48.9290970000008,2.45011800000001,8
joaquima,Moulin,female,joaquima.Moulin.173@email.fr,joaquimaM173,joaquimaM173999,female,Je ne me le suis jamais demandé. ,vegan geek piercing sea mountain,face-3265605_640.jpg,9-17-1971,48.8835970000006,2.38186800000001,3
fihr,Mallet,male,fihr.Mallet.174@email.fr,fihrM174,fihrM174999,female,Personnellement ,vegan geek piercing sea mountain sport tv,sonam-prajapati-6893225_640.jpg,10-17-2004,48.8125970000002,2.275368,9
jin-ho,Langlois,male,jin-ho.Langlois.175@email.fr,jin-hoL175,jin-hoL175999,bisexual,Ce n'est pas vrai. ,vegan geek piercing sea mountain sport tv lazy,theater-200716_640.jpg,3-12-1992,48.9055970000007,2.41486800000001,5
jamaar,Hubert,male,jamaar.Hubert.176@email.fr,jamaarH176,jamaarH176999,male,Il est mignon. ,vegan geek piercing,ramayana-festival-1807516_640.jpg,11-6-1957,48.8370970000003,2.312118,5
sophie,Da,female,sophie.Da.177@email.fr,sophieD177,sophieD177999,bisexual,Je viens te chercher. ,vegan geek piercing sea mountain,model-5176707_640.jpg,5-19-1979,48.8280970000003,2.298618,7
tarmo,Lacroix,male,tarmo.Lacroix.178@email.fr,tarmoL178,tarmoL178999,female,Fais attention. ,vegan geek piercing sea mountain sport tv lazy music,mask-4985280_640.jpg,7-21-1978,48.9155970000007,2.42986800000001,3
fionnbharr,Royer,male,fionnbharr.Royer.179@email.fr,fionnbharrR179,fionnbharrR179999,male,Est-ce que tu veux venir avec moi? ,vegan geek,brett-952561_640.jpg,2-4-1961,48.9355970000008,2.45986800000001,9
nikolina,Vaillant,female,nikolina.Vaillant.180@email.fr,nikolinaV180,nikolinaV180999,female,Elle est calme. ,vegan geek piercing sea mountain sport,face-3265605_640.jpg,6-13-1956,48.8605970000004,2.34736800000001,4
aindrea,Lejeune,male,aindrea.Lejeune.181@email.fr,aindreaL181,aindreaL181999,female,Je parle un peu d'anglais. ,vegan geek piercing sea mountain sport tv lazy music friends,filmproduction-485518_640.jpg,12-15-1989,48.774097,2.217618,2
lavone,Laporte,female,lavone.Laporte.182@email.fr,lavoneL182,lavoneL182999,female,Elle est faible ,vegan geek piercing sea mountain sport tv lazy music friends fidelity,portrait-3359403_640.jpg,12-6-1993,48.8560970000004,2.340618,5
catarina,Clement,female,catarina.Clement.183@email.fr,catarinaC183,catarinaC183999,female,Il est / C'est juste que ,vegan geek piercing sea mountain sport tv lazy music,woman-1462682_640.jpg,6-7-1981,48.7890970000001,2.240118,3
annas,Payet,male,annas.Payet.184@email.fr,annasP184,annasP184999,male,Ce n'est pas juste. ,vegan geek piercing sea mountain sport tv,man-6342455_640.jpg,2-6-1982,48.7860970000001,2.235618,7
bente,Camus,female,bente.Camus.185@email.fr,benteC185,benteC185999,bisexual,Elle a les cheveux ondulés. ,vegan geek piercing sea mountain sport tv lazy music,woman-6002459_640.jpg,1-26-1964,48.8315970000003,2.303868,3
evan,Colin,male,evan.Colin.186@email.fr,evanC186,evanC186999,bisexual,C'est trop. ,vegan,actor-542726_640.jpg,7-14-1971,48.7840970000001,2.232618,10
clotilda,Loiseau,female,clotilda.Loiseau.187@email.fr,clotildaL187,clotildaL187999,male,D'après moi , ,groucho-marx-male-1278137_640.jpg,10-7-1950,48.8545970000004,2.338368,10
bedivere,Clement,male,bedivere.Clement.188@email.fr,bedivereC188,bedivereC188999,male,Est-ce que ton frère est allé en France ? ,vegan geek piercing sea mountain sport tv lazy music friends fidelity,mime-4871674_640.jpg,11-6-1984,48.8695970000005,2.36086800000001,5
confucius,Faivre,male,confucius.Faivre.189@email.fr,confuciusF189,confuciusF189999,bisexual,J'ai perdu ma montre. , ,actor-542726_640.jpg,6-6-1988,48.971597000001,2.51386800000001,7
pavel,Mary,male,pavel.Mary.190@email.fr,pavelM190,pavelM190999,female,J'ai l'impression que ,vegan,man-7971966_640.jpg,10-17-2000,48.978597000001,2.52436800000001,7
tegan,Morin,male,tegan.Morin.191@email.fr,teganM191,teganM191999,male,J'ai trente-deux ans. ,vegan geek piercing sea mountain sport tv lazy,model-3362457_640.jpg,5-20-1969,48.8160970000002,2.280618,1
aindrea,Marty,male,aindrea.Marty.192@email.fr,aindreaM192,aindreaM192999,bisexual,Je vais partir. ,vegan geek piercing sea mountain,ramayana-festival-1807516_640.jpg,3-24-2000,48.9565970000009,2.49136800000001,1
marcela,Barbe,female,marcela.Barbe.193@email.fr,marcelaB193,marcelaB193999,female,Excellent. ,vegan geek piercing sea mountain sport tv,backstage-951903_640.jpg,7-15-1995,48.8555970000004,2.339868,6
giuliana,Lacroix,female,giuliana.Lacroix.194@email.fr,giulianaL194,giulianaL194999,female,J'ai besoin d'aller chez moi. ,vegan geek piercing sea mountain sport tv lazy music,pm-jason-statham.jpg,9-23-1970,48.9370970000008,2.46211800000001,2
gintare,Da,female,gintare.Da.195@email.fr,gintareD195,gintareD195999,bisexual,Il est / C'est clair que ,vegan,woman-6002459_640.jpg,12-11-1954,48.7965970000001,2.251368,6
jerry,Gilbert,male,jerry.Gilbert.196@email.fr,jerryG196,jerryG196999,male,Elle est spécialiste. ,vegan geek piercing sea mountain sport tv,woman-7186987_640.jpg,7-8-2003,48.8655970000005,2.35486800000001,4
finn,Besnard,male,finn.Besnard.197@email.fr,finnB197,finnB197999,male,Je ne l'aime pas. ,vegan geek piercing sea mountain sport tv lazy music,woman-1462686_640.jpg,3-14-1984,48.9390970000008,2.46511800000001,3
korey,Rousseau,male,korey.Rousseau.198@email.fr,koreyR198,koreyR198999,female,Je suis d'avis que ,vegan geek,man-8245776_640.webp,2-17-1957,48.9230970000007,2.44111800000001,7
jerk,Dumas,male,jerk.Dumas.199@email.fr,jerkD199,jerkD199999,male,Tu te sens mieux? ,vegan geek piercing sea mountain sport,london-5731175_640.jpg,10-18-1971,48.770097,2.211618,10
nefertari,Roger,female,nefertari.Roger.200@email.fr,nefertariR200,nefertariR200999,male,Réglez ça dehors. ,vegan geek piercing sea mountain,girl-2491656_640.jpg,11-13-1973,48.9215970000007,2.43886800000001,6
greig,Alves,male,greig.Alves.201@email.fr,greigA201,greigA201999,male,Bonne idée. , ,people-3365483_640.jpg,2-3-1966,48.7820970000001,2.229618,10
lenore,Mercier,female,lenore.Mercier.202@email.fr,lenoreM202,lenoreM202999,bisexual,Je nettoie ma chambre. ,vegan,brett-952561_640.jpg,5-22-1999,48.8795970000005,2.37586800000001,1
iason,Denis,male,iason.Denis.203@email.fr,iasonD203,iasonD203999,male,As-tu reçu mon e-mail? ,vegan geek piercing,allan-warren-872631_640.jpg,9-4-2003,48.8165970000002,2.281368,1
barb,Lejeune,female,barb.Lejeune.204@email.fr,barbL204,barbL204999,bisexual,Est-ce que tu as fait ça avant ? ,vegan,man-6342455_640.jpg,6-13-1984,48.8265970000003,2.296368,7
lone,Rodriguez,female,lone.Rodriguez.205@email.fr,loneR205,loneR205999,female,A ce soir. ,vegan geek piercing,woman-6002459_640.jpg,5-4-1976,48.7855970000001,2.234868,10
gobnet,Leroux,female,gobnet.Leroux.206@email.fr,gobnetL206,gobnetL206999,bisexual,Elle a les cheveux ondulés. ,vegan geek piercing sea,people-3209886_640.jpg,7-11-1969,48.979097000001,2.52511800000001,2
faunus,Guillaume,male,faunus.Guillaume.207@email.fr,faunusG207,faunusG207999,bisexual,Je ne sais pas m'en servir. ,vegan geek piercing sea mountain sport,portrait-3241737_640.jpg,1-14-1963,48.8435970000004,2.321868,1
joshawa,Allard,male,joshawa.Allard.208@email.fr,joshawaA208,joshawaA208999,bisexual,Je ne peux pas m'empêcher de penser que , ,street-performers-870113_640.jpg,6-26-1958,48.7970970000001,2.252118,9
talitha,Boucher,female,talitha.Boucher.209@email.fr,talithaB209,talithaB209999,male,Elle est paresseuse. , ,actor-542726_640.jpg,9-18-2002,48.8610970000004,2.34811800000001,4
philis,Reynaud,female,philis.Reynaud.210@email.fr,philisR210,philisR210999,female,Merci. ,vegan geek piercing sea mountain sport tv lazy music friends,people-5987395_640.jpg,9-3-1990,48.8570970000004,2.342118,4
kimo,Perrier,male,kimo.Perrier.211@email.fr,kimoP211,kimoP211999,female,Je sais / Nous savons que ,vegan geek piercing sea mountain sport tv lazy music friends fidelity,mask-4985280_640.jpg,6-9-1964,48.8690970000005,2.36011800000001,10
liesbeth,Rodriguez,female,liesbeth.Rodriguez.212@email.fr,liesbethR212,liesbethR212999,male,De temps en temps. ,vegan,theatre-3966147_640.jpg,1-16-1999,48.8420970000004,2.319618,8
brandy,Pons,female,brandy.Pons.213@email.fr,brandyP213,brandyP213999,male,Elle est faible ,vegan geek piercing sea mountain sport tv,mime-4871674_640.jpg,6-3-2002,48.8720970000005,2.36461800000001,8
tonia,Jourdan,female,tonia.Jourdan.214@email.fr,toniaJ214,toniaJ214999,bisexual,Fais attention. ,vegan geek piercing sea mountain sport tv lazy,Jason_Statham_2018.jpg,3-10-1987,48.8190970000002,2.285118,3
erskine,Benard,male,erskine.Benard.215@email.fr,erskineB215,erskineB215999,male,Je pense que ,vegan geek piercing sea mountain sport tv lazy music friends,people-3209886_640.jpg,11-28-2001,48.9585970000009,2.49436800000001,4
teagan,Poirier,male,teagan.Poirier.216@email.fr,teaganP216,teaganP216999,bisexual,Tu parles le français très bien. ,vegan,sonam-prajapati-6893225_640.jpg,6-5-1966,48.8395970000003,2.315868,3
zahra,Laporte,female,zahra.Laporte.217@email.fr,zahraL217,zahraL217999,male,Je n'ai jamais vu ça avant. ,vegan geek piercing sea,men-7050835_640.jpg,2-28-1992,48.7935970000001,2.246868,3
dorotheos,Robert,male,dorotheos.Robert.218@email.fr,dorotheosR218,dorotheosR218999,male,Elle est intelligente. ,vegan geek piercing sea mountain sport tv lazy music,india-7547363_640.jpg,2-21-1982,48.768597,2.209368,9
sohail,Humbert,male,sohail.Humbert.219@email.fr,sohailH219,sohailH219999,male,Est-ce que tu as fait ça avant ? ,vegan geek piercing sea mountain sport tv,actor-6210338_640.jpg,12-22-2001,48.8775970000005,2.37286800000001,8
pheobe,Guibert,female,pheobe.Guibert.220@email.fr,pheobeG220,pheobeG220999,bisexual,C'est bon. ,vegan geek piercing sea mountain sport tv,snoop-dog-81879_640.jpg,1-11-1969,48.774597,2.218368,2
mihael,Delage,male,mihael.Delage.221@email.fr,mihaelD221,mihaelD221999,female,Je ne vous entends pas. ,vegan geek piercing sea mountain,people-3365483_640.jpg,7-13-1994,48.7875970000001,2.237868,5
collin,Descamps,male,collin.Descamps.222@email.fr,collinD222,collinD222999,female,Elle est plus âgée que moi. ,vegan geek piercing sea mountain sport tv,drama-1155445_640.jpg,1-24-1990,48.8460970000004,2.325618,7
noble,Bigot,male,noble.Bigot.223@email.fr,nobleB223,nobleB223999,female,Je ne peux pas m'empêcher de penser que ,vegan geek piercing sea mountain sport tv,woman-6002459_640.jpg,11-23-1950,48.8050970000002,2.264118,2
sheenagh,Lacombe,female,sheenagh.Lacombe.224@email.fr,sheenaghL224,sheenaghL224999,female,Où est-ce que tu habites ? ,vegan geek piercing sea mountain sport tv lazy music friends,allan-warren-872631_640.jpg,7-4-1987,48.8155970000002,2.279868,7
summer,Favre,female,summer.Favre.225@email.fr,summerF225,summerF225999,bisexual,Je suis d'avis que ,vegan geek piercing sea,shakespeare-4959130_640.jpg,8-26-1952,48.775597,2.219868,2
gianna,Maillot,female,gianna.Maillot.226@email.fr,giannaM226,giannaM226999,male,J'ai besoin de changer de vêtements. ,vegan geek piercing sea mountain sport tv lazy,face-3265605_640.jpg,1-2-1985,48.775597,2.219868,6
stewart,Prevost,male,stewart.Prevost.227@email.fr,stewartP227,stewartP227999,bisexual,Dis-moi. ,vegan geek piercing,madame-tussauds-1720457_640.jpg,3-19-1978,48.9220970000007,2.43961800000001,3
nakato,Da,female,nakato.Da.228@email.fr,nakatoD228,nakatoD228999,male,Je t'aime. ,vegan geek piercing sea mountain sport,actor-6311507_640.jpg,3-3-1963,48.8650970000005,2.35411800000001,9
almudena,Texier,female,almudena.Texier.229@email.fr,almudenaT229,almudenaT229999,female,Je veux seulement un en-cas. ,vegan geek piercing sea mountain sport tv lazy music friends fidelity,model-5176707_640.jpg,10-23-1965,48.8305970000003,2.302368,9
rocco,Lecomte,male,rocco.Lecomte.230@email.fr,roccoL230,roccoL230999,bisexual,Bonne idée. ,vegan geek,mount-saint-helens-4395977_640.jpg,7-8-1984,48.8015970000002,2.258868,8
azucena,Vaillant,female,azucena.Vaillant.231@email.fr,azucenaV231,azucenaV231999,bisexual,Lisa a les cheveux longs. , ,woman-6002459_640.jpg,2-28-1978,48.8855970000006,2.38486800000001,8
adrastos,Daniel,male,adrastos.Daniel.232@email.fr,adrastosD232,adrastosD232999,male,Vos enfants sont très bien élevés. ,vegan geek piercing,brad-pitt-164880_640.jpg,4-20-1952,48.7875970000001,2.237868,3
rajya,Hoareau,female,rajya.Hoareau.233@email.fr,rajyaH233,rajyaH233999,male,"Non, merci. ",vegan geek piercing sea mountain sport tv lazy music,head-shoot-1542339_640.jpg,3-22-1980,48.970597000001,2.51236800000001,7
madai,Maillot,male,madai.Maillot.234@email.fr,madaiM234,madaiM234999,male,Je sais / Nous savons que ,vegan geek piercing sea mountain sport tv lazy music friends fidelity,woman-7186987_640.jpg,3-22-1974,48.8380970000003,2.313618,1
hildegarde,Valette,female,hildegarde.Valette.235@email.fr,hildegardeV235,hildegardeV235999,bisexual,Je voudrais connaître / avoir votre réaction face à ,vegan geek piercing sea mountain sport,acteur1.png,9-8-1983,48.7945970000001,2.248368,2
zopyros,Girard,male,zopyros.Girard.236@email.fr,zopyrosG236,zopyrosG236999,female,Je suis sûr que , ,girl-2491656_640.jpg,10-5-1994,48.971597000001,2.51386800000001,3
fortune,Tran,female,fortune.Tran.237@email.fr,fortuneT237,fortuneT237999,bisexual,J'ai deux sœurs. ,vegan geek,man-7971966_640.jpg,3-28-1962,48.8520970000004,2.334618,7
gore,Giraud,male,gore.Giraud.238@email.fr,goreG238,goreG238999,male,J'aimerais / Je voudrais savoir ce que vous pensez de ,vegan geek piercing sea mountain,pm-jason-statham.jpg,8-12-1989,48.7955970000001,2.249868,5
xochiquetzal,Thibault,female,xochiquetzal.Thibault.239@email.fr,xochiquetzalT239,xochiquetzalT239999,male,Désolé de vous déranger. ,vegan geek piercing sea mountain sport,aamir-tameen-867782_640.jpg,5-21-2001,48.9325970000008,2.45536800000001,8
alexandru,Langlois,male,alexandru.Langlois.240@email.fr,alexandruL240,alexandruL240999,male,Où est-ce que tu habites ? ,vegan geek,woman-1462683_640.jpg,2-24-1992,48.985097000001,2.53411800000001,9
barb,Delaunay,female,barb.Delaunay.241@email.fr,barbD241,barbD241999,bisexual,Je préférerais ne pas m'engager ,vegan geek piercing sea mountain sport,man-4134645_640.jpg,1-11-1974,48.9370970000008,2.46211800000001,1
olek,Le,male,olek.Le.242@email.fr,olekL242,olekL242999,male,Comment va le travail? ,vegan,model-3362457_640.jpg,5-28-1994,48.8960970000006,2.40061800000001,6
roxanne,Leroy,female,roxanne.Leroy.243@email.fr,roxanneL243,roxanneL243999,male,"Oui, vraiment. ",vegan,jorn-schlonvogt-1202320_640.jpg,6-24-1962,48.9085970000007,2.41936800000001,9
cathy,Rey,female,cathy.Rey.244@email.fr,cathyR244,cathyR244999,female,Il est / C'est vrai que ,vegan,acteur1.png,10-27-1989,48.9575970000009,2.49286800000001,9
enu,Boulanger,male,enu.Boulanger.245@email.fr,enuB245,enuB245999,bisexual,C'est pas mal. ,vegan geek piercing sea mountain sport tv,man-8162325_640.jpg,11-12-1951,48.8370970000003,2.312118,9
edgard,Julien,male,edgard.Julien.246@email.fr,edgardJ246,edgardJ246999,male,Qu'est-ce que tu étudies ? ,vegan geek piercing sea mountain sport tv,brad-pitt-164880_640.jpg,10-1-2003,48.8550970000004,2.339118,8
verna,Meyer,female,verna.Meyer.247@email.fr,vernaM247,vernaM247999,bisexual,Tout est prêt. ,vegan geek piercing sea mountain sport,man-4134645_640.jpg,11-6-1979,48.8875970000006,2.38786800000001,4
price,Dufour,male,price.Dufour.248@email.fr,priceD248,priceD248999,male,A bientôt. , ,photoshoot-5107285_640.jpg,5-3-1994,48.8490970000004,2.330118,6
kurtis,Dubois,male,kurtis.Dubois.249@email.fr,kurtisD249,kurtisD249999,male,Il est / C'est sûr que ,vegan geek piercing,people-3209886_640.jpg,9-23-1991,48.9465970000009,2.47636800000001,7
diane,Ferreira,female,diane.Ferreira.250@email.fr,dianeF250,dianeF250999,bisexual,Mon père est avocat. ,vegan geek piercing sea mountain sport tv lazy,man-3252165_640.jpg,2-11-1979,48.973097000001,2.51611800000001,8
elmas,Leroux,female,elmas.Leroux.251@email.fr,elmasL251,elmasL251999,male,Juste ici. ,vegan geek piercing sea mountain sport tv lazy,shakespeare-4959130_640.jpg,8-10-1976,48.9505970000009,2.48236800000001,10
varinia,Delage,female,varinia.Delage.252@email.fr,variniaD252,variniaD252999,bisexual,Je suis allergique aux fruits de mer. ,vegan geek piercing,actor-2181844_640.jpg,3-12-1997,48.982097000001,2.52961800000001,2
roman,Bailly,male,roman.Bailly.253@email.fr,romanB253,romanB253999,female,Je crois que ,vegan,people-3365483_640.jpg,10-7-1952,48.8625970000004,2.35036800000001,8
rajender,Delmas,male,rajender.Delmas.254@email.fr,rajenderD254,rajenderD254999,bisexual,Elle est rapide. ,vegan geek piercing sea mountain sport tv lazy music,filmproduction-485518_640.jpg,5-21-1966,48.975097000001,2.51911800000001,3
eric,Gilles,male,eric.Gilles.255@email.fr,ericG255,ericG255999,bisexual,Ça a l'air super. ,vegan geek piercing sea mountain sport tv lazy music friends fidelity,brett-952573_640.jpg,12-24-1994,48.9025970000006,2.41036800000001,5
eutychius,Hubert,male,eutychius.Hubert.256@email.fr,eutychiusH256,eutychiusH256999,female,Ils vont revenir tout de suite. ,vegan geek piercing sea mountain sport tv,snoop-dog-81879_640.jpg,7-3-1996,48.9580970000009,2.49361800000001,2
stylianos,Gautier,male,stylianos.Gautier.257@email.fr,stylianosG257,stylianosG257999,bisexual,Je parle un peu d'anglais. ,vegan,men-7050835_640.jpg,4-20-1967,48.9250970000007,2.44411800000001,8
halvar,Tran,male,halvar.Tran.258@email.fr,halvarT258,halvarT258999,bisexual,Je ne suis pas à même de dire si ,vegan geek piercing sea mountain sport tv lazy music friends,filmproduction-485518_640.jpg,12-19-1994,48.9180970000007,2.43361800000001,4
vitali,Bonnet,male,vitali.Bonnet.259@email.fr,vitaliB259,vitaliB259999,female,C'est Monsieur Smith. ,vegan,brad-pitt-164880_640.jpg,6-21-1955,48.7985970000001,2.254368,4
caridad,Fischer,female,caridad.Fischer.260@email.fr,caridadF260,caridadF260999,female,Est-ce que vous vendez des médicaments? (magasin) , ,man-8162325_640.jpg,5-12-1956,48.8260970000003,2.295618,10
kirsi,Grenier,female,kirsi.Grenier.261@email.fr,kirsiG261,kirsiG261999,male,Il est sophistiqué. ,vegan geek piercing sea mountain sport tv lazy music,man-4134645_640.jpg,2-21-1960,48.8780970000005,2.37361800000001,5
feardorcha,Le,male,feardorcha.Le.262@email.fr,feardorchaL262,feardorchaL262999,female,J'y suis allé. ,vegan geek piercing sea,madame-tussauds-1720457_640.jpg,11-17-1971,48.8890970000006,2.39011800000001,6
kaleb,Boulanger,male,kaleb.Boulanger.263@email.fr,kalebB263,kalebB263999,male,Sans vouloir vous contredire ,vegan geek piercing sea,actors-1851317_640.jpg,6-17-1955,48.8280970000003,2.298618,8
travis,Coulon,male,travis.Coulon.264@email.fr,travisC264,travisC264999,male,Je pensais que les vêtements étaient plus chers. ,vegan geek piercing sea mountain sport tv lazy music friends fidelity,street-performers-870113_640.jpg,10-13-1997,48.777097,2.222118,9
daisy,Joly,female,daisy.Joly.265@email.fr,daisyJ265,daisyJ265999,female,Je préférerais ne pas m'engager ,vegan geek piercing sea mountain sport tv lazy music friends,actor-6311507_640.jpg,12-28-1951,48.770097,2.211618,6
emmaline,Gomes,female,emmaline.Gomes.266@email.fr,emmalineG266,emmalineG266999,male,Juste un peu. ,vegan geek piercing sea mountain sport,actor-6210338_640.jpg,3-11-1996,48.8645970000005,2.35336800000001,8
morag,Charrier,female,morag.Charrier.267@email.fr,moragC267,moragC267999,male,Dépêche-toi! ,vegan geek piercing sea,man-4134645_640.jpg,9-26-1996,48.8400970000003,2.316618,4
orli,Etienne,female,orli.Etienne.268@email.fr,orliE268,orliE268999,female,Je n'en veux pas. , ,man-8162325_640.jpg,2-23-1953,48.9375970000008,2.46286800000001,6
nevan,Clerc,male,nevan.Clerc.269@email.fr,nevanC269,nevanC269999,female,Elle est plus âgée que moi. ,vegan geek piercing,man-7291967_640.jpg,4-8-1991,48.8180970000002,2.283618,6
amerigo,Vincent,male,amerigo.Vincent.270@email.fr,amerigoV270,amerigoV270999,female,J'ai mal à la tête. ,vegan geek,snoop-dog-81879_640.jpg,10-17-1986,48.8415970000004,2.318868,7
carissa,Wagner,female,carissa.Wagner.271@email.fr,carissaW271,carissaW271999,bisexual,J'ai perdu ma montre. ,vegan geek piercing sea mountain sport,man-8245776_640.webp,9-16-1966,48.9435970000008,2.47186800000001,3
ranjit,Chartier,male,ranjit.Chartier.272@email.fr,ranjitC272,ranjitC272999,male,Il est / C'est impossible que ,vegan geek piercing sea mountain sport,pm-jason-statham.jpg,6-1-1968,48.8165970000002,2.281368,6
meinhard,Dumas,male,meinhard.Dumas.273@email.fr,meinhardD273,meinhardD273999,bisexual,C'est dommage. ,vegan,groucho-marx-male-1278137_640.jpg,7-26-1980,48.9215970000007,2.43886800000001,6
gennaro,Rossi,male,gennaro.Rossi.274@email.fr,gennaroR274,gennaroR274999,male,D'après moi ,vegan geek piercing sea,men-7050835_640.jpg,8-12-1995,48.9585970000009,2.49436800000001,3
quanah,Delage,male,quanah.Delage.275@email.fr,quanahD275,quanahD275999,female,Ne t'inquiète pas. ,vegan geek piercing sea mountain,actor-2181844_640.jpg,12-7-1979,48.8985970000006,2.40436800000001,6
dhananjay,Simon,male,dhananjay.Simon.276@email.fr,dhananjayS276,dhananjayS276999,male,Je crains qu'il ne soit ,vegan geek,man-4134645_640.jpg,4-19-1953,48.976097000001,2.52061800000001,9
iarlaith,Diallo,male,iarlaith.Diallo.277@email.fr,iarlaithD277,iarlaithD277999,male,Je dois laver mes vêtements. ,vegan geek piercing sea mountain,dracula-theater-7209931_640.jpg,11-26-1982,48.9100970000007,2.42161800000001,1
kody,Raymond,male,kody.Raymond.278@email.fr,kodyR278,kodyR278999,male,Pourriez-vous me donner / faire savoir votre réaction face à ,vegan geek,pm-jason-statham.jpg,12-13-1988,48.8660970000005,2.35561800000001,10
anakin,Perrot,male,anakin.Perrot.279@email.fr,anakinP279,anakinP279999,female,J'ai entendu dire que le Texas était beau comme endroit. ,vegan geek piercing sea mountain,theatre-3966147_640.jpg,6-4-1988,48.9355970000008,2.45986800000001,1
savas,Camus,male,savas.Camus.280@email.fr,savasC280,savasC280999,female,C'est trop. ,vegan geek piercing sea mountain sport tv,model-3362457_640.jpg,7-15-1965,48.8805970000005,2.37736800000001,4
halvor,Benard,male,halvor.Benard.281@email.fr,halvorB281,halvorB281999,male,À votre avis ,vegan geek,girl-2491656_640.jpg,8-22-1967,48.778597,2.224368,1
jayna,Hoareau,female,jayna.Hoareau.282@email.fr,jaynaH282,jaynaH282999,male,Je ne parle pas très bien. , ,personification-1508890_640.jpg,7-13-1997,48.9255970000008,2.44486800000001,3
takeshi,Caron,male,takeshi.Caron.283@email.fr,takeshiC283,takeshiC283999,female,A l'aide! ,vegan geek piercing sea mountain sport tv lazy music friends fidelity,actor-6210338_640.jpg,11-14-2004,48.971597000001,2.51386800000001,2
aeron,Pineau,female,aeron.Pineau.284@email.fr,aeronP284,aeronP284999,bisexual,Merci pour tout. ,vegan geek piercing sea mountain,aamir-tameen-867782_640.jpg,9-7-1956,48.7990970000002,2.255118,8
ruby,Brunel,female,ruby.Brunel.285@email.fr,rubyB285,rubyB285999,bisexual,Depuis combien de temps est-ce que tu es ici? ,vegan geek piercing sea mountain sport tv lazy music friends,theater-200716_640.jpg,10-7-1991,48.9565970000009,2.49136800000001,8
johannes,Humbert,male,johannes.Humbert.286@email.fr,johannesH286,johannesH286999,bisexual,D'après moi , ,gregory-peck-90779_640.jpg,11-11-1985,48.9000970000006,2.40661800000001,10
michelina,Daniel,female,michelina.Daniel.287@email.fr,michelinaD287,michelinaD287999,bisexual,J'ai froid. ,vegan geek piercing sea mountain sport tv lazy music friends,woman-1462686_640.jpg,5-18-1976,48.982097000001,2.52961800000001,6
faruq,Roux,male,faruq.Roux.288@email.fr,faruqR288,faruqR288999,female,C'est la première fois que je viens ici. ,vegan geek piercing sea mountain sport tv lazy music,street-performers-870113_640.jpg,9-11-1960,48.8385970000003,2.314368,8
tonya,Leconte,female,tonya.Leconte.289@email.fr,tonyaL289,tonyaL289999,female,Je voudrais connaître / avoir votre réaction face à ,vegan geek piercing sea mountain sport tv lazy music,photoshoot-5107285_640.jpg,9-5-1990,48.9485970000009,2.47936800000001,5
andromache,Michel,female,andromache.Michel.290@email.fr,andromacheM290,andromacheM290999,bisexual,Depuis combien de temps est-ce que tu es ici? ,vegan,man-7291967_640.jpg,10-11-1955,48.8595970000004,2.34586800000001,3
wilfred,Girard,male,wilfred.Girard.291@email.fr,wilfredG291,wilfredG291999,female,Est-ce que votre maison est comme celle-ci? ,vegan geek piercing sea mountain sport tv lazy music,theater-200716_640.jpg,1-24-2001,48.8915970000006,2.39386800000001,7
lleu,Rocher,male,lleu.Rocher.292@email.fr,lleuR292,lleuR292999,male,Ils vont revenir tout de suite. , ,pm-jason-statham.jpg,12-4-1956,48.8070970000002,2.267118,5
hosannah,Fournier,female,hosannah.Fournier.293@email.fr,hosannahF293,hosannahF293999,bisexual,N'importe quoi. , ,man-3252165_640.jpg,3-26-1981,48.8215970000003,2.288868,10
jaden,Lacroix,male,jaden.Lacroix.294@email.fr,jadenL294,jadenL294999,female,Quelle est votre attitude à l'égard de ,vegan geek piercing sea mountain sport tv lazy music,snoop-dog-81879_640.jpg,10-11-1951,48.8510970000004,2.333118,5
emmet,Lombard,male,emmet.Lombard.295@email.fr,emmetL295,emmetL295999,male,Comment va le travail? ,vegan geek piercing sea mountain sport tv lazy music friends,madame-tussauds-1720457_640.jpg,1-18-1990,48.9345970000008,2.45836800000001,10
eutropia,Martel,female,eutropia.Martel.296@email.fr,eutropiaM296,eutropiaM296999,female,Quel films est-ce que tu préfères ? , ,actor-542726_640.jpg,1-15-1953,48.9120970000007,2.42461800000001,1
sroel,Richard,male,sroel.Richard.297@email.fr,sroelR297,sroelR297999,bisexual,Je ne suis pas sûr. ,vegan,marilyn-monroe-555603_640.jpg,4-12-1984,48.7930970000001,2.246118,4
trueman,Brunel,male,trueman.Brunel.298@email.fr,truemanB298,truemanB298999,bisexual,Je pense que c'est très bon. ,vegan geek piercing sea mountain sport tv lazy music friends,men-7050835_640.jpg,6-24-1963,48.9430970000008,2.47111800000001,6
perttu,Deschamps,male,perttu.Deschamps.299@email.fr,perttuD299,perttuD299999,bisexual,Juste un peu. ,vegan geek piercing sea mountain sport tv,street-performers-870113_640.jpg,1-28-1969,48.9625970000009,2.50036800000001,5
preeti,Goncalves,female,preeti.Goncalves.300@email.fr,preetiG300,preetiG300999,bisexual,Il a les yeux marron. ,vegan geek piercing sea mountain sport tv lazy,gregory-peck-90779_640.jpg,9-11-1997,48.7830970000001,2.231118,9
kudret,Mallet,male,kudret.Mallet.301@email.fr,kudretM301,kudretM301999,bisexual,Laisse-moi vérifier. ,vegan geek piercing sea,actor-542726_640.jpg,10-10-1953,48.8060970000002,2.265618,9
greig,Gilles,male,greig.Gilles.302@email.fr,greigG302,greigG302999,male,J'ai entendu parler de , ,marilyn-monroe-555603_640.jpg,6-20-1984,48.8285970000003,2.299368,4
ladislas,Allard,male,ladislas.Allard.303@email.fr,ladislasA303,ladislasA303999,male,Laisse-moi vérifier. ,vegan geek piercing sea mountain sport tv lazy music,men-7050835_640.jpg,12-13-1973,48.8030970000002,2.261118,4
trev,Richard,male,trev.Richard.304@email.fr,trevR304,trevR304999,male,Je crains qu'il ne soit ,vegan geek piercing sea,people-3209886_640.jpg,7-17-1989,48.8810970000005,2.37811800000001,2
catrin,Etienne,female,catrin.Etienne.305@email.fr,catrinE305,catrinE305999,female,Je ne suis pas à même de dire si ,vegan geek piercing sea mountain sport tv lazy music friends fidelity,backstage-951903_640.jpg,6-6-1963,48.8555970000004,2.339868,3
glenna,Marchand,female,glenna.Marchand.306@email.fr,glennaM306,glennaM306999,male,Il est mignon. ,vegan geek piercing,actor-6210338_640.jpg,9-19-1959,48.9135970000007,2.42686800000001,6
aneirin,Menard,male,aneirin.Menard.307@email.fr,aneirinM307,aneirinM307999,male,Selon vous ,vegan geek piercing sea mountain sport tv,man-5757539_640.jpg,6-6-1960,48.8525970000004,2.335368,1
hermogenes,Prevost,male,hermogenes.Prevost.308@email.fr,hermogenesP308,hermogenesP308999,male,Je ne me le suis jamais demandé. ,vegan geek piercing sea mountain sport tv,sonam-prajapati-6893225_640.jpg,5-13-1957,48.7790970000001,2.225118,2
raibeart,Evrard,male,raibeart.Evrard.309@email.fr,raibeartE309,raibeartE309999,female,Pourriez-vous me dire ce que vous pensez de ,vegan geek piercing sea mountain,london-5731175_640.jpg,7-20-1971,48.8745970000005,2.36836800000001,2
karp,Bouvier,male,karp.Bouvier.310@email.fr,karpB310,karpB310999,male,Il est maigre. ,vegan geek piercing sea mountain sport tv,man-6342452_640.jpg,4-6-2002,48.8980970000006,2.40361800000001,10
santos,Carlier,male,santos.Carlier.311@email.fr,santosC311,santosC311999,female,Je reviendrai plus tard. ,vegan geek piercing sea mountain sport tv lazy music,people-3209886_640.jpg,1-13-1997,48.8535970000004,2.336868,4
ahmed,Lacroix,male,ahmed.Lacroix.312@email.fr,ahmedL312,ahmedL312999,male,Pour moi ,vegan geek piercing sea mountain sport tv lazy music,man-8245776_640.webp,11-27-2000,48.8345970000003,2.308368,3
ginny,Schmitt,female,ginny.Schmitt.313@email.fr,ginnyS313,ginnyS313999,male,Elle travaille dur. ,vegan geek piercing sea mountain sport tv,actor-63082_640.jpg,12-16-1956,48.9435970000008,2.47186800000001,10
ing,Carlier,male,ing.Carlier.314@email.fr,ingC314,ingC314999,male,Merci Mademoiselle. ,vegan,humphrey-bogart-male-1278138_640.jpg,5-24-1985,48.9355970000008,2.45986800000001,4
jera,Bonnin,female,jera.Bonnin.315@email.fr,jeraB315,jeraB315999,bisexual,Je pense que c'est très bon. ,vegan geek,humphrey-bogart-male-1278138_640.jpg,8-14-2003,48.8880970000006,2.38861800000001,10
heulwen,Martineau,female,heulwen.Martineau.316@email.fr,heulwenM316,heulwenM316999,female,Est-ce que ton mari est aussi de Boston? ,vegan geek piercing sea mountain sport tv lazy music friends,people-5987395_640.jpg,12-4-1958,48.8910970000006,2.39311800000001,2
deryck,Laporte,male,deryck.Laporte.317@email.fr,deryckL317,deryckL317999,male,Je pense que c'est bon. ,vegan,people-3209886_640.jpg,4-14-1981,48.8240970000003,2.292618,9
libby,Briand,female,libby.Briand.318@email.fr,libbyB318,libbyB318999,male,Est-ce que tu étudies français? ,vegan geek piercing,jorn-schlonvogt-1202320_640.jpg,9-19-1968,48.977097000001,2.52211800000001,1
fadia,Marin,female,fadia.Marin.319@email.fr,fadiaM319,fadiaM319999,male,Je n'en veux pas. , ,head-shoot-1542339_640.jpg,8-27-2002,48.9540970000009,2.48761800000001,5
nilofer,Guilbert,female,nilofer.Guilbert.320@email.fr,niloferG320,niloferG320999,female,Il a de l‘humour. ,vegan geek,groucho-marx-male-1278137_640.jpg,11-26-1996,48.9220970000007,2.43961800000001,6
josette,Voisin,female,josette.Voisin.321@email.fr,josetteV321,josetteV321999,bisexual,Je pense que c'est très bon. ,vegan geek piercing sea mountain,jorn-schlonvogt-1202320_640.jpg,7-1-1982,48.8665970000005,2.35636800000001,5
ithel,Delaunay,male,ithel.Delaunay.322@email.fr,ithelD322,ithelD322999,female,Sans vouloir vous contredire ,vegan geek piercing,kevin-bacon-83495_640.jpg,4-5-1987,48.8740970000005,2.36761800000001,1
guiscard,Duhamel,male,guiscard.Duhamel.323@email.fr,guiscardD323,guiscardD323999,male,Je pensais que les vêtements étaient plus chers. ,vegan geek piercing sea mountain,india-7547363_640.jpg,3-8-1980,48.9060970000007,2.41561800000001,4
babs,Guyon,female,babs.Guyon.324@email.fr,babsG324,babsG324999,bisexual,Réglez ça dehors. ,vegan geek piercing sea mountain sport tv lazy music,london-5731175_640.jpg,10-16-1991,48.8610970000004,2.34811800000001,1
sigvard,Coste,male,sigvard.Coste.325@email.fr,sigvardC325,sigvardC325999,bisexual,Je ne suis pas marié. ,vegan geek,shakespeare-4959130_640.jpg,5-26-1994,48.970097000001,2.51161800000001,3
islay,Delorme,male,islay.Delorme.326@email.fr,islayD326,islayD326999,bisexual,Combien de langues est-ce que tu parles? ,vegan,woman-1462682_640.jpg,8-15-2002,48.7890970000001,2.240118,7
gail,Pierre,female,gail.Pierre.327@email.fr,gailP327,gailP327999,female,Essaie-le/la. ,vegan geek piercing sea mountain sport tv,man-7971966_640.jpg,2-19-2004,48.8650970000005,2.35411800000001,9
iain,Paris,male,iain.Paris.328@email.fr,iainP328,iainP328999,bisexual,Essaie-le/la. ,vegan geek piercing sea mountain sport tv lazy music friends,man-4134645_640.jpg,7-7-1974,48.8585970000004,2.344368,7
raleigh,Bouchet,male,raleigh.Bouchet.329@email.fr,raleighB329,raleighB329999,female,Merci beaucoup. , ,india-7547363_640.jpg,7-1-1972,48.9260970000008,2.44561800000001,7
annunciata,Morin,female,annunciata.Morin.330@email.fr,annunciataM330,annunciataM330999,female,Dépêche-toi! ,vegan geek piercing sea mountain sport tv lazy music friends,woman-7186987_640.jpg,7-2-1981,48.9560970000009,2.49061800000001,7
martie,Nicolas,male,martie.Nicolas.331@email.fr,martieN331,martieN331999,male,Je nettoie ma chambre. ,vegan geek piercing,london-5731175_640.jpg,7-2-1999,48.980597000001,2.52736800000001,3
allyn,Wagner,male,allyn.Wagner.332@email.fr,allynW332,allynW332999,male,Elle est intelligente. ,vegan geek piercing,humphrey-bogart-male-1278138_640.jpg,7-2-1965,48.7920970000001,2.244618,9
kustaa,Lemaitre,male,kustaa.Lemaitre.333@email.fr,kustaaL333,kustaaL333999,male,Mon père y est allé. ,vegan geek piercing sea mountain sport tv lazy music friends,gregory-peck-90779_640.jpg,7-22-1955,48.8255970000003,2.294868,10
fiachna,Goncalves,male,fiachna.Goncalves.334@email.fr,fiachnaG334,fiachnaG334999,female,Je fais une taille huit. ,vegan,shakespeare-4959130_640.jpg,7-11-1977,48.774097,2.217618,3
woodrow,Coulon,male,woodrow.Coulon.335@email.fr,woodrowC335,woodrowC335999,bisexual,Je dois laver mes vêtements. ,vegan geek piercing sea mountain sport tv lazy music friends fidelity,brad-pitt-164880_640.jpg,8-27-1999,48.9360970000008,2.46061800000001,7
irene,Jacquot,female,irene.Jacquot.336@email.fr,ireneJ336,ireneJ336999,male,Elle a les cheveux mi-longs. ,vegan geek piercing sea,kevin-bacon-83495_640.jpg,9-3-1953,48.8535970000004,2.336868,10
brigida,Andre,female,brigida.Andre.337@email.fr,brigidaA337,brigidaA337999,bisexual,Mon fils étudie l'informatique. , ,actor-63082_640.jpg,6-26-1977,48.8940970000006,2.39761800000001,10
opeyemi,Valette,male,opeyemi.Valette.338@email.fr,opeyemiV338,opeyemiV338999,bisexual,Tu es très sympa. ,vegan geek,man-7291967_640.jpg,9-24-1964,48.8050970000002,2.264118,3
eachann,Bernard,male,eachann.Bernard.339@email.fr,eachannB339,eachannB339999,bisexual,Je dois laver mes vêtements. ,vegan geek,fright-7989944_640.jpg,12-16-1972,48.9370970000008,2.46211800000001,5
effie,Guichard,female,effie.Guichard.340@email.fr,effieG340,effieG340999,male,Je n'ai jamais vu ça avant. ,vegan geek piercing,woman-7186987_640.jpg,6-17-1974,48.9020970000006,2.40961800000001,4
vladilen,Clerc,male,vladilen.Clerc.341@email.fr,vladilenC341,vladilenC341999,female,Pourriez-vous me donner / faire savoir votre avis/opinion sur ,vegan geek piercing sea,woman-1462682_640.jpg,11-17-1970,48.7980970000001,2.253618,10
aatto,Favre,male,aatto.Favre.342@email.fr,aattoF342,aattoF342999,male,"Si vous avez besoin de mon aide, faites-le-moi savoir s'il vous plaît. ",vegan geek piercing sea mountain sport tv lazy music friends fidelity,woman-1462682_640.jpg,2-16-1977,48.7850970000001,2.234118,5
gwilym,Salmon,male,gwilym.Salmon.343@email.fr,gwilymS343,gwilymS343999,male,Pratiquons l'anglais. ,vegan geek piercing sea mountain,jorn-schlonvogt-1202320_640.jpg,4-14-1982,48.9010970000006,2.40811800000001,9
victor,Charles,male,victor.Charles.344@email.fr,victorC344,victorC344999,bisexual,Peu importe. ,vegan geek piercing,girl-2491656_640.jpg,8-8-1972,48.8655970000005,2.35486800000001,4
moyra,Bousquet,female,moyra.Bousquet.345@email.fr,moyraB345,moyraB345999,male,Quant à moi ,vegan geek piercing sea mountain sport tv lazy music friends fidelity,people-3230020_640.jpg,5-16-1952,48.7960970000001,2.250618,8
gamal,Evrard,male,gamal.Evrard.346@email.fr,gamalE346,gamalE346999,bisexual,Je préférerais ne pas m'engager ,vegan geek piercing sea mountain sport tv lazy music friends,face-3265605_640.jpg,11-8-1952,48.8750970000005,2.36911800000001,1
yseult,Louis,female,yseult.Louis.347@email.fr,yseultL347,yseultL347999,female,Ça ne marche pas. ,vegan geek piercing sea mountain,businessman-6248246_640.jpg,5-5-1988,48.8290970000003,2.300118,9
jayda,Morel,female,jayda.Morel.348@email.fr,jaydaM348,jaydaM348999,bisexual,Je pense que ,vegan geek piercing sea mountain sport,man-5757539_640.jpg,12-2-1952,48.8240970000003,2.292618,9
klaes,Maurice,male,klaes.Maurice.349@email.fr,klaesM349,klaesM349999,female,J'ai mal à la tête. ,vegan geek piercing,people-3365483_640.jpg,3-23-1956,48.8835970000006,2.38186800000001,8
fionola,Daniel,female,fionola.Daniel.350@email.fr,fionolaD350,fionolaD350999,male,C'est ma mère. ,vegan geek piercing sea mountain,male-model-7686778_640.jpg,4-22-1991,48.9390970000008,2.46511800000001,7
urban,Bouvier,male,urban.Bouvier.351@email.fr,urbanB351,urbanB351999,female,J'ai l'impression que ,vegan geek piercing sea mountain sport tv lazy,madame-tussauds-1720457_640.jpg,7-3-1989,48.9420970000008,2.46961800000001,5
mathieu,Duval,male,mathieu.Duval.352@email.fr,mathieuD352,mathieuD352999,bisexual,Que pensez-vous de ,vegan geek piercing sea mountain sport,actor-2181844_640.jpg,4-2-1997,48.777597,2.222868,1
george,Valentin,male,george.Valentin.353@email.fr,georgeV353,georgeV353999,bisexual,Il est / C'est certain que , ,mask-4985280_640.jpg,7-24-1996,48.8730970000005,2.36611800000001,8
faigel,Le,female,faigel.Le.354@email.fr,faigelL354,faigelL354999,male,J'ai besoin d'aller chez moi. ,vegan geek,fright-7989944_640.jpg,1-26-1968,48.968097000001,2.50861800000001,7
davida,Louis,female,davida.Louis.355@email.fr,davidaL355,davidaL355999,male,Voudriez-vous prendre un message s'il vous plaît? ,vegan geek piercing sea mountain sport tv lazy music friends fidelity,fashion-3057295_640.jpg,10-20-1977,48.7835970000001,2.231868,7
raimonda,Lacoste,female,raimonda.Lacoste.356@email.fr,raimondaL356,raimondaL356999,bisexual,Qui a envoyé cette lettre ? ,vegan geek piercing sea mountain sport tv lazy,like-5321848_640.jpg,2-10-1969,48.8310970000003,2.303118,9
sprita,Perret,female,sprita.Perret.357@email.fr,spritaP357,spritaP357999,bisexual,A quelle école est-ce que tu es allé? ,vegan geek piercing sea mountain sport tv lazy music friends fidelity,woman-1462683_640.jpg,9-16-2000,48.9290970000008,2.45011800000001,6
kuzma,Berger,male,kuzma.Berger.358@email.fr,kuzmaB358,kuzmaB358999,female,Je ne suis pas encore prêt. ,vegan geek piercing sea mountain sport,backstage-951903_640.jpg,1-3-1970,48.7850970000001,2.234118,7
jean-marie,Dupuis,male,jean-marie.Dupuis.359@email.fr,jean-marieD359,jean-marieD359999,male,Il arrive bientôt. ,vegan geek piercing sea mountain sport tv,actor-63082_640.jpg,5-23-1965,48.7980970000001,2.253618,8
wilford,Masson,male,wilford.Masson.360@email.fr,wilfordM360,wilfordM360999,male,Qu'est-ce que tu étudies ? ,vegan geek piercing sea mountain sport tv,actor-63082_640.jpg,12-8-1959,48.8755970000005,2.36986800000001,8
lenora,Pineau,female,lenora.Pineau.361@email.fr,lenoraP361,lenoraP361999,bisexual,Ça suffit. ,vegan geek piercing sea,acteur1.png,9-13-2004,48.9445970000008,2.47336800000001,8
marina,Gaillard,female,marina.Gaillard.362@email.fr,marinaG362,marinaG362999,male,Je ne l'aime pas. ,vegan geek piercing sea mountain sport,man-6342455_640.jpg,1-8-1969,48.8000970000001,2.256618,7
jaynie,Dos,female,jaynie.Dos.363@email.fr,jaynieD363,jaynieD363999,female,Mon père est avocat. ,vegan geek,brett-952561_640.jpg,6-4-1988,48.8745970000005,2.36836800000001,3
taras,Clement,male,taras.Clement.364@email.fr,tarasC364,tarasC364999,bisexual,Selon moi ,vegan geek piercing sea mountain sport,brett-952561_640.jpg,2-9-1989,48.777597,2.222868,9
elpidius,Hubert,male,elpidius.Hubert.365@email.fr,elpidiusH365,elpidiusH365999,female,Combien d'enfants est-ce tu as? ,vegan geek piercing sea mountain sport tv,man-8245776_640.webp,6-15-1970,48.9500970000009,2.48161800000001,1
deimos,Navarro,male,deimos.Navarro.366@email.fr,deimosN366,deimosN366999,male,Juste un moment. ,vegan geek,actor-542726_640.jpg,1-5-1965,48.8735970000005,2.36686800000001,5
alaba,Maurice,female,alaba.Maurice.367@email.fr,alabaM367,alabaM367999,bisexual,Elle est jolie. ,vegan,men-7050835_640.jpg,4-4-1954,48.9645970000009,2.50336800000001,10
lon,Faivre,male,lon.Faivre.368@email.fr,lonF368,lonF368999,male,Qui a envoyé cette lettre ? ,vegan geek piercing sea,groucho-marx-male-1278137_640.jpg,5-6-1956,48.8520970000004,2.334618,8
melba,Roussel,female,melba.Roussel.369@email.fr,melbaR369,melbaR369999,female,Est-ce que tu peux traduire ça pour moi? ,vegan,fashion-3057295_640.jpg,11-5-1975,48.8720970000005,2.36461800000001,1
sofronio,Lebreton,male,sofronio.Lebreton.370@email.fr,sofronioL370,sofronioL370999,female,Je vais le prendre. ,vegan geek piercing sea mountain sport tv lazy music friends fidelity,allan-warren-872631_640.jpg,8-16-1993,48.9300970000008,2.45161800000001,6
caryn,Lebreton,female,caryn.Lebreton.371@email.fr,carynL371,carynL371999,bisexual,J'aimerais / Je voudrais savoir ce que vous pensez de ,vegan geek piercing sea mountain sport,fashion-4746903_640.jpg,5-26-1974,48.8240970000003,2.292618,9
grzegorz,Maury,male,grzegorz.Maury.372@email.fr,grzegorzM372,grzegorzM372999,female,Combien voudrais-tu? ,vegan geek piercing sea mountain sport tv lazy,woman-1462682_640.jpg,11-8-1958,48.8780970000005,2.37361800000001,2
kalla,Julien,female,kalla.Julien.373@email.fr,kallaJ373,kallaJ373999,male,Je n'ai jamais vu ça avant. ,vegan geek,surprise-5321849_640.jpg,7-20-1982,48.9475970000009,2.47786800000001,5
zvi,Vial,male,zvi.Vial.374@email.fr,zviV374,zviV374999,bisexual,Il est lent. ,vegan geek piercing sea mountain sport tv lazy,man-210379_640.jpg,5-20-1985,48.9445970000008,2.47336800000001,5
lorenz,Dumont,male,lorenz.Dumont.375@email.fr,lorenzD375,lorenzD375999,male,Elle a les yeux verts. ,vegan geek,men-7050835_640.jpg,5-9-1969,48.9565970000009,2.49136800000001,1
iole,Chauvet,female,iole.Chauvet.376@email.fr,ioleC376,ioleC376999,male,Il a les cheveux raides. ,vegan geek piercing sea mountain,kevin-bacon-83495_640.jpg,5-23-1988,48.9495970000009,2.48086800000001,10
sophronius,Bouvier,male,sophronius.Bouvier.377@email.fr,sophroniusB377,sophroniusB377999,bisexual,Qui a envoyé cette lettre ? ,vegan geek piercing sea mountain sport tv lazy,fashion-4746903_640.jpg,1-8-1959,48.985097000001,2.53411800000001,5
evgeni,Turpin,male,evgeni.Turpin.378@email.fr,evgeniT378,evgeniT378999,female,Tina a les cheveux bouclés. ,vegan geek piercing sea mountain sport tv lazy,actor-63082_640.jpg,1-24-1975,48.8070970000002,2.267118,3
conleth,Pierre,male,conleth.Pierre.379@email.fr,conlethP379,conlethP379999,female,Je lui dirai que tu as appelé. ,vegan geek piercing sea mountain sport tv lazy music friends,kevin-bacon-83495_640.jpg,5-10-1982,48.9035970000006,2.41186800000001,9
eleazar,Laporte,male,eleazar.Laporte.380@email.fr,eleazarL380,eleazarL380999,female,Je veux seulement un en-cas. ,vegan geek piercing sea mountain sport tv lazy music friends,man-7291967_640.jpg,11-19-1959,48.7800970000001,2.226618,4
tristin,Lesage,male,tristin.Lesage.381@email.fr,tristinL381,tristinL381999,female,C'est bon. ,vegan geek piercing sea mountain sport tv lazy,woman-1462683_640.jpg,5-10-1970,48.8620970000004,2.34961800000001,1
sherley,Henry,female,sherley.Henry.382@email.fr,sherleyH382,sherleyH382999,female,Je n'ai jamais vraiment réfléchi à , ,godfather-4292451_640.jpg,3-18-2003,48.8245970000003,2.293368,10
shanna,Lefevre,female,shanna.Lefevre.383@email.fr,shannaL383,shannaL383999,male,Est-ce que tu as pris tes médicaments? ,vegan geek piercing sea mountain sport tv lazy music,people-3365483_640.jpg,8-11-1983,48.7995970000002,2.255868,8
anicetus,Maurice,male,anicetus.Maurice.384@email.fr,anicetusM384,anicetusM384999,bisexual,A l'aide! ,vegan geek piercing sea mountain sport tv lazy music friends fidelity,model-3362457_640.jpg,2-17-1971,48.9200970000007,2.43661800000001,3
elvira,Benard,female,elvira.Benard.385@email.fr,elviraB385,elviraB385999,female,"Je suis désolé, nous sommes complets. ",vegan geek piercing sea,man-8245776_640.webp,10-14-1973,48.9055970000007,2.41486800000001,2
korey,Guichard,male,korey.Guichard.386@email.fr,koreyG386,koreyG386999,male,Je sais / Nous savons que ,vegan geek piercing,fright-7989944_640.jpg,6-2-1970,48.973097000001,2.51611800000001,6
oddmund,Besnard,male,oddmund.Besnard.387@email.fr,oddmundB387,oddmundB387999,male,Est-ce que ton mari est aussi de Boston? ,vegan geek piercing sea mountain sport tv lazy music,madame-tussauds-1720457_640.jpg,4-19-1951,48.973097000001,2.51611800000001,1
estrella,Klein,female,estrella.Klein.388@email.fr,estrellaK388,estrellaK388999,male,J'allais quitter le restaurant quand mes amis sont arrivés. ,vegan geek piercing sea mountain sport,mask-4985280_640.jpg,5-28-1982,48.8385970000003,2.314368,1
orson,Leroy,male,orson.Leroy.389@email.fr,orsonL389,orsonL389999,male,Je viens te chercher. ,vegan geek piercing sea mountain sport tv lazy music friends,man-7291967_640.jpg,9-6-1997,48.8555970000004,2.339868,9
zakhar,Thibault,male,zakhar.Thibault.390@email.fr,zakharT390,zakharT390999,bisexual,Tu parles le français très bien. ,vegan geek piercing sea mountain sport tv,people-3365483_640.jpg,4-15-1997,48.7780970000001,2.223618,6
humphrey,Delage,male,humphrey.Delage.391@email.fr,humphreyD391,humphreyD391999,bisexual,Essaie-le/la. ,vegan geek piercing sea mountain sport tv lazy music,shakespeare-4959130_640.jpg,1-4-1976,48.9535970000009,2.48686800000001,6
marcos,Rousset,male,marcos.Rousset.392@email.fr,marcosR392,marcosR392999,male,Je suis un Américain. ,vegan geek piercing sea mountain sport tv lazy music,man-210379_640.jpg,5-12-1970,48.9505970000009,2.48236800000001,6
tomer,Goncalves,male,tomer.Goncalves.393@email.fr,tomerG393,tomerG393999,bisexual,J'ignore tout de ,vegan geek piercing sea mountain sport tv lazy music friends,people-5987395_640.jpg,8-6-1950,48.8605970000004,2.34736800000001,7
atarah,Riviere,female,atarah.Riviere.394@email.fr,atarahR394,atarahR394999,bisexual,Sans vouloir vous contredire ,vegan geek piercing sea mountain sport tv lazy,man-5757539_640.jpg,12-18-1993,48.8590970000004,2.34511800000001,10
neriah,Mercier,female,neriah.Mercier.395@email.fr,neriahM395,neriahM395999,bisexual,Il est marrant. ,vegan geek piercing sea,aamir-tameen-867782_640.jpg,6-22-1976,48.8490970000004,2.330118,9
tercero,Vincent,male,tercero.Vincent.396@email.fr,terceroV396,terceroV396999,female,Je suis ici depuis deux jours. ,vegan geek,man-8162325_640.jpg,11-5-1968,48.8360970000003,2.310618,4
haven,Ruiz,female,haven.Ruiz.397@email.fr,havenR397,havenR397999,female,"Je vais bien, et toi? ",vegan geek piercing,personification-1508890_640.jpg,7-4-1962,48.8360970000003,2.310618,2
efisio,Guyon,male,efisio.Guyon.398@email.fr,efisioG398,efisioG398999,male,Plus que ça. ,vegan geek piercing sea mountain sport tv lazy music,jorn-schlonvogt-1202320_640.jpg,9-9-1952,48.8885970000006,2.38936800000001,10
harrison,Bonneau,male,harrison.Bonneau.399@email.fr,harrisonB399,harrisonB399999,female,Elle est courageuse. ,vegan geek piercing sea mountain,theater-200716_640.jpg,10-20-1962,48.9110970000007,2.42311800000001,8
karan,Fleury,male,karan.Fleury.400@email.fr,karanF400,karanF400999,male,J'aimerais connaître / avoir votre réaction face à , ,mask-4985280_640.jpg,11-14-1977,48.973097000001,2.51611800000001,8
stephan,Lebrun,male,stephan.Lebrun.401@email.fr,stephanL401,stephanL401999,female,Non. ,vegan,actor-542726_640.jpg,12-8-1984,48.8625970000004,2.35036800000001,4
aseem,Baudry,male,aseem.Baudry.402@email.fr,aseemB402,aseemB402999,male,Ma fille est ici. ,vegan geek piercing sea,actor-542726_640.jpg,8-1-1998,48.775597,2.219868,10
annunciata,Martineau,female,annunciata.Martineau.403@email.fr,annunciataM403,annunciataM403999,female,Il est / C'est vrai que ,vegan geek piercing sea mountain sport tv lazy music friends,marilyn-monroe-555603_640.jpg,1-9-1971,48.9415970000008,2.46886800000001,5
corrine,Delage,female,corrine.Delage.404@email.fr,corrineD404,corrineD404999,female,Elle a les cheveux mi-longs. ,vegan geek piercing sea mountain sport tv lazy music,actress-825670_640.jpg,11-14-1950,48.7790970000001,2.225118,8
asta,Joseph,female,asta.Joseph.405@email.fr,astaJ405,astaJ405999,bisexual,Tu es plus intelligent que lui. ,vegan geek piercing sea mountain sport tv lazy music friends fidelity,portrait-3359403_640.jpg,9-16-1988,48.8565970000004,2.341368,4
halsten,Jacquot,male,halsten.Jacquot.406@email.fr,halstenJ406,halstenJ406999,bisexual,Donne-moi un coup de fil. ,vegan geek,actor-6311507_640.jpg,8-14-1950,48.8435970000004,2.321868,8
jerri,Baudry,female,jerri.Baudry.407@email.fr,jerriB407,jerriB407999,female,Est-ce qu'il a neigé hier? ,vegan geek piercing sea mountain,man-8245780_640.webp,7-2-1967,48.8910970000006,2.39311800000001,8
charmian,Vincent,female,charmian.Vincent.408@email.fr,charmianV408,charmianV408999,female,Est-ce que tu viens ce soir? , ,humphrey-bogart-male-1278138_640.jpg,4-17-2002,48.980097000001,2.52661800000001,7
marna,Foucher,female,marna.Foucher.409@email.fr,marnaF409,marnaF409999,female,Personnellement , ,brett-952573_640.jpg,3-7-1979,48.8335970000003,2.306868,2
monroe,Allard,male,monroe.Allard.410@email.fr,monroeA410,monroeA410999,bisexual,Quel films est-ce que tu préfères ? ,vegan,ramayana-festival-1807516_640.jpg,7-1-2003,48.978597000001,2.52436800000001,8
sumayya,Roussel,female,sumayya.Roussel.411@email.fr,sumayyaR411,sumayyaR411999,male,Elle est courageuse. ,vegan geek piercing sea mountain,actor-63082_640.jpg,1-12-1968,48.9580970000009,2.49361800000001,1
steren,Boutin,female,steren.Boutin.412@email.fr,sterenB412,sterenB412999,male,"Je vais bien, et toi? ",vegan,actor-63082_640.jpg,12-4-1994,48.7935970000001,2.246868,3
kallias,Lacroix,male,kallias.Lacroix.413@email.fr,kalliasL413,kalliasL413999,female,J'ai mal dans le bras. , ,face-3265605_640.jpg,10-25-1988,48.8285970000003,2.299368,7
meshullam,Barbe,male,meshullam.Barbe.414@email.fr,meshullamB414,meshullamB414999,male,Combien voudrais-tu? ,vegan geek piercing sea mountain sport tv,actor-542726_640.jpg,7-7-1986,48.8275970000003,2.297868,10
arsen,Meyer,male,arsen.Meyer.415@email.fr,arsenM415,arsenM415999,male,Tu es belle. ,vegan geek piercing sea mountain sport tv lazy music friends,man-5757539_640.jpg,10-14-1956,48.8005970000002,2.257368,3
mayra,Gilbert,female,mayra.Gilbert.416@email.fr,mayraG416,mayraG416999,bisexual,J'estime que ,vegan geek piercing sea mountain,woman-1462686_640.jpg,9-25-1960,48.9185970000007,2.43436800000001,6
kennith,Thierry,male,kennith.Thierry.417@email.fr,kennithT417,kennithT417999,male,Bonne idée. ,vegan geek piercing sea mountain sport tv,brett-952579_640.jpg,3-18-1995,48.7780970000001,2.223618,9
myles,Lefevre,male,myles.Lefevre.418@email.fr,mylesL418,mylesL418999,bisexual,Comment ça va? ,vegan geek piercing sea mountain sport tv lazy music friends,woman-7186987_640.jpg,11-28-1996,48.9265970000008,2.44636800000001,3
karolyn,Paul,female,karolyn.Paul.419@email.fr,karolynP419,karolynP419999,male,Il est gros. ,vegan geek piercing sea mountain sport tv lazy music,pm-jason-statham.jpg,10-12-1973,48.9290970000008,2.45011800000001,4
gottfrid,Potier,male,gottfrid.Potier.420@email.fr,gottfridP420,gottfridP420999,male,Tu es belle. ,vegan,actor-63082_640.jpg,4-19-1981,48.770097,2.211618,1
dragomir,Merle,male,dragomir.Merle.421@email.fr,dragomirM421,dragomirM421999,female,Je vais le prendre. , ,man-7971966_640.jpg,8-13-2003,48.8525970000004,2.335368,6
swietoslaw,Bertrand,male,swietoslaw.Bertrand.422@email.fr,swietoslawB422,swietoslawB422999,bisexual,Quelle est votre opinion/avis sur ,vegan geek piercing sea mountain sport tv lazy,mime-4871674_640.jpg,8-11-1964,48.9125970000007,2.42536800000001,7
urjasz,Henry,male,urjasz.Henry.423@email.fr,urjaszH423,urjaszH423999,bisexual,C'est bon. ,vegan geek piercing sea,street-performers-870113_640.jpg,1-1-2000,48.9325970000008,2.45536800000001,2
saifullah,Nicolas,male,saifullah.Nicolas.424@email.fr,saifullahN424,saifullahN424999,male,Combien de langues est-ce que tu parles? ,vegan geek piercing sea mountain sport,woman-1462686_640.jpg,2-7-1995,48.9485970000009,2.47936800000001,4
melpomene,Barre,female,melpomene.Barre.425@email.fr,melpomeneB425,melpomeneB425999,bisexual,Elle a les cheveux ondulés. ,vegan geek piercing sea mountain sport tv lazy,actor-542726_640.jpg,8-17-1999,48.9075970000007,2.41786800000001,7
matheus,Barre,male,matheus.Barre.426@email.fr,matheusB426,matheusB426999,male,Je veux seulement un en-cas. ,vegan,woman-1462682_640.jpg,1-9-1986,48.7960970000001,2.250618,10
folant,Normand,male,folant.Normand.427@email.fr,folantN427,folantN427999,bisexual,Quel films est-ce que tu préfères ? , ,mount-saint-helens-4395977_640.jpg,3-25-1994,48.8085970000002,2.269368,9
edmond,Normand,male,edmond.Normand.428@email.fr,edmondN428,edmondN428999,male,Il est / C'est injuste que ,vegan geek piercing sea mountain,snoop-dog-81879_640.jpg,9-14-1964,48.9355970000008,2.45986800000001,8
valkyrie,Lebrun,female,valkyrie.Lebrun.429@email.fr,valkyrieL429,valkyrieL429999,bisexual,Il est marrant. ,vegan geek piercing sea mountain sport tv lazy music,surprise-5321849_640.jpg,9-6-1979,48.8300970000003,2.301618,2
carley,Germain,female,carley.Germain.430@email.fr,carleyG430,carleyG430999,female,Je pensais que les vêtements étaient plus chers. ,vegan geek piercing sea mountain sport tv lazy music friends,marilyn-monroe-555603_640.jpg,12-7-1950,48.8225970000003,2.290368,8
matthieu,Laporte,male,matthieu.Laporte.431@email.fr,matthieuL431,matthieuL431999,male,Telle est mon opinion sur... ,vegan geek,fright-7989944_640.jpg,9-23-1962,48.8645970000005,2.35336800000001,4
jannike,Lejeune,female,jannike.Lejeune.432@email.fr,jannikeL432,jannikeL432999,bisexual,Est-ce que tu es libre ce soir? ,vegan geek piercing sea mountain sport,people-3230020_640.jpg,2-4-1962,48.9660970000009,2.50561800000001,8
olufemi,Favre,male,olufemi.Favre.433@email.fr,olufemiF433,olufemiF433999,bisexual,Elle est petite. ,vegan geek piercing,groucho-marx-male-1278137_640.jpg,12-12-1992,48.769097,2.210118,10
molly,Joseph,female,molly.Joseph.434@email.fr,mollyJ434,mollyJ434999,bisexual,Je reviendrai plus tard. ,vegan geek piercing sea mountain,drama-1155445_640.jpg,7-22-1953,48.9495970000009,2.48086800000001,4
arabella,Descamps,female,arabella.Descamps.435@email.fr,arabellaD435,arabellaD435999,female,Où est-ce que tu as appris français ? ,vegan geek piercing sea mountain sport tv lazy music,fright-7989944_640.jpg,2-16-1991,48.8885970000006,2.38936800000001,8
ethne,Delorme,female,ethne.Delorme.436@email.fr,ethneD436,ethneD436999,bisexual,Juste un moment. ,vegan geek piercing sea mountain sport tv lazy music friends fidelity,aamir-tameen-867782_640.jpg,9-18-1980,48.8190970000002,2.285118,2
thorburn,Reynaud,male,thorburn.Reynaud.437@email.fr,thorburnR437,thorburnR437999,bisexual,Je viens te chercher. ,vegan geek piercing sea mountain sport tv lazy music friends fidelity,actors-1851317_640.jpg,3-9-1950,48.8630970000005,2.35111800000001,6
osvaldo,Sanchez,male,osvaldo.Sanchez.438@email.fr,osvaldoS438,osvaldoS438999,male,Es-tu français? ,vegan geek piercing,man-6342452_640.jpg,6-22-1985,48.9475970000009,2.47786800000001,9
geraldine,Buisson,female,geraldine.Buisson.439@email.fr,geraldineB439,geraldineB439999,male,Je ne me le suis jamais demandé. ,vegan geek piercing sea mountain sport,jorn-schlonvogt-1202320_640.jpg,4-26-1980,48.8405970000003,2.317368,6
sofija,Da,female,sofija.Da.440@email.fr,sofijaD440,sofijaD440999,female,J'aimerais connaître / avoir votre avis / opinion sur ,vegan geek piercing,actor-6311507_640.jpg,6-2-1969,48.971597000001,2.51386800000001,6
mihhaelo,Pons,male,mihhaelo.Pons.441@email.fr,mihhaeloP441,mihhaeloP441999,female,J'ai deux sœurs. , ,like-5321848_640.jpg,11-10-1974,48.8405970000003,2.317368,2
ora,Fernandez,female,ora.Fernandez.442@email.fr,oraF442,oraF442999,male,J'y suis allé. , ,men-7050835_640.jpg,7-27-1991,48.8305970000003,2.302368,4
lally,Pottier,female,lally.Pottier.443@email.fr,lallyP443,lallyP443999,female,C'est tout. ,vegan,male-model-7686778_640.jpg,1-25-1954,48.9290970000008,2.45011800000001,8
saraswati,Diallo,female,saraswati.Diallo.444@email.fr,saraswatiD444,saraswatiD444999,bisexual,Il est / C'est injuste que ,vegan geek piercing sea mountain sport tv lazy music,fright-7989944_640.jpg,3-14-1960,48.9470970000009,2.47711800000001,6
astrid,Rousset,female,astrid.Rousset.445@email.fr,astridR445,astridR445999,female,Sans vouloir vous contredire ,vegan geek piercing sea mountain sport tv lazy,people-3365483_640.jpg,2-5-1974,48.776597,2.221368,3
usagi,Bourgeois,female,usagi.Bourgeois.446@email.fr,usagiB446,usagiB446999,female,Est-ce que tu te plais ici? ,vegan geek piercing sea mountain sport tv lazy music,jorn-schlonvogt-1202320_640.jpg,2-13-1968,48.8850970000006,2.38411800000001,3
kobe,Chauvet,male,kobe.Chauvet.447@email.fr,kobeC447,kobeC447999,female,"Je vais bien, et toi? ",vegan geek piercing,jorn-schlonvogt-1202320_640.jpg,7-26-1981,48.9170970000007,2.43211800000001,3
mads,Rodrigues,male,mads.Rodrigues.448@email.fr,madsR448,madsR448999,bisexual,Il me semble que ,vegan geek piercing sea mountain sport tv lazy music friends,street-performers-870113_640.jpg,9-3-1998,48.8630970000005,2.35111800000001,4
taneli,Verdier,male,taneli.Verdier.449@email.fr,taneliV449,taneliV449999,male,"Non, c'est la première fois. ",vegan geek piercing,madame-tussauds-1720457_640.jpg,7-8-1977,48.8675970000005,2.35786800000001,2
gerasimos,Coste,male,gerasimos.Coste.450@email.fr,gerasimosC450,gerasimosC450999,bisexual,Quelle est votre opinion/avis sur ,vegan geek piercing sea mountain sport tv lazy music friends,backstage-951903_640.jpg,8-27-1986,48.7900970000001,2.241618,4
hector,Chevalier,male,hector.Chevalier.451@email.fr,hectorC451,hectorC451999,bisexual,Voudriez-vous acheter ça ? ,vegan geek piercing sea mountain,man-7971966_640.jpg,8-13-1980,48.9035970000006,2.41186800000001,2
odin,Ferrand,male,odin.Ferrand.452@email.fr,odinF452,odinF452999,bisexual,Il est / C'est injuste que ,vegan geek piercing sea mountain sport tv,portrait-3204879_640.jpg,6-5-1969,48.9005970000006,2.40736800000001,2
beathan,Perez,male,beathan.Perez.453@email.fr,beathanP453,beathanP453999,male,Elle est timide. ,vegan,actor-63082_640.jpg,10-16-1954,48.8195970000002,2.285868,7
sonya,Raynaud,female,sonya.Raynaud.454@email.fr,sonyaR454,sonyaR454999,bisexual,Elle est amicale. ,vegan geek piercing sea mountain sport tv lazy,girl-2491656_640.jpg,7-16-1958,48.9645970000009,2.50336800000001,9
joshawa,Cousin,male,joshawa.Cousin.455@email.fr,joshawaC455,joshawaC455999,female,Elle est spécialiste. ,vegan geek piercing sea,men-7050835_640.jpg,12-8-2003,48.8360970000003,2.310618,4
ella,Berthelot,female,ella.Berthelot.456@email.fr,ellaB456,ellaB456999,female,Je suis persuadé que ,vegan geek piercing sea mountain sport tv lazy,surprise-5321849_640.jpg,4-20-2004,48.7870970000001,2.237118,8
jeane,Roussel,female,jeane.Roussel.457@email.fr,jeaneR457,jeaneR457999,female,Non. , ,theatre-3966147_640.jpg,9-23-1984,48.984097000001,2.53261800000001,6
jolene,Colas,female,jolene.Colas.458@email.fr,joleneC458,joleneC458999,male,Quels sont tes passe-temps ? ,vegan,yoga-day-4329896_640.jpg,9-25-1951,48.7875970000001,2.237868,5
shankara,Rousseau,male,shankara.Rousseau.459@email.fr,shankaraR459,shankaraR459999,male,Tina a les cheveux bouclés. ,vegan geek piercing sea mountain sport,groucho-marx-male-1278137_640.jpg,11-24-1997,48.7795970000001,2.225868,5
viggo,Delage,male,viggo.Delage.460@email.fr,viggoD460,viggoD460999,bisexual,Elle est jolie. ,vegan geek,people-3209886_640.jpg,9-4-1985,48.8215970000003,2.288868,4
loup,Raynaud,male,loup.Raynaud.461@email.fr,loupR461,loupR461999,female,"Non, je suis américain. ",vegan geek piercing sea mountain,sonam-prajapati-6893225_640.jpg,8-10-1954,48.9020970000006,2.40961800000001,9
naamah,Roussel,female,naamah.Roussel.462@email.fr,naamahR462,naamahR462999,female,Merci pour ton aide. ,vegan geek piercing sea mountain sport,woman-7186987_640.jpg,11-20-1976,48.9430970000008,2.47111800000001,2
cyneburga,Hardy,female,cyneburga.Hardy.463@email.fr,cyneburgaH463,cyneburgaH463999,bisexual,Je me souviens. ,vegan geek piercing,man-6342455_640.jpg,12-16-1980,48.8730970000005,2.36611800000001,7
pip,Maillard,male,pip.Maillard.464@email.fr,pipM464,pipM464999,female,Désolé de vous déranger. ,vegan geek piercing sea,men-7050835_640.jpg,10-5-1965,48.9225970000007,2.44036800000001,2
dean,Bousquet,male,dean.Bousquet.465@email.fr,deanB465,deanB465999,male,Est-ce que tu es libre ce soir? ,vegan geek piercing sea mountain sport tv lazy,man-6342455_640.jpg,2-1-1995,48.7975970000001,2.252868,8
angelia,Guillet,female,angelia.Guillet.466@email.fr,angeliaG466,angeliaG466999,male,Essaie-le/la. ,vegan,portrait-3359403_640.jpg,1-16-1962,48.9325970000008,2.45536800000001,10
jahzeel,Reynaud,male,jahzeel.Reynaud.467@email.fr,jahzeelR467,jahzeelR467999,male,Nik a les cheveux courts. ,vegan geek,man-7291967_640.jpg,1-25-1977,48.9590970000009,2.49511800000001,3
blejan,Guillon,female,blejan.Guillon.468@email.fr,blejanG468,blejanG468999,male,On dit que ,vegan geek piercing sea mountain sport tv lazy music friends,theater-200716_640.jpg,12-5-2004,48.8350970000003,2.309118,5
lowell,Pineau,male,lowell.Pineau.469@email.fr,lowellP469,lowellP469999,bisexual,Quel est votre nom de famille ? ,vegan geek piercing sea mountain sport tv lazy music friends,people-3365483_640.jpg,6-19-1980,48.9155970000007,2.42986800000001,7
brigid,Guichard,female,brigid.Guichard.470@email.fr,brigidG470,brigidG470999,bisexual,Il est très célèbre. ,vegan geek piercing sea mountain sport tv lazy,woman-1462683_640.jpg,5-20-1966,48.9155970000007,2.42986800000001,3
florinda,Lecomte,female,florinda.Lecomte.471@email.fr,florindaL471,florindaL471999,male,Pas récemment. ,vegan geek piercing sea mountain sport tv lazy music friends fidelity,photoshoot-5107285_640.jpg,6-11-1966,48.7865970000001,2.236368,1
sukie,Gautier,female,sukie.Gautier.472@email.fr,sukieG472,sukieG472999,female,Je n'ai jamais vu ça avant. ,vegan geek piercing sea,girl-2491656_640.jpg,9-6-1963,48.8590970000004,2.34511800000001,2
adelle,Payet,female,adelle.Payet.473@email.fr,adelleP473,adelleP473999,bisexual,Je considère que ,vegan geek piercing sea mountain sport tv lazy,sonam-prajapati-6893225_640.jpg,12-24-1962,48.8865970000006,2.38636800000001,5
eldon,Bourdon,male,eldon.Bourdon.474@email.fr,eldonB474,eldonB474999,female,J'ai besoin d'aller chez moi. ,vegan geek piercing sea mountain sport tv,woman-6002459_640.jpg,10-28-1952,48.8135970000002,2.276868,8
alexandrea,Da,female,alexandrea.Da.475@email.fr,alexandreaD475,alexandreaD475999,male,Où est-ce que tu travaillais avant d'être avec nous ici ? ,vegan geek piercing sea mountain,theater-200716_640.jpg,11-1-1954,48.9280970000008,2.44861800000001,3
asia,Royer,female,asia.Royer.476@email.fr,asiaR476,asiaR476999,bisexual,Je dois laver mes vêtements. ,vegan geek piercing sea,brett-952561_640.jpg,5-14-1972,48.8270970000003,2.297118,1
jayna,Didier,female,jayna.Didier.477@email.fr,jaynaD477,jaynaD477999,male,Je suis un Américain. ,vegan,model-3362457_640.jpg,5-3-1994,48.9355970000008,2.45986800000001,5
suman,Maillard,male,suman.Maillard.478@email.fr,sumanM478,sumanM478999,bisexual,Je ne vous entends pas. ,vegan geek piercing sea mountain,pm-jason-statham.jpg,10-15-1986,48.8870970000006,2.38711800000001,5
shelby,Barthelemy,male,shelby.Barthelemy.479@email.fr,shelbyB479,shelbyB479999,bisexual,"Non, je suis américain. ",vegan,actor-6311507_640.jpg,1-22-1956,48.9040970000007,2.41261800000001,3
sappho,Morvan,female,sappho.Morvan.480@email.fr,sapphoM480,sapphoM480999,male,J'espère que vous ferez un bon voyage. ,vegan geek piercing sea mountain sport tv,woman-6002459_640.jpg,12-18-1966,48.8580970000004,2.343618,5
mairenn,Guerin,female,mairenn.Guerin.481@email.fr,mairennG481,mairennG481999,bisexual,laisse-moi y réfléchir. ,vegan geek,madame-tussauds-1720457_640.jpg,4-19-1975,48.8420970000004,2.319618,4
orianne,Lagarde,female,orianne.Lagarde.482@email.fr,orianneL482,orianneL482999,female,Je sors du travail à six heures. ,vegan geek piercing,allan-warren-872631_640.jpg,10-6-2001,48.7870970000001,2.237118,2
trudie,Moulin,female,trudie.Moulin.483@email.fr,trudieM483,trudieM483999,female,Je paierai. , ,actress-825670_640.jpg,9-6-1972,48.9215970000007,2.43886800000001,10
zinovia,Lebon,female,zinovia.Lebon.484@email.fr,zinoviaL484,zinoviaL484999,male,Je suis sûr que ,vegan geek piercing sea mountain sport tv lazy music friends,actress-825670_640.jpg,5-26-1961,48.9135970000007,2.42686800000001,5
lida,Gilles,female,lida.Gilles.485@email.fr,lidaG485,lidaG485999,male,Tina a les cheveux bouclés. ,vegan,backstage-951903_640.jpg,1-28-2004,48.9490970000009,2.48011800000001,8
dunja,Henry,female,dunja.Henry.486@email.fr,dunjaH486,dunjaH486999,male,Quel est votre nom de famille ? ,vegan geek piercing sea mountain sport tv lazy,head-shoot-1542339_640.jpg,3-28-1954,48.9650970000009,2.50411800000001,9
ingram,Lebreton,male,ingram.Lebreton.487@email.fr,ingramL487,ingramL487999,female,Tout dépend de,vegan geek piercing sea mountain sport,india-7547363_640.jpg,3-1-1962,48.8030970000002,2.261118,5
knute,Gaudin,male,knute.Gaudin.488@email.fr,knuteG488,knuteG488999,bisexual,Je dois laver mes vêtements. ,vegan geek piercing sea,businessman-6248246_640.jpg,3-11-1978,48.8740970000005,2.36761800000001,3
mirabella,Leroy,female,mirabella.Leroy.489@email.fr,mirabellaL489,mirabellaL489999,female,C'est pas mal. ,vegan geek piercing,brett-952579_640.jpg,8-5-1999,48.9000970000006,2.40661800000001,10
