prenom,nom,sexe,email,pseudo,password,orientation,bio,interests,profile_picture,date_birth,latitude,longitude,fame_rating
Clothilde,Collin,female,Clothilde.Collin.1@email.fr,ClothildeC1,ClothildeC1999,male,Pour ma part ,"vegan,music,mountain,sport,lazy",14_photo_112233.jpeg,3-1-1966,48.9405970000008,2.46736800000001,10
Claudine,Clerc,female,Claudine.Clerc.2@email.fr,ClaudineC2,ClaudineC2999,female,Laisse-moi vérifier. ,"music,sport,geek",woman-1462682_640.jpg,12-25-1965,48.8255970000003,2.294868,5
Alphonse,Raymond,male,Alphonse.Raymond.3@email.fr,AlphonseR3,AlphonseR3999,male,Je sais / Nous savons que ,"lazy,mountain,vegan,piercing",brett-952579_640.jpg,9-18-2000,48.8760970000005,2.37061800000001,9
Josiane,Guilbert,female,Josiane.Guilbert.4@email.fr,JosianeG4,JosianeG4999,bisexual,À mon avis ,music,93_photo_112233.jpeg,11-15-1980,48.777097,2.222118,6
Onesime,Hardy,male,Onesime.Hardy.5@email.fr,OnesimeH5,OnesimeH5999,female,Elle est paresseuse. ,"vegan,geek,lazy",60_photo_112233.jpeg,9-21-1954,48.9585970000009,2.49436800000001,10
Cosette,Nguyen,female,Cosette.Nguyen.6@email.fr,CosetteN6,CosetteN6999,female,Elle est jolie. ,"tv,piercing,mountain,lazy",106_photo_112233.jpeg,11-4-1953,48.8800970000005,2.37661800000001,3
Orianne,Valentin,female,Orianne.Valentin.7@email.fr,OrianneV7,OrianneV7999,bisexual,Je crains qu'il ne soit ,"friends,lazy,vegan",89_photo_112233.jpeg,4-6-1975,48.8665970000005,2.35636800000001,8
Arlette,Maurice,female,Arlette.Maurice.8@email.fr,ArletteM8,ArletteM8999,male,Je suis malade. ,"sea,tv",72_photo_112233.jpeg,3-16-1972,48.9545970000009,2.48836800000001,6
Pons,Guilbert,male,Pons.Guilbert.9@email.fr,PonsG9,PonsG9999,male,Je sors du travail à six heures. ,"lazy,tv,vegan,piercing",kevin-bacon-83495_640.jpg,10-20-1992,48.9030970000006,2.41111800000001,5
Caroline,Guilbert,female,Caroline.Guilbert.10@email.fr,CarolineG10,CarolineG10999,bisexual,Mon fils étudie l'informatique. ,"lazy,music,sea,sport",woman-7186987_640.jpg,4-5-1957,48.9600970000009,2.49661800000001,10
Marcellin,Potier,male,Marcellin.Potier.11@email.fr,MarcellinP11,MarcellinP11999,female,Combien de personnes est-ce qu'il y a dans ta famille? ,"lazy,geek,friends",backstage-951903_640.jpg,5-3-1989,48.769597,2.210868,4
Nadine,Maury,female,Nadine.Maury.12@email.fr,NadineM12,NadineM12999,female,Excellent. ,"music,lazy,tv,sea",cafe-1699128_640.jpg,6-19-1954,48.9060970000007,2.41561800000001,4
Marguerite,Bouchet,female,Marguerite.Bouchet.13@email.fr,MargueriteB13,MargueriteB13999,bisexual,Juste ici. ,"friends,sport,music,tv,mountain",102_photo_112233.jpeg,2-24-1968,48.9360970000008,2.46061800000001,10
Constantin,Guillet,male,Constantin.Guillet.14@email.fr,ConstantinG14,ConstantinG14999,bisexual,Pourriez-vous me dire ce que vous pensez de ,"piercing,friends",horse-144550_640.jpg,5-8-1962,48.9560970000009,2.49061800000001,2
Marceline,Valentin,female,Marceline.Valentin.15@email.fr,MarcelineV15,MarcelineV15999,male,Il est marrant. ,"sport,tv,mountain,geek,vegan",11_photo_112233.jpeg,5-25-1959,48.9585970000009,2.49436800000001,9
Faustine,Fernandez,female,Faustine.Fernandez.16@email.fr,FaustineF16,FaustineF16999,male,Je ne suis pas occupé. ,vegan,london-5731175_640.jpg,11-15-1958,48.8480970000004,2.328618,3
Amaury,Andre,male,Amaury.Andre.17@email.fr,AmauryA17,AmauryA17999,bisexual,Je n'en veux pas. ,"vegan,music,friends",60_photo_112233.jpeg,2-22-1974,48.8785970000005,2.37436800000001,9
Jeanine,Blanchard,female,Jeanine.Blanchard.18@email.fr,JeanineB18,JeanineB18999,male,J'ai entendu dire que le Texas était beau comme endroit. ,"lazy,mountain,vegan,piercing",ramayana-festival-1807516_640.jpg,11-3-1998,48.8015970000002,2.258868,9
Benoite,Chauveau,female,Benoite.Chauveau.19@email.fr,BenoiteC19,BenoiteC19999,bisexual,Est-ce que tu vas prendre un avion ou un train? ,"geek,vegan,sea",46_photo_112233.jpeg,11-28-1961,48.8535970000004,2.336868,4
Marie,Gerard,female,Marie.Gerard.20@email.fr,MarieG20,MarieG20999,male,Il est gros. ,"geek,piercing,music,mountain",49_photo_112233.jpeg,5-25-1986,48.8800970000005,2.37661800000001,10
Josiane,Guillon,female,Josiane.Guillon.21@email.fr,JosianeG21,JosianeG21999,female,Je voudrais connaître / avoir votre réaction face à ,music,street-performers-870127_640.jpg,6-3-1999,48.8260970000003,2.295618,7
Rosalie,Royer,female,Rosalie.Royer.22@email.fr,RosalieR22,RosalieR22999,female,C'est vrai. ,"geek,mountain,music",69_photo_112233.jpeg,8-5-1983,48.9005970000006,2.40736800000001,7
Eloi,Huet,male,Eloi.Huet.23@email.fr,EloiH23,EloiH23999,bisexual,Merci pour tout. ,"mountain,lazy,music",actor-2181844_640.jpg,9-5-1958,48.8825970000005,2.38036800000001,10
Lucille,Maire,female,Lucille.Maire.24@email.fr,LucilleM24,LucilleM24999,male,Plus que ça. ,sport,101_photo_112233.jpeg,10-1-1979,48.9105970000007,2.42236800000001,8
Bastien,Rousseau,male,Bastien.Rousseau.25@email.fr,BastienR25,BastienR25999,bisexual,"Moi, je... ","friends,vegan,geek,sport,tv",33_photo_112233.jpeg,12-14-1965,48.9255970000008,2.44486800000001,9
Caroline,Bourgeois,female,Caroline.Bourgeois.26@email.fr,CarolineB26,CarolineB26999,female,De temps en temps. ,"tv,music,lazy,vegan,piercing",woman-1462686_640.jpg,2-18-1984,48.8370970000003,2.312118,9
Claire,Perrier,female,Claire.Perrier.27@email.fr,ClaireP27,ClaireP27999,female,Elle est paresseuse. ,"tv,sea",98_photo_112233.jpeg,8-19-1980,48.769597,2.210868,3
Josette,Bertin,female,Josette.Bertin.28@email.fr,JosetteB28,JosetteB28999,male,Je n'ai jamais vu ça avant. ,"sea,piercing,mountain,lazy",people-3209886_640.jpg,12-11-1982,48.7920970000001,2.244618,10
Rainier,Leroy,male,Rainier.Leroy.29@email.fr,RainierL29,RainierL29999,bisexual,J'ai besoin de changer de vêtements. ,"lazy,tv,vegan,piercing,mountain",portrait-3204879_640.jpg,11-1-1985,48.9120970000007,2.42461800000001,7
Delphine,Tessier,female,Delphine.Tessier.30@email.fr,DelphineT30,DelphineT30999,female,Il est grand. ,"sport,music,tv",cafe-1699128_640.jpg,11-8-1985,48.8960970000006,2.40061800000001,6
Gautier,Huet,male,Gautier.Huet.31@email.fr,GautierH31,GautierH31999,bisexual,Je ne veux pas ça. ,"lazy,tv,friends,piercing",38_photo_112233.jpeg,7-20-1997,48.9260970000008,2.44561800000001,4
Fernand,Renault,male,Fernand.Renault.32@email.fr,FernandR32,FernandR32999,female,Est-ce que ton frère est allé en France ? ,"lazy,geek,friends,sea",frank-sinatra-1281484_640.jpg,6-14-1966,48.8990970000006,2.40511800000001,7
Hyacinthe,Bouchet,female,Hyacinthe.Bouchet.33@email.fr,HyacintheB33,HyacintheB33999,female,"Moi, je... ","vegan,tv",5_photo_112233.jpeg,10-3-1987,48.9485970000009,2.47936800000001,2
Roselle,Descamps,female,Roselle.Descamps.34@email.fr,RoselleD34,RoselleD34999,female,Bien sûr. ,"lazy,mountain",like-5321848_640.jpg,4-16-1969,48.8275970000003,2.297868,8
Gaspard,Fouquet,male,Gaspard.Fouquet.35@email.fr,GaspardF35,GaspardF35999,male,Tu parles le français très bien. ,"piercing,sea,sport,friends",kevin-bacon-83495_640.jpg,9-20-2002,48.970597000001,2.51236800000001,2
Marcelle,Devaux,female,Marcelle.Devaux.36@email.fr,MarcelleD36,MarcelleD36999,bisexual,"Je suis désolé, nous sommes complets. ",friends,mask-4985280_640.jpg,9-23-1995,48.9135970000007,2.42686800000001,2
Margot,Millet,female,Margot.Millet.37@email.fr,MargotM37,MargotM37999,female,Je suppose que ,"vegan,music,lazy,sea",32_photo_112233.jpeg,3-3-2002,48.969097000001,2.51011800000001,5
Gilles,Brun,male,Gilles.Brun.38@email.fr,GillesB38,GillesB38999,male,Selon moi ,piercing,6_photo_112233.jpeg,11-6-1952,48.8495970000004,2.330868,3
Nicole,Dupuis,female,Nicole.Dupuis.39@email.fr,NicoleD39,NicoleD39999,female,Elle est intelligente. ,"sea,music,geek,sport,lazy",people-1285245_640.jpg,9-1-1988,48.7905970000001,2.242368,2
Georgine,Roussel,female,Georgine.Roussel.40@email.fr,GeorgineR40,GeorgineR40999,female,"Je suis désolé, nous sommes complets. ","lazy,friends,geek,piercing,tv",ramayana-festival-1807516_640.jpg,7-23-1971,48.776097,2.220618,7
Marcelle,Dumas,female,Marcelle.Dumas.41@email.fr,MarcelleD41,MarcelleD41999,male,Il est / C'est injuste que ,"lazy,mountain,piercing",woman-7186987_640.jpg,7-18-1988,48.8295970000003,2.300868,8
Nathalie,Delorme,female,Nathalie.Delorme.42@email.fr,NathalieD42,NathalieD42999,male,Il est très ennuyeux. ,geek,28_photo_112233.jpeg,1-20-1967,48.7940970000001,2.247618,8
Berthe,Laporte,female,Berthe.Laporte.43@email.fr,BertheL43,BertheL43999,bisexual,Il est sophistiqué. ,"geek,tv,music",1_photo_112233.jpeg,4-26-1991,48.9395970000008,2.46586800000001,3
Ambroise,Fouquet,male,Ambroise.Fouquet.44@email.fr,AmbroiseF44,AmbroiseF44999,bisexual,Donne-moi un coup de fil. ,lazy,58_photo_112233.jpeg,12-16-1977,48.985097000001,2.53411800000001,1
Edwige,Thierry,female,Edwige.Thierry.45@email.fr,EdwigeT45,EdwigeT45999,female,S'il vous plaît emmenez-moi à cette adresse. ,sea,portrait-3359403_640.jpg,7-21-1968,48.9250970000007,2.44411800000001,4
Chantal,Meunier,female,Chantal.Meunier.46@email.fr,ChantalM46,ChantalM46999,male,Est-ce que tu étudies français? ,"music,vegan,sea,lazy,mountain",63_photo_112233.jpeg,1-19-1998,48.8070970000002,2.267118,9
Philippe,Delmas,male,Philippe.Delmas.47@email.fr,PhilippeD47,PhilippeD47999,female,J'ai acheté une chemise hier. ,"tv,mountain",portrait-3241737_640.jpg,7-15-1970,48.8015970000002,2.258868,8
Virginie,Charrier,female,Virginie.Charrier.48@email.fr,VirginieC48,VirginieC48999,bisexual,C'est vrai. ,geek,sonam-prajapati-6893225_640.jpg,11-4-1986,48.9255970000008,2.44486800000001,9
Jean-baptiste,Duhamel,male,Jean-baptiste.Duhamel.49@email.fr,Jean-baptisteD49,Jean-baptisteD49999,female,Je suis content. ,"piercing,sea,geek",charles-chaplin-3521070_640.jpg,11-11-1982,48.9030970000006,2.41111800000001,2
Zacharie,Pereira,male,Zacharie.Pereira.50@email.fr,ZacharieP50,ZacharieP50999,male,Quel films est-ce que tu préfères ? ,"vegan,piercing,tv,music",64_photo_112233.jpeg,3-6-1985,48.8165970000002,2.281368,4
Noella,Maillard,female,Noella.Maillard.51@email.fr,NoellaM51,NoellaM51999,bisexual,Pour ma part ,"geek,piercing,music,sport,tv",67_photo_112233.jpeg,3-6-2004,48.972097000001,2.51461800000001,8
Lucie,Leclerc,female,Lucie.Leclerc.52@email.fr,LucieL52,LucieL52999,female,Elle est courageuse. ,"tv,mountain",portrait-3359403_640.jpg,1-26-1995,48.9465970000009,2.47636800000001,1
Yolande,Renard,female,Yolande.Renard.53@email.fr,YolandeR53,YolandeR53999,female,Je n'ai pas peur. ,"vegan,lazy,sea",39_photo_112233.jpeg,3-2-1981,48.8535970000004,2.336868,7
Olivier,Wagner,male,Olivier.Wagner.54@email.fr,OlivierW54,OlivierW54999,female,J'imagine que ,"geek,tv",model-5176707_640.jpg,7-7-1980,48.8365970000003,2.311368,9
Eloi,Martineau,male,Eloi.Martineau.55@email.fr,EloiM55,EloiM55999,male,C'est trop. ,"vegan,tv,lazy",portrait-3060106_640.jpg,2-27-1984,48.8955970000006,2.39986800000001,5
Carole,Lebrun,female,Carole.Lebrun.56@email.fr,CaroleL56,CaroleL56999,male,Tu es plus intelligent que lui. ,"vegan,music,tv",drama-1155445_640.jpg,1-1-2000,48.9615970000009,2.49886800000001,4
Charlot,Vial,male,Charlot.Vial.57@email.fr,CharlotV57,CharlotV57999,female,Ils vont revenir tout de suite. ,piercing,man-3252165_640.jpg,8-7-1997,48.9380970000008,2.46361800000001,10
Dion,Sanchez,male,Dion.Sanchez.58@email.fr,DionS58,DionS58999,male,C'est une question de point de vue. ,"music,lazy,tv,sea",103_photo_112233.jpeg,6-12-1976,48.9515970000009,2.48386800000001,1
Christelle,Collin,female,Christelle.Collin.59@email.fr,ChristelleC59,ChristelleC59999,bisexual,J'aimerais connaître / avoir votre réaction face à ,"tv,geek",actor-542726_640.jpg,3-12-2003,48.8050970000002,2.264118,1
Auguste,Pinto,male,Auguste.Pinto.60@email.fr,AugusteP60,AugusteP60999,female,"Non, c'est la première fois. ","music,mountain,sport,piercing",96_photo_112233.jpeg,7-5-1952,48.9255970000008,2.44486800000001,7
Florentin,Renard,male,Florentin.Renard.61@email.fr,FlorentinR61,FlorentinR61999,female,Tu te sens mieux? ,"sport,tv,sea,friends,mountain",aamir-tameen-867782_640.jpg,10-2-2004,48.8835970000006,2.38186800000001,9
Cosette,Barthelemy,female,Cosette.Barthelemy.62@email.fr,CosetteB62,CosetteB62999,female,Je ne sais pas m'en servir. ,"piercing,geek,friends,tv",mask-4985280_640.jpg,1-10-1983,48.8745970000005,2.36836800000001,8
Yves,Launay,male,Yves.Launay.63@email.fr,YvesL63,YvesL63999,male,Laisse-moi vérifier. ,"sea,music,piercing,tv,friends",42_photo_112233.jpeg,8-15-1974,48.8705970000005,2.36236800000001,4
Guillaume,Duhamel,male,Guillaume.Duhamel.64@email.fr,GuillaumeD64,GuillaumeD64999,female,Elle a les cheveux ondulés. ,friends,94_photo_112233.jpeg,9-16-1976,48.9505970000009,2.48236800000001,3
Luc,Rodrigues,male,Luc.Rodrigues.65@email.fr,LucR65,LucR65999,male,Je pense que c'est très bon. ,"mountain,music",19_photo_112233.jpeg,5-8-2000,48.9160970000007,2.43061800000001,7
Luce,Guyot,female,Luce.Guyot.66@email.fr,LuceG66,LuceG66999,male,ma grand-mère est décédée l'année dernière. ,"music,lazy,vegan",26_photo_112233.jpeg,6-27-1974,48.8190970000002,2.285118,3
Lucinde,Garcia,female,Lucinde.Garcia.67@email.fr,LucindeG67,LucindeG67999,male,Je suis certain que ,"sea,friends,piercing",39_photo_112233.jpeg,11-6-2002,48.9675970000009,2.50786800000001,2
Gabrielle,Durand,female,Gabrielle.Durand.68@email.fr,GabrielleD68,GabrielleD68999,female,Il est patient. ,"tv,music",90_photo_112233.jpeg,11-11-2004,48.8675970000005,2.35786800000001,4
Lucile,Vincent,female,Lucile.Vincent.69@email.fr,LucileV69,LucileV69999,female,Je ne suis pas sûr. ,"sea,geek",90_photo_112233.jpeg,3-19-1980,48.8515970000004,2.333868,3
Gratien,Lebon,male,Gratien.Lebon.70@email.fr,GratienL70,GratienL70999,bisexual,Je ne comprends pas. ,"mountain,piercing,friends,music,tv",man-6342452_640.jpg,11-24-1957,48.778597,2.224368,10
Madeleine,Schneider,female,Madeleine.Schneider.71@email.fr,MadeleineS71,MadeleineS71999,male,Combien voudrais-tu? ,"music,lazy,sea,sport",21_photo_112233.jpeg,8-15-1989,48.8540970000004,2.337618,1
Morgane,Delaunay,female,Morgane.Delaunay.72@email.fr,MorganeD72,MorganeD72999,female,Travailles-tu demain? ,"sea,music,mountain,lazy,vegan",head-shoot-1542339_640.jpg,12-2-1986,48.9220970000007,2.43961800000001,10
Henri,Dumont,male,Henri.Dumont.73@email.fr,HenriD73,HenriD73999,male,Il est agréable ,geek,man-6342455_640.jpg,7-25-1972,48.9370970000008,2.46211800000001,3
Noelle,Salmon,female,Noelle.Salmon.74@email.fr,NoelleS74,NoelleS74999,bisexual,Comment percevez-vous ,"piercing,geek",head-shoot-1542339_640.jpg,12-24-2002,48.9405970000008,2.46736800000001,8
Noella,Guillot,female,Noella.Guillot.75@email.fr,NoellaG75,NoellaG75999,female,De temps en temps. ,"sea,tv",theatre-3966147_640.jpg,9-19-1999,48.9640970000009,2.50261800000001,5
Paule,Jacob,female,Paule.Jacob.76@email.fr,PauleJ76,PauleJ76999,bisexual,Rien d'autre. ,"mountain,geek,sea,music",london-5731175_640.jpg,2-15-1988,48.8020970000002,2.259618,8
Theirn,Paris,male,Theirn.Paris.77@email.fr,TheirnP77,TheirnP77999,female,Qu'est-ce que tu vas faire ce soir ? ,vegan,mountain-5823822_640.jpg,11-3-1963,48.773097,2.216118,6
Denise,Delorme,female,Denise.Delorme.78@email.fr,DeniseD78,DeniseD78999,bisexual,Je voudrais connaître / avoir votre avis / opinion sur ,"geek,sport,friends,sea",12_photo_112233.jpeg,5-13-1955,48.777097,2.222118,7
Gaspard,Rodriguez,male,Gaspard.Rodriguez.79@email.fr,GaspardR79,GaspardR79999,female,Ça a l'air super. ,"friends,tv,music,lazy,sport",kevin-bacon-83495_640.jpg,1-12-1989,48.7915970000001,2.243868,6
Armel,Auger,male,Armel.Auger.80@email.fr,ArmelA80,ArmelA80999,bisexual,Pourrais-je parler à madame Smith s'il vous plaît? ,"sport,geek,sea,lazy,piercing",street-performers-870113_640.jpg,12-24-1975,48.8880970000006,2.38861800000001,8
Jean-baptiste,Breton,male,Jean-baptiste.Breton.81@email.fr,Jean-baptisteB81,Jean-baptisteB81999,female,Ça suffit. ,friends,79_photo_112233.jpeg,7-23-1982,48.8955970000006,2.39986800000001,4
Arlette,Marin,female,Arlette.Marin.82@email.fr,ArletteM82,ArletteM82999,female,Est-ce que tu veux venir avec moi? ,"vegan,sea,tv",theater-200716_640.jpg,12-26-1962,48.9645970000009,2.50336800000001,6
Nathalie,Lacoste,female,Nathalie.Lacoste.83@email.fr,NathalieL83,NathalieL83999,female,Quel films est-ce que tu préfères ? ,"lazy,vegan",actor-542726_640.jpg,9-22-2002,48.8200970000002,2.286618,6
Thibault,Camus,male,Thibault.Camus.84@email.fr,ThibaultC84,ThibaultC84999,male,Je ne me le suis jamais demandé. ,"lazy,tv,friends,piercing,sport",48_photo_112233.jpeg,5-3-1953,48.9495970000009,2.48086800000001,5
Prosper,Hoarau,male,Prosper.Hoarau.85@email.fr,ProsperH85,ProsperH85999,bisexual,Je ne pense pas ,"piercing,geek",godfather-4292451_640.jpg,7-4-1998,48.8635970000005,2.35186800000001,1
Godelieve,Ferreira,male,Godelieve.Ferreira.86@email.fr,GodelieveF86,GodelieveF86999,bisexual,Qui a envoyé cette lettre ? ,music,charles-chaplin-3521070_640.jpg,11-1-1984,48.9530970000009,2.48611800000001,2
Lucien,Grondin,male,Lucien.Grondin.87@email.fr,LucienG87,LucienG87999,bisexual,Elle est jolie. ,tv,88_photo_112233.jpeg,6-10-1984,48.974597000001,2.51836800000001,9
Gaspard,Joly,male,Gaspard.Joly.88@email.fr,GaspardJ88,GaspardJ88999,male,J'estime que ,"friends,sea,tv",7_photo_112233.jpeg,9-12-1988,48.9215970000007,2.43886800000001,7
Anne,Roy,female,Anne.Roy.89@email.fr,AnneR89,AnneR89999,bisexual,"Non, je suis américain. ","vegan,music,mountain,sport,lazy",44_photo_112233.jpeg,8-14-1993,48.9510970000009,2.48311800000001,8
Modestine,Picard,male,Modestine.Picard.90@email.fr,ModestineP90,ModestineP90999,female,J'imagine que ,"mountain,music",mountain-5823822_640.jpg,12-24-1955,48.8730970000005,2.36611800000001,7
Cesaire,Martinez,male,Cesaire.Martinez.91@email.fr,CesaireM91,CesaireM91999,female,Tu es très intelligent. ,"vegan,geek,lazy,friends",people-3230020_640.jpg,1-19-1985,48.9585970000009,2.49436800000001,4
Gaston,Lambert,male,Gaston.Lambert.92@email.fr,GastonL92,GastonL92999,female,Je n'ai pas peur. ,"lazy,vegan,piercing,friends,sea",29_photo_112233.jpeg,7-8-1963,48.9095970000007,2.42086800000001,7
Odette,Normand,female,Odette.Normand.93@email.fr,OdetteN93,OdetteN93999,bisexual,Ma fille est ici. ,vegan,ramayana-festival-1807516_640.jpg,8-7-1953,48.9275970000008,2.44786800000001,1
Cerise,Bonnin,female,Cerise.Bonnin.94@email.fr,CeriseB94,CeriseB94999,male,Il est gros. ,"vegan,piercing,music",35_photo_112233.jpeg,9-11-1978,48.978597000001,2.52436800000001,1
Axelle,Lefort,female,Axelle.Lefort.95@email.fr,AxelleL95,AxelleL95999,male,Est-ce que tu fais du sport? ,sport,actress-825670_640.jpg,9-20-1953,48.8080970000002,2.268618,8
Marceline,Boulanger,female,Marceline.Boulanger.96@email.fr,MarcelineB96,MarcelineB96999,male,Elle est pauvre. ,"friends,tv,sea,vegan",63_photo_112233.jpeg,8-6-1976,48.7815970000001,2.228868,4
Yseult,Garcia,female,Yseult.Garcia.97@email.fr,YseultG97,YseultG97999,bisexual,Il me semble que ,"piercing,sea,geek",woman-7186987_640.jpg,12-28-1986,48.7950970000001,2.249118,1
Roxane,Chevalier,female,Roxane.Chevalier.98@email.fr,RoxaneC98,RoxaneC98999,bisexual,Il est mal élevé. ,"tv,geek,music",90_photo_112233.jpeg,9-25-1994,48.9095970000007,2.42086800000001,4
Gaston,Prevost,male,Gaston.Prevost.99@email.fr,GastonP99,GastonP99999,male,Santé! ,"mountain,lazy",38_photo_112233.jpeg,5-24-2003,48.8970970000006,2.40211800000001,1
Arnaude,Collin,female,Arnaude.Collin.100@email.fr,ArnaudeC100,ArnaudeC100999,bisexual,Pourriez-vous me dire ce que vous pensez de ,"friends,tv,music,sport,sea",106_photo_112233.jpeg,9-25-1971,48.969097000001,2.51011800000001,10
Laurette,Girard,female,Laurette.Girard.101@email.fr,LauretteG101,LauretteG101999,bisexual,Maria a les cheveux couleur noisette. ,"friends,mountain,lazy,tv",90_photo_112233.jpeg,4-19-2001,48.7955970000001,2.249868,8
Rosette,Bonnet,female,Rosette.Bonnet.102@email.fr,RosetteB102,RosetteB102999,female,Il a le teint clair. ,"friends,sea,geek",61_photo_112233.jpeg,4-28-1984,48.9605970000009,2.49736800000001,3
Alphonse,Baron,male,Alphonse.Baron.103@email.fr,AlphonseB103,AlphonseB103999,male,Combien voudrais-tu? ,"piercing,mountain",95_photo_112233.jpeg,2-27-1977,48.8830970000006,2.38111800000001,3
Luce,Descamps,female,Luce.Descamps.104@email.fr,LuceD104,LuceD104999,female,Combien de personnes est-ce qu'il y a dans ta famille? ,music,portrait-3359403_640.jpg,6-15-1964,48.773597,2.216868,6
Ambroise,Morel,male,Ambroise.Morel.105@email.fr,AmbroiseM105,AmbroiseM105999,male,Je t’emmènerai à l'arrêt de bus. ,tv,2_photo_112233.jpeg,4-24-1950,48.8355970000003,2.309868,2
Juste,Peltier,male,Juste.Peltier.106@email.fr,JusteP106,JusteP106999,female,Qu'est-ce que tu vas faire ce soir ? ,"sport,mountain,music,vegan",people-3224723_640.jpg,8-12-1979,48.9040970000007,2.41261800000001,8
Christelle,Girard,female,Christelle.Girard.107@email.fr,ChristelleG107,ChristelleG107999,bisexual,Si vous voulez mon opinion/avis ,"vegan,sport,friends,tv",81_photo_112233.jpeg,4-3-1995,48.982597000001,2.53036800000001,10
Lunete,Pereira,female,Lunete.Pereira.108@email.fr,LuneteP108,LuneteP108999,bisexual,N'importe quoi. ,"friends,sport,music,piercing,vegan",13_photo_112233.jpeg,9-26-2003,48.983097000001,2.53111800000001,3
Yseult,Boucher,female,Yseult.Boucher.109@email.fr,YseultB109,YseultB109999,female,Il m'est impossible de donner un avis (définitif) sur ,"sport,vegan",people-1285245_640.jpg,3-22-1970,48.8605970000004,2.34736800000001,4
Christelle,Pasquier,female,Christelle.Pasquier.110@email.fr,ChristelleP110,ChristelleP110999,bisexual,Il a les yeux bleus. ,"piercing,vegan",woman-6002459_640.jpg,3-13-1959,48.773097,2.216118,7
Loup,Caron,male,Loup.Caron.111@email.fr,LoupC111,LoupC111999,male,Pourriez-vous me donner / faire savoir votre réaction face à ,music,gregory-peck-90779_640.jpg,12-17-1997,48.7865970000001,2.236368,10
Odette,Boulanger,female,Odette.Boulanger.112@email.fr,OdetteB112,OdetteB112999,female,Ça sent mauvais. ,vegan,street-performers-870119_640.jpg,4-18-1993,48.8095970000002,2.270868,10
Maxime,Bouchet,male,Maxime.Bouchet.113@email.fr,MaximeB113,MaximeB113999,female,Cette voiture ressemble à ma voiture. ,"music,geek,sport,tv,vegan",109_photo_112233.jpeg,2-22-2002,48.8530970000004,2.336118,10
Telesphore,Lopes,male,Telesphore.Lopes.114@email.fr,TelesphoreL114,TelesphoreL114999,female,Quelle est votre opinion/avis sur ,sport,100_photo_112233.jpeg,7-24-1972,48.8565970000004,2.341368,8
Gwenaelle,Le,female,Gwenaelle.Le.115@email.fr,GwenaelleL115,GwenaelleL115999,male,Depuis combien de temps est tu es en France? ,sport,101_photo_112233.jpeg,1-26-1977,48.9165970000007,2.43136800000001,5
Renaud,Perret,male,Renaud.Perret.116@email.fr,RenaudP116,RenaudP116999,male,J'ai entendu dire que le Texas était beau comme endroit. ,sport,snoop-dog-81879_640.jpg,9-26-1986,48.8840970000006,2.38261800000001,7
Rolande,Lebrun,female,Rolande.Lebrun.117@email.fr,RolandeL117,RolandeL117999,bisexual,Je ne suis pas à même de dire si ,"tv,sport,friends,sea,mountain",1_photo_112233.jpeg,10-6-1987,48.7815970000001,2.228868,1
Corinne,Bonneau,female,Corinne.Bonneau.118@email.fr,CorinneB118,CorinneB118999,male,Il me semble que ,sport,fashion-3057295_640.jpg,12-7-1993,48.8585970000004,2.344368,10
Jeannot,Lacroix,male,Jeannot.Lacroix.119@email.fr,JeannotL119,JeannotL119999,female,Est-ce que tu étudies français? ,"mountain,tv,friends",30_photo_112233.jpeg,11-13-1993,48.9250970000007,2.44411800000001,4
Violette,Leclercq,female,Violette.Leclercq.120@email.fr,VioletteL120,VioletteL120999,female,Il a les cheveux raides. ,"tv,sea,geek,friends,music",21_photo_112233.jpeg,2-13-1976,48.8985970000006,2.40436800000001,9
Violette,Toussaint,female,Violette.Toussaint.121@email.fr,VioletteT121,VioletteT121999,male,Je suis marié. ,"friends,mountain,sea,vegan,music",actor-542726_640.jpg,8-9-1993,48.8360970000003,2.310618,5
Benjamine,Moulin,female,Benjamine.Moulin.122@email.fr,BenjamineM122,BenjamineM122999,bisexual,Ce n'est pas juste. ,"sea,geek,lazy,piercing,mountain",46_photo_112233.jpeg,1-23-1952,48.8560970000004,2.340618,4
Claire,Lesage,female,Claire.Lesage.123@email.fr,ClaireL123,ClaireL123999,female,Ils vont revenir tout de suite. ,"piercing,geek,friends",cafe-1699128_640.jpg,3-1-1997,48.770597,2.212368,3
Juliane,Maurice,female,Juliane.Maurice.124@email.fr,JulianeM124,JulianeM124999,male,ma grand-mère est décédée l'année dernière. ,vegan,drama-1155445_640.jpg,12-24-1972,48.9155970000007,2.42986800000001,8
Antoinette,Guillon,female,Antoinette.Guillon.125@email.fr,AntoinetteG125,AntoinetteG125999,female,Tu es très intelligent. ,geek,46_photo_112233.jpeg,2-2-1971,48.8200970000002,2.286618,1
Sabine,Prevost,female,Sabine.Prevost.126@email.fr,SabineP126,SabineP126999,bisexual,J'ai déjà mangé. ,vegan,86_photo_112233.jpeg,10-22-1955,48.8020970000002,2.259618,10
Jeanine,Lombard,female,Jeanine.Lombard.127@email.fr,JeanineL127,JeanineL127999,female,Elle a les cheveux ondulés. ,"lazy,piercing,vegan",69_photo_112233.jpeg,6-15-1971,48.9620970000009,2.49961800000001,1
Loup,Tran,male,Loup.Tran.128@email.fr,LoupT128,LoupT128999,male,J'ai entendu parler de ,lazy,59_photo_112233.jpeg,7-23-1962,48.9650970000009,2.50411800000001,4
Martine,Lebreton,female,Martine.Lebreton.129@email.fr,MartineL129,MartineL129999,bisexual,Il a raison. ,"piercing,sea,geek",woman-1462686_640.jpg,12-26-1957,48.8985970000006,2.40436800000001,2
Cerise,Leclerc,female,Cerise.Leclerc.130@email.fr,CeriseL130,CeriseL130999,bisexual,Je ne suis pas marié. ,"vegan,piercing",51_photo_112233.jpeg,12-15-1958,48.8110970000002,2.273118,4
Henriette,Le,female,Henriette.Le.131@email.fr,HenrietteL131,HenrietteL131999,bisexual,Il est / C'est juste que ,"vegan,lazy,piercing,geek,tv",102_photo_112233.jpeg,11-17-1999,48.7970970000001,2.252118,2
Lucie,Jacquet,female,Lucie.Jacquet.132@email.fr,LucieJ132,LucieJ132999,bisexual,Je ne peux pas m'empêcher de penser que ,"sea,sport",actor-6210338_640.jpg,3-14-1973,48.9045970000007,2.41336800000001,1
Giselle,Hamon,female,Giselle.Hamon.133@email.fr,GiselleH133,GiselleH133999,female,"Je vais bien, et toi? ","music,tv,vegan,lazy,mountain",72_photo_112233.jpeg,4-25-1973,48.8675970000005,2.35786800000001,3
Renaud,Tessier,male,Renaud.Tessier.134@email.fr,RenaudT134,RenaudT134999,bisexual,Il est lent. ,"lazy,geek,friends,music",aamir-tameen-867782_640.jpg,10-6-2004,48.8405970000003,2.317368,7
Roxane,Poulain,female,Roxane.Poulain.135@email.fr,RoxaneP135,RoxaneP135999,bisexual,Je ne suis pas encore prêt. ,"lazy,friends,sport,piercing",105_photo_112233.jpeg,12-16-1959,48.8950970000006,2.39911800000001,2
Paulette,Clerc,female,Paulette.Clerc.136@email.fr,PauletteC136,PauletteC136999,male,D'accord. ,"piercing,mountain,geek,music",21_photo_112233.jpeg,3-20-1964,48.8425970000004,2.320368,10
Pons,Millet,male,Pons.Millet.137@email.fr,PonsM137,PonsM137999,bisexual,C'est trop. ,"tv,sea,sport",91_photo_112233.jpeg,6-20-1985,48.8240970000003,2.292618,10
Rainier,Bruneau,male,Rainier.Bruneau.138@email.fr,RainierB138,RainierB138999,female,C'est Monsieur Smith. ,"sea,sport,vegan,tv,piercing",112_photo_112233.jpeg,2-19-1967,48.8650970000005,2.35411800000001,2
Oriane,Poirier,female,Oriane.Poirier.139@email.fr,OrianeP139,OrianeP139999,male,Quels sont tes passe-temps ? ,"piercing,geek,friends,tv",mask-4985280_640.jpg,3-6-1994,48.9070970000007,2.41711800000001,9
Lucinde,Devaux,female,Lucinde.Devaux.140@email.fr,LucindeD140,LucindeD140999,bisexual,J'ai deux sœurs. ,"sea,friends,piercing",marilyn-monroe-555603_640.jpg,8-11-1966,48.9555970000009,2.48986800000001,8
Caroline,Vial,female,Caroline.Vial.141@email.fr,CarolineV141,CarolineV141999,male,Je sais / Nous savons que ,music,woman-1462682_640.jpg,8-8-1997,48.981097000001,2.52811800000001,5
Edgard,Vasseur,male,Edgard.Vasseur.142@email.fr,EdgardV142,EdgardV142999,bisexual,Merci pour ton aide. ,"friends,tv,sea",man-4134645_640.jpg,2-2-1956,48.9150970000007,2.42911800000001,6
Dion,Bonneau,male,Dion.Bonneau.143@email.fr,DionB143,DionB143999,male,Ils sont très occupés. ,"geek,sport,vegan,music",97_photo_112233.jpeg,9-21-1994,48.9065970000007,2.41636800000001,7
Hyacinthe,Royer,female,Hyacinthe.Royer.144@email.fr,HyacintheR144,HyacintheR144999,bisexual,Je ne peux pas m'empêcher de penser que ,sport,40_photo_112233.jpeg,5-13-2001,48.7925970000001,2.245368,7
Raoul,Normand,male,Raoul.Normand.145@email.fr,RaoulN145,RaoulN145999,male,Nous avons deux garçons et une fille. ,"piercing,friends",mountain-5823822_640.jpg,10-7-1998,48.8680970000005,2.35861800000001,5
Theirn,Da,male,Theirn.Da.146@email.fr,TheirnD146,TheirnD146999,female,Juste ici. ,"friends,sea,music",acteur1.png,5-8-1992,48.9265970000008,2.44636800000001,4
Pascal,Laurent,male,Pascal.Laurent.147@email.fr,PascalL147,PascalL147999,bisexual,Est-ce que tu étudies français? ,"mountain,tv,friends",godfather-4292451_640.jpg,12-10-2000,48.8360970000003,2.310618,4
Romain,Lambert,male,Romain.Lambert.148@email.fr,RomainL148,RomainL148999,bisexual,Il est agréable ,"mountain,friends",100_photo_112233.jpeg,12-9-1997,48.8610970000004,2.34811800000001,10
Mirabelle,Texier,female,Mirabelle.Texier.149@email.fr,MirabelleT149,MirabelleT149999,bisexual,Cette voiture ressemble à ma voiture. ,"vegan,sea",theater-200716_640.jpg,11-9-1968,48.8700970000005,2.36161800000001,10
Marcel,Besnard,male,Marcel.Besnard.150@email.fr,MarcelB150,MarcelB150999,female,A demain. ,"mountain,sport,geek,sea",yoga-day-4329896_640.jpg,1-23-2001,48.8175970000002,2.282868,5
Florianne,Pineau,female,Florianne.Pineau.151@email.fr,FlorianneP151,FlorianneP151999,male,Il est / C'est juste que ,music,101_photo_112233.jpeg,7-16-1971,48.8370970000003,2.312118,3
Marin,Hardy,male,Marin.Hardy.152@email.fr,MarinH152,MarinH152999,male,A demain. ,"mountain,music",Jason_Statham_2018.jpg,7-21-1955,48.8000970000001,2.256618,10
Ninon,Girard,female,Ninon.Girard.153@email.fr,NinonG153,NinonG153999,female,Ma fille est ici. ,"sea,sport,piercing",holland-315604_640.jpg,6-26-1963,48.9340970000008,2.45761800000001,3
Nathalie,Vasseur,female,Nathalie.Vasseur.154@email.fr,NathalieV154,NathalieV154999,male,Tu es plus intelligent que lui. ,"tv,vegan,geek,sport",woman-7186987_640.jpg,1-18-1978,48.968097000001,2.50861800000001,10
Perceval,Fleury,male,Perceval.Fleury.155@email.fr,PercevalF155,PercevalF155999,male,Je pense que ,"vegan,geek,lazy,sport",33_photo_112233.jpeg,2-12-1994,48.9640970000009,2.50261800000001,3
Margot,Navarro,female,Margot.Navarro.156@email.fr,MargotN156,MargotN156999,male,Vraiment? ,sport,surprise-5321849_640.jpg,1-23-1968,48.9420970000008,2.46961800000001,8
Gabrielle,Pinto,female,Gabrielle.Pinto.157@email.fr,GabrielleP157,GabrielleP157999,female,Est-ce que ton mari est aussi de Boston? ,vegan,actress-825670_640.jpg,3-19-1986,48.8570970000004,2.342118,10
Clementine,Marchal,female,Clementine.Marchal.158@email.fr,ClementineM158,ClementineM158999,male,Dis-moi. ,"lazy,tv,vegan,piercing,mountain",49_photo_112233.jpeg,5-1-1993,48.982597000001,2.53036800000001,9
Yseult,Guillot,female,Yseult.Guillot.159@email.fr,YseultG159,YseultG159999,bisexual,Vos affaires sont toutes là. ,piercing,72_photo_112233.jpeg,12-25-1962,48.9520970000009,2.48461800000001,10
Vivienne,Fernandes,female,Vivienne.Fernandes.160@email.fr,VivienneF160,VivienneF160999,female,Combien d'enfants est-ce tu as? ,"lazy,tv,piercing",90_photo_112233.jpeg,10-18-1974,48.8070970000002,2.267118,4
Arnaud,Loiseau,male,Arnaud.Loiseau.161@email.fr,ArnaudL161,ArnaudL161999,male,Elle est riche. ,"vegan,music,mountain,sport,lazy",horse-144550_640.jpg,12-15-2001,48.8495970000004,2.330868,9
Laurentine,Hardy,female,Laurentine.Hardy.162@email.fr,LaurentineH162,LaurentineH162999,female,C'est tout. ,"geek,friends",51_photo_112233.jpeg,3-1-1976,48.8120970000002,2.274618,5
Gratien,Gonzalez,male,Gratien.Gonzalez.163@email.fr,GratienG163,GratienG163999,male,Ça sent mauvais. ,"vegan,lazy",street-performers-870113_640.jpg,4-12-1967,48.9635970000009,2.50186800000001,9
Yves,Blanc,male,Yves.Blanc.164@email.fr,YvesB164,YvesB164999,male,Il est / C'est difficile de ,"lazy,sport,tv",india-7547363_640.jpg,8-22-1974,48.9325970000008,2.45536800000001,10
Vivienne,Bodin,female,Vivienne.Bodin.165@email.fr,VivienneB165,VivienneB165999,male,Je ne me suis jamais vraiment posé la question. ,"piercing,sea,friends",72_photo_112233.jpeg,4-19-1995,48.9615970000009,2.49886800000001,7
Amaury,Brun,male,Amaury.Brun.166@email.fr,AmauryB166,AmauryB166999,male,Est-ce que tu en as un autre? ,piercing,30_photo_112233.jpeg,11-27-1974,48.974097000001,2.51761800000001,6
Francine,Maillard,female,Francine.Maillard.167@email.fr,FrancineM167,FrancineM167999,female,Tu es très sympa. ,"sport,vegan",32_photo_112233.jpeg,1-16-1964,48.8480970000004,2.328618,10
Paulette,Laroche,female,Paulette.Laroche.168@email.fr,PauletteL168,PauletteL168999,female,À votre avis ,"geek,sea",68_photo_112233.jpeg,6-26-1984,48.7890970000001,2.240118,5
Loic,Gaillard,male,Loic.Gaillard.169@email.fr,LoicG169,LoicG169999,male,Je nettoie ma chambre. ,"geek,friends",70_photo_112233.jpeg,11-3-1983,48.9410970000008,2.46811800000001,2
Ghislaine,Bonnin,female,Ghislaine.Bonnin.170@email.fr,GhislaineB170,GhislaineB170999,female,Fais attention en conduisant. ,"music,friends,sport",22_photo_112233.jpeg,11-8-1994,48.8765970000005,2.37136800000001,3
Ouida,Jourdan,female,Ouida.Jourdan.171@email.fr,OuidaJ171,OuidaJ171999,male,"Non, c'est la première fois. ",sea,35_photo_112233.jpeg,8-12-1966,48.9195970000007,2.43586800000001,4
Odette,Chauvet,female,Odette.Chauvet.172@email.fr,OdetteC172,OdetteC172999,male,Que pensez-vous de ,"sea,tv,sport",71_photo_112233.jpeg,12-25-1961,48.9290970000008,2.45011800000001,8
Dion,Hoarau,male,Dion.Hoarau.173@email.fr,DionH173,DionH173999,female,J'espère que vous ferez un bon voyage. ,"sport,sea,lazy",59_photo_112233.jpeg,7-5-1999,48.8835970000006,2.38186800000001,3
Arianne,Baron,female,Arianne.Baron.174@email.fr,ArianneB174,ArianneB174999,female,Ça a l'air super. ,sea,13_photo_112233.jpeg,11-10-1954,48.8125970000002,2.275368,9
Violette,Bailly,female,Violette.Bailly.175@email.fr,VioletteB175,VioletteB175999,bisexual,Arrête! ,"friends,lazy,sea",17_photo_112233.jpeg,9-12-1987,48.9055970000007,2.41486800000001,5
Modestine,Vincent,male,Modestine.Vincent.176@email.fr,ModestineV176,ModestineV176999,bisexual,Je dois dire que ,"geek,mountain,music",face-3265605_640.jpg,3-22-1964,48.8370970000003,2.312118,5
Vienne,Dufour,female,Vienne.Dufour.177@email.fr,VienneD177,VienneD177999,male,Pratiquons l'anglais. ,"music,friends,lazy,piercing",106_photo_112233.jpeg,7-9-1971,48.8280970000003,2.298618,7
Placide,Lemaire,female,Placide.Lemaire.178@email.fr,PlacideL178,PlacideL178999,bisexual,Je voudrais connaître / avoir votre réaction face à ,"geek,mountain,music",21_photo_112233.jpeg,4-20-1996,48.9155970000007,2.42986800000001,3
Marc,Leveque,male,Marc.Leveque.179@email.fr,MarcL179,MarcL179999,male,Tout le monde le sais. ,"sport,sea",face-3265605_640.jpg,4-24-1977,48.9355970000008,2.45986800000001,9
Seraphine,Merle,female,Seraphine.Merle.180@email.fr,SeraphineM180,SeraphineM180999,bisexual,Combien de personnes est-ce qu'il y a dans ta famille? ,"sea,piercing",86_photo_112233.jpeg,10-4-1954,48.8605970000004,2.34736800000001,4
Claire,Lenoir,female,Claire.Lenoir.181@email.fr,ClaireL181,ClaireL181999,bisexual,Je préférerais ne pas m'engager ,"lazy,geek,friends",cafe-1699128_640.jpg,11-15-1987,48.774097,2.217618,2
Fernande,Gaillard,female,Fernande.Gaillard.182@email.fr,FernandeG182,FernandeG182999,bisexual,Il a le teint clair. ,"sport,friends,piercing",11_photo_112233.jpeg,8-18-1981,48.8560970000004,2.340618,5
Zacharie,Garnier,male,Zacharie.Garnier.183@email.fr,ZacharieG183,ZacharieG183999,male,Je dois dire que ,"sport,geek,music,vegan",15_photo_112233.jpeg,6-20-1973,48.7890970000001,2.240118,3
Auguste,Bonnin,male,Auguste.Bonnin.184@email.fr,AugusteB184,AugusteB184999,female,Je ne l'aime pas. ,"sea,geek,lazy,friends",model-5176707_640.jpg,3-4-1958,48.7860970000001,2.235618,7
Oriane,Chauvet,female,Oriane.Chauvet.185@email.fr,OrianeC185,OrianeC185999,male,Est-ce que tu étudies français? ,vegan,head-shoot-1542339_640.jpg,11-14-1985,48.8315970000003,2.303868,3
Georgine,Potier,female,Georgine.Potier.186@email.fr,GeorgineP186,GeorgineP186999,female,Cela dépend de ,"lazy,sport,mountain",34_photo_112233.jpeg,11-11-1959,48.7840970000001,2.232618,10
Sylviane,Courtois,female,Sylviane.Courtois.187@email.fr,SylvianeC187,SylvianeC187999,bisexual,J'allais quitter le restaurant quand mes amis sont arrivés. ,"music,mountain,sport,piercing",1_photo_112233.jpeg,12-26-1968,48.8545970000004,2.338368,10
Suzanne,Lacombe,female,Suzanne.Lacombe.188@email.fr,SuzanneL188,SuzanneL188999,female,Est-ce que ça suffit? ,"sport,music",woman-1462686_640.jpg,10-27-2002,48.8695970000005,2.36086800000001,5
Paschal,Leduc,male,Paschal.Leduc.189@email.fr,PaschalL189,PaschalL189999,male,Chicago est très différente de Boston. ,"geek,lazy,sea,music",people-5987395_640.jpg,6-1-1951,48.971597000001,2.51386800000001,7
Monique,Dos,female,Monique.Dos.190@email.fr,MoniqueD190,MoniqueD190999,male,C'est pas mal. ,"mountain,vegan,lazy,friends",68_photo_112233.jpeg,9-6-1985,48.978597000001,2.52436800000001,7
Yves,Valentin,male,Yves.Valentin.191@email.fr,YvesV191,YvesV191999,female,Je ne suis pas occupé. ,"piercing,friends",portrait-3204879_640.jpg,6-1-1961,48.8160970000002,2.280618,1
Sophie,Brunet,female,Sophie.Brunet.192@email.fr,SophieB192,SophieB192999,female,Je fais une taille huit. ,"lazy,sea,sport,tv,mountain",mount-saint-helens-4395977_640.jpg,6-5-1982,48.9565970000009,2.49136800000001,1
Pascale,Leblanc,female,Pascale.Leblanc.193@email.fr,PascaleL193,PascaleL193999,bisexual,Comment ça va? ,"sport,geek,music,vegan",102_photo_112233.jpeg,12-22-1952,48.8555970000004,2.339868,6
Axelle,Carpentier,female,Axelle.Carpentier.194@email.fr,AxelleC194,AxelleC194999,bisexual,Je ne sais pas m'en servir. ,"piercing,tv,geek,sport,music",11_photo_112233.jpeg,8-18-1995,48.9370970000008,2.46211800000001,2
Matthieu,Bazin,male,Matthieu.Bazin.195@email.fr,MatthieuB195,MatthieuB195999,male,Je suis marié. ,"lazy,geek",man-7971966_640.jpg,12-21-1974,48.7965970000001,2.251368,6
Brice,Carpentier,male,Brice.Carpentier.196@email.fr,BriceC196,BriceC196999,male,Est-ce que tu en as un autre? ,piercing,frank-sinatra-1281484_640.jpg,10-10-1982,48.8655970000005,2.35486800000001,4
Aristide,Alves,male,Aristide.Alves.197@email.fr,AristideA197,AristideA197999,female,J'ai perdu ma montre. ,"vegan,music,friends,geek",filmproduction-485518_640.jpg,8-19-1966,48.9390970000008,2.46511800000001,3
Alexandre,Maurice,male,Alexandre.Maurice.198@email.fr,AlexandreM198,AlexandreM198999,bisexual,Il est / C'est impossible que ,"geek,tv,music,piercing",82_photo_112233.jpeg,10-13-1975,48.9230970000007,2.44111800000001,7
Laurentine,Maillot,female,Laurentine.Maillot.199@email.fr,LaurentineM199,LaurentineM199999,male,Est-ce que vous vendez des médicaments? (magasin) ,"piercing,lazy,sport",12_photo_112233.jpeg,7-7-2000,48.770097,2.211618,10
Doriane,Pinto,female,Doriane.Pinto.200@email.fr,DorianeP200,DorianeP200999,female,Travailles-tu demain? ,"lazy,mountain",actor-542726_640.jpg,1-6-1951,48.9215970000007,2.43886800000001,6
Germain,Laroche,male,Germain.Laroche.201@email.fr,GermainL201,GermainL201999,female,Allons voir. ,"piercing,vegan,sport,friends",56_photo_112233.jpeg,2-11-1952,48.7820970000001,2.229618,10
Nathalie,Vaillant,female,Nathalie.Vaillant.202@email.fr,NathalieV202,NathalieV202999,bisexual,J'ai besoin d'aller chez moi. ,"vegan,tv,lazy",61_photo_112233.jpeg,5-13-1965,48.8795970000005,2.37586800000001,1
Apolline,Leconte,female,Apolline.Leconte.203@email.fr,ApollineL203,ApollineL203999,male,Je sais. ,"lazy,sea",93_photo_112233.jpeg,5-11-1989,48.8165970000002,2.281368,1
Georgine,Leveque,female,Georgine.Leveque.204@email.fr,GeorgineL204,GeorgineL204999,male,À votre avis ,sea,8_photo_112233.jpeg,9-5-1967,48.8265970000003,2.296368,7
Olympe,Salmon,female,Olympe.Salmon.205@email.fr,OlympeS205,OlympeS205999,female,Je n'en veux pas. ,"lazy,sport,friends,tv,geek",fashion-3057295_640.jpg,6-25-1972,48.7855970000001,2.234868,10
Diane,Vincent,female,Diane.Vincent.206@email.fr,DianeV206,DianeV206999,bisexual,Ça ne marche pas. ,"tv,mountain,vegan,sea,music",44_photo_112233.jpeg,10-21-1983,48.979097000001,2.52511800000001,2
Justine,Goncalves,female,Justine.Goncalves.207@email.fr,JustineG207,JustineG207999,bisexual,Elle est plus âgée que moi. ,"geek,sea",14_photo_112233.jpeg,3-9-1993,48.8435970000004,2.321868,1
Rochelle,Camus,female,Rochelle.Camus.208@email.fr,RochelleC208,RochelleC208999,bisexual,J'ai l'impression que ,"music,lazy,tv,sea",like-5321848_640.jpg,8-27-1959,48.7970970000001,2.252118,9
Rainier,Jacquet,male,Rainier.Jacquet.209@email.fr,RainierJ209,RainierJ209999,female,Selon vous ,music,59_photo_112233.jpeg,9-11-1977,48.8610970000004,2.34811800000001,4
Lunete,Georges,female,Lunete.Georges.210@email.fr,LuneteG210,LuneteG210999,male,Fais attention en conduisant. ,"sport,tv,geek",63_photo_112233.jpeg,4-15-1990,48.8570970000004,2.342118,4
Raoul,Delorme,male,Raoul.Delorme.211@email.fr,RaoulD211,RaoulD211999,bisexual,Je ne veux pas te déranger. ,"tv,sport,mountain",man-6342452_640.jpg,3-26-1991,48.8690970000005,2.36011800000001,10
Fabienne,Martins,female,Fabienne.Martins.212@email.fr,FabienneM212,FabienneM212999,male,Bonne idée. ,"sea,sport,piercing",71_photo_112233.jpeg,12-26-2001,48.8420970000004,2.319618,8
Bertrand,Diallo,male,Bertrand.Diallo.213@email.fr,BertrandD213,BertrandD213999,male,"Je vais bien, et toi? ","lazy,mountain",model-5176707_640.jpg,12-28-1963,48.8720970000005,2.36461800000001,8
Adolphe,Maurice,male,Adolphe.Maurice.214@email.fr,AdolpheM214,AdolpheM214999,male,Je suis américain. ,"vegan,music,sport",97_photo_112233.jpeg,3-7-1952,48.8190970000002,2.285118,3
Perceval,Payet,male,Perceval.Payet.215@email.fr,PercevalP215,PercevalP215999,male,Elle est courageuse. ,"music,friends,sport",face-3265605_640.jpg,8-20-1996,48.9585970000009,2.49436800000001,4
Julienne,Delaunay,female,Julienne.Delaunay.216@email.fr,JulienneD216,JulienneD216999,male,Je ne l'aime pas. ,"geek,vegan",69_photo_112233.jpeg,1-28-1981,48.8395970000003,2.315868,3
Blaise,Dupont,male,Blaise.Dupont.217@email.fr,BlaiseD217,BlaiseD217999,female,Merci Monsieur. ,geek,15_photo_112233.jpeg,8-21-1999,48.7935970000001,2.246868,3
Corin,Faivre,male,Corin.Faivre.218@email.fr,CorinF218,CorinF218999,bisexual,Je ne suis pas sûr. ,"sea,geek,lazy",man-6342452_640.jpg,5-15-1976,48.768597,2.209368,9
Micheline,Bazin,female,Micheline.Bazin.219@email.fr,MichelineB219,MichelineB219999,bisexual,Comment ça va? ,"piercing,sea,geek",40_photo_112233.jpeg,10-13-1965,48.8775970000005,2.37286800000001,8
Armand,Lefebvre,male,Armand.Lefebvre.220@email.fr,ArmandL220,ArmandL220999,bisexual,Est-ce que tu vas souvent à Paris? ,music,man-3252165_640.jpg,7-27-1996,48.774597,2.218368,2
Jean-baptiste,Jean,male,Jean-baptiste.Jean.221@email.fr,Jean-baptisteJ221,Jean-baptisteJ221999,male,Désolé de vous déranger. ,"tv,mountain,vegan",55_photo_112233.jpeg,3-14-1977,48.7875970000001,2.237868,5
Jacques,Bourdon,male,Jacques.Bourdon.222@email.fr,JacquesB222,JacquesB222999,bisexual,Quant à moi ,"lazy,sport",smile-1221915_640.jpg,1-15-1965,48.8460970000004,2.325618,7
Ninon,Vallet,female,Ninon.Vallet.223@email.fr,NinonV223,NinonV223999,male,Je ne suis pas occupé. ,vegan,63_photo_112233.jpeg,10-17-1988,48.8050970000002,2.264118,2
Liane,Vallet,female,Liane.Vallet.224@email.fr,LianeV224,LianeV224999,female,Mon fils étudie l'informatique. ,"mountain,tv",61_photo_112233.jpeg,11-6-1983,48.8155970000002,2.279868,7
Madeleine,Pasquier,female,Madeleine.Pasquier.225@email.fr,MadeleineP225,MadeleineP225999,female,Il est / C'est certain que ,"lazy,sea",surprise-5321849_640.jpg,9-13-1964,48.775597,2.219868,2
Fernande,Grenier,female,Fernande.Grenier.226@email.fr,FernandeG226,FernandeG226999,bisexual,Ne t'inquiète pas. ,"vegan,sport,lazy",102_photo_112233.jpeg,5-21-1993,48.775597,2.219868,6
Armel,Valette,male,Armel.Valette.227@email.fr,ArmelV227,ArmelV227999,male,Plus que ça. ,vegan,57_photo_112233.jpeg,1-9-1979,48.9220970000007,2.43961800000001,3
Eloi,Gillet,male,Eloi.Gillet.228@email.fr,EloiG228,EloiG228999,female,Je ne comprends pas. ,lazy,street-performers-870113_640.jpg,1-9-1966,48.8650970000005,2.35411800000001,9
Toussaint,Joly,male,Toussaint.Joly.229@email.fr,ToussaintJ229,ToussaintJ229999,female,Elle est forte. ,"piercing,tv",66_photo_112233.jpeg,5-16-1953,48.8305970000003,2.302368,9
Placide,Martinez,female,Placide.Martinez.230@email.fr,PlacideM230,PlacideM230999,female,Je pense que c'est bon. ,"mountain,geek,tv",like-5321848_640.jpg,6-15-1958,48.8015970000002,2.258868,8
Bertrand,Laporte,male,Bertrand.Laporte.231@email.fr,BertrandL231,BertrandL231999,male,Nik a les cheveux courts. ,"vegan,music,sport",actor-63082_640.jpg,8-12-1990,48.8855970000006,2.38486800000001,8
Julien,Grenier,male,Julien.Grenier.232@email.fr,JulienG232,JulienG232999,male,J'aimerais connaître / avoir votre avis / opinion sur ,sea,india-7547363_640.jpg,8-16-1995,48.7875970000001,2.237868,3
Evrard,Buisson,male,Evrard.Buisson.233@email.fr,EvrardB233,EvrardB233999,female,Ce sont les mêmes. ,"sport,mountain,piercing,lazy",55_photo_112233.jpeg,2-6-1990,48.970597000001,2.51236800000001,7
Gustave,Joly,male,Gustave.Joly.234@email.fr,GustaveJ234,GustaveJ234999,female,Depuis combien de temps est-ce que tu habites ici? ,"mountain,geek",57_photo_112233.jpeg,10-12-1988,48.8380970000003,2.313618,1
Donatien,Bodin,male,Donatien.Bodin.235@email.fr,DonatienB235,DonatienB235999,bisexual,Il est mignon. ,geek,male-model-7686778_640.jpg,1-28-1951,48.7945970000001,2.248368,2
Victorine,Guillou,female,Victorine.Guillou.236@email.fr,VictorineG236,VictorineG236999,male,"Moi, je... ","tv,geek,music",71_photo_112233.jpeg,1-25-1950,48.971597000001,2.51386800000001,3
Emmanuelle,Coste,female,Emmanuelle.Coste.237@email.fr,EmmanuelleC237,EmmanuelleC237999,female,C'est bon. ,"lazy,music,geek",68_photo_112233.jpeg,12-3-1990,48.8520970000004,2.334618,7
Solange,Vasseur,female,Solange.Vasseur.238@email.fr,SolangeV238,SolangeV238999,male,Quel est votre nom de famille ? ,"sport,music,mountain",actor-6210338_640.jpg,11-10-1957,48.7955970000001,2.249868,5
Lucille,Besson,female,Lucille.Besson.239@email.fr,LucilleB239,LucilleB239999,bisexual,Est-ce que ça suffit? ,"mountain,sea,lazy",girl-2491656_640.jpg,11-28-2002,48.9325970000008,2.45536800000001,8
Pascal,Vincent,male,Pascal.Vincent.240@email.fr,PascalV240,PascalV240999,male,Je crois que ,"sea,vegan,piercing,music",18_photo_112233.jpeg,2-17-1951,48.985097000001,2.53411800000001,9
Angeline,Vallet,female,Angeline.Vallet.241@email.fr,AngelineV241,AngelineV241999,bisexual,Ce sont les mêmes. ,music,111_photo_112233.jpeg,11-14-1959,48.9370970000008,2.46211800000001,1
Noel,Pinto,male,Noel.Pinto.242@email.fr,NoelP242,NoelP242999,bisexual,Tu es belle. ,"geek,mountain,tv",humphrey-bogart-male-1278138_640.jpg,4-28-1953,48.8960970000006,2.40061800000001,6
Flavie,Fabre,female,Flavie.Fabre.243@email.fr,FlavieF243,FlavieF243999,male,Il a le teint clair. ,sport,ramayana-festival-1807516_640.jpg,12-17-2002,48.9085970000007,2.41936800000001,9
Christophe,Lopes,male,Christophe.Lopes.244@email.fr,ChristopheL244,ChristopheL244999,male,J'ai mal à la tête. ,mountain,56_photo_112233.jpeg,7-11-1967,48.9575970000009,2.49286800000001,9
Cesaire,Bourgeois,male,Cesaire.Bourgeois.245@email.fr,CesaireB245,CesaireB245999,bisexual,Elle est riche. ,friends,76_photo_112233.jpeg,4-7-2002,48.8370970000003,2.312118,9
Fifi,Didier,female,Fifi.Didier.246@email.fr,FifiD246,FifiD246999,bisexual,Je pense que c'est bon. ,"geek,tv,sport",17_photo_112233.jpeg,9-22-1972,48.8550970000004,2.339118,8
Evrard,Tran,male,Evrard.Tran.247@email.fr,EvrardT247,EvrardT247999,male,Elle a les cheveux ondulés. ,sea,face-3265605_640.jpg,9-27-2003,48.8875970000006,2.38786800000001,4
Jolie,Berthelot,female,Jolie.Berthelot.248@email.fr,JolieB248,JolieB248999,bisexual,Quels sont tes passe-temps ? ,"mountain,tv",like-5321848_640.jpg,9-11-1957,48.8490970000004,2.330118,6
Romain,Hamon,male,Romain.Hamon.249@email.fr,RomainH249,RomainH249999,bisexual,Elle a les cheveux mi-longs. ,"lazy,mountain,vegan,tv,sport",businessman-6248246_640.jpg,12-5-1959,48.9465970000009,2.47636800000001,7
Solange,Noel,female,Solange.Noel.250@email.fr,SolangeN250,SolangeN250999,male,Depuis combien de temps est-ce que tu habites ici? ,"sea,mountain",theatre-3966147_640.jpg,7-12-1950,48.973097000001,2.51611800000001,8
Jeannine,Vial,female,Jeannine.Vial.251@email.fr,JeannineV251,JeannineV251999,female,Dépêche-toi! ,"sea,lazy,friends",37_photo_112233.jpeg,8-27-1958,48.9505970000009,2.48236800000001,10
Caroline,Vial,female,Caroline.Vial.252@email.fr,CarolineV252,CarolineV252999,female,Il est sérieux. ,"lazy,mountain,vegan,tv,sport",like-5321848_640.jpg,3-11-1994,48.982097000001,2.52961800000001,2
Philippine,Seguin,female,Philippine.Seguin.253@email.fr,PhilippineS253,PhilippineS253999,female,Qu'est-ce que tu étudies ? ,"friends,geek,music",street-performers-870119_640.jpg,2-13-1998,48.8625970000004,2.35036800000001,8
Nicolette,Lebreton,female,Nicolette.Lebreton.254@email.fr,NicoletteL254,NicoletteL254999,female,J'ai trente-deux ans. ,"friends,piercing,music,sea,lazy",people-3209886_640.jpg,7-1-1963,48.975097000001,2.51911800000001,3
Raymonde,Boyer,female,Raymonde.Boyer.255@email.fr,RaymondeB255,RaymondeB255999,bisexual,Es-tu français? ,"vegan,music,friends,geek",holland-315604_640.jpg,8-15-1987,48.9025970000006,2.41036800000001,5
Michelle,Dumont,female,Michelle.Dumont.256@email.fr,MichelleD256,MichelleD256999,bisexual,Je suis allergique aux fruits de mer. ,"tv,lazy,geek,sea",21_photo_112233.jpeg,11-19-1998,48.9580970000009,2.49361800000001,2
Baptiste,Ribeiro,male,Baptiste.Ribeiro.257@email.fr,BaptisteR257,BaptisteR257999,male,Ne t'inquiète pas. ,"mountain,tv,friends,vegan,sea",men-7050835_640.jpg,8-21-1980,48.9250970000007,2.44411800000001,8
Loup,Dufour,male,Loup.Dufour.258@email.fr,LoupD258,LoupD258999,male,Je sais / Nous savons que ,"vegan,tv",kevin-bacon-83495_640.jpg,8-17-1974,48.9180970000007,2.43361800000001,4
Damien,Rolland,male,Damien.Rolland.259@email.fr,DamienR259,DamienR259999,bisexual,Est-ce que ton mari est aussi de Boston? ,"lazy,mountain",humphrey-bogart-male-1278138_640.jpg,9-2-1955,48.7985970000001,2.254368,4
Sylvain,Lebrun,male,Sylvain.Lebrun.260@email.fr,SylvainL260,SylvainL260999,male,Ils sont très occupés. ,"sea,mountain",smile-1221915_640.jpg,6-9-1977,48.8260970000003,2.295618,10
Anatole,Texier,male,Anatole.Texier.261@email.fr,AnatoleT261,AnatoleT261999,bisexual,Nous l'aimons beaucoup. ,"sport,lazy",man-6342452_640.jpg,5-20-1989,48.8780970000005,2.37361800000001,5
Edwige,Durand,female,Edwige.Durand.262@email.fr,EdwigeD262,EdwigeD262999,male,Depuis combien de temps est-ce que tu habites ici? ,"sea,vegan,piercing,music",46_photo_112233.jpeg,1-12-1977,48.8890970000006,2.39011800000001,6
Bastien,Morvan,male,Bastien.Morvan.263@email.fr,BastienM263,BastienM263999,male,A ce soir. ,"mountain,vegan,sport,friends",80_photo_112233.jpeg,11-5-2002,48.8280970000003,2.298618,8
Olivier,Perez,male,Olivier.Perez.264@email.fr,OlivierP264,OlivierP264999,bisexual,Je ne suis pas à même de dire si ,"vegan,music,tv",man-7291967_640.jpg,4-23-1993,48.777097,2.222118,9
Philibert,Germain,male,Philibert.Germain.265@email.fr,PhilibertG265,PhilibertG265999,female,Désolé de vous déranger. ,"geek,friends,mountain,sea,lazy",people-5987395_640.jpg,10-16-1972,48.770097,2.211618,6
Ambroise,Royer,male,Ambroise.Royer.266@email.fr,AmbroiseR266,AmbroiseR266999,bisexual,Depuis combien de temps est tu es en France? ,"tv,music,vegan,geek",80_photo_112233.jpeg,9-28-1951,48.8645970000005,2.35336800000001,8
Avril,Barre,female,Avril.Barre.267@email.fr,AvrilB267,AvrilB267999,bisexual,Santé! ,"tv,music,vegan,geek",street-performers-870119_640.jpg,6-8-1995,48.8400970000003,2.316618,4
Germaine,Briand,female,Germaine.Briand.268@email.fr,GermaineB268,GermaineB268999,male,Je pensais que les vêtements étaient plus chers. ,"sport,vegan",85_photo_112233.jpeg,10-7-1977,48.9375970000008,2.46286800000001,6
Onesime,Guichard,male,Onesime.Guichard.269@email.fr,OnesimeG269,OnesimeG269999,male,Vos affaires sont toutes là. ,sea,male-model-7686778_640.jpg,4-7-1969,48.8180970000002,2.283618,6
Charlot,Buisson,male,Charlot.Buisson.270@email.fr,CharlotB270,CharlotB270999,male,J'ai soif. ,"music,friends,geek,sport,lazy",man-7291967_640.jpg,4-13-1966,48.8415970000004,2.318868,7
Marise,Morvan,female,Marise.Morvan.271@email.fr,MariseM271,MariseM271999,male,Elle est forte. ,"tv,geek,music",20_photo_112233.jpeg,11-24-2001,48.9435970000008,2.47186800000001,3
Marguerite,Meunier,female,Marguerite.Meunier.272@email.fr,MargueriteM272,MargueriteM272999,female,Ils sont très occupés. ,sea,20_photo_112233.jpeg,3-15-1966,48.8165970000002,2.281368,6
Prosper,Germain,male,Prosper.Germain.273@email.fr,ProsperG273,ProsperG273999,bisexual,C'est dommage. ,"mountain,sea,lazy",19_photo_112233.jpeg,3-9-1979,48.9215970000007,2.43886800000001,6
Arianne,Couturier,female,Arianne.Couturier.274@email.fr,ArianneC274,ArianneC274999,female,Est-ce que tu vas souvent à Paris? ,"lazy,friends,geek,piercing,tv",holland-315604_640.jpg,8-13-1988,48.9585970000009,2.49436800000001,3
Marielle,Godard,female,Marielle.Godard.275@email.fr,MarielleG275,MarielleG275999,female,Tu es très sympa. ,"mountain,geek",22_photo_112233.jpeg,2-23-1964,48.8985970000006,2.40436800000001,6
Cerise,Hamon,female,Cerise.Hamon.276@email.fr,CeriseH276,CeriseH276999,female,J'ai l'idée que ,"mountain,music,tv,sport",90_photo_112233.jpeg,11-6-1973,48.976097000001,2.52061800000001,9
Myriam,Klein,female,Myriam.Klein.277@email.fr,MyriamK277,MyriamK277999,male,J'imagine que ,"lazy,geek,piercing,music,sport",drama-1155445_640.jpg,11-16-1998,48.9100970000007,2.42161800000001,1
Jean-baptiste,Deschamps,male,Jean-baptiste.Deschamps.278@email.fr,Jean-baptisteD278,Jean-baptisteD278999,bisexual,Bien sûr. ,mountain,41_photo_112233.jpeg,10-24-1967,48.8660970000005,2.35561800000001,10
Maxime,Merle,male,Maxime.Merle.279@email.fr,MaximeM279,MaximeM279999,female,Vraiment? ,"piercing,music,sea,vegan,tv",58_photo_112233.jpeg,10-22-1967,48.9355970000008,2.45986800000001,1
Romain,Vial,male,Romain.Vial.280@email.fr,RomainV280,RomainV280999,bisexual,En ce qui me concerne ,"music,tv,vegan,lazy,mountain",people-5987395_640.jpg,5-16-1952,48.8805970000005,2.37736800000001,4
Honorine,Michel,female,Honorine.Michel.281@email.fr,HonorineM281,HonorineM281999,female,Je préférerais ne pas (avoir à) me prononcer sur ,"sport,tv,mountain,geek,vegan",8_photo_112233.jpeg,6-16-1979,48.778597,2.224368,1
Nicolette,Gallet,female,Nicolette.Gallet.282@email.fr,NicoletteG282,NicoletteG282999,female,Elle a les cheveux mi-longs. ,friends,sonam-prajapati-6893225_640.jpg,1-15-1987,48.9255970000008,2.44486800000001,3
Brice,Reynaud,male,Brice.Reynaud.283@email.fr,BriceR283,BriceR283999,bisexual,Je préférerais ne pas m'engager ,"geek,mountain,friends,music",actor-2181844_640.jpg,8-9-1984,48.971597000001,2.51386800000001,2
Romain,Dupuy,male,Romain.Dupuy.284@email.fr,RomainD284,RomainD284999,bisexual,Je suis marié. ,sport,33_photo_112233.jpeg,4-17-1987,48.7990970000002,2.255118,8
Telesphore,Boutin,male,Telesphore.Boutin.285@email.fr,TelesphoreB285,TelesphoreB285999,female,Je paierai. ,"sea,geek,piercing,music,sport",96_photo_112233.jpeg,6-7-1996,48.9565970000009,2.49136800000001,8
Alexandrie,Loiseau,female,Alexandrie.Loiseau.286@email.fr,AlexandrieL286,AlexandrieL286999,female,A bientôt. ,"vegan,mountain,friends",111_photo_112233.jpeg,9-16-1951,48.9000970000006,2.40661800000001,10
Jeanne,Valette,female,Jeanne.Valette.287@email.fr,JeanneV287,JeanneV287999,female,Je vais partir. ,"sea,tv,piercing,vegan,mountain",8_photo_112233.jpeg,5-9-1963,48.982097000001,2.52961800000001,6
Alphonse,Delage,male,Alphonse.Delage.288@email.fr,AlphonseD288,AlphonseD288999,bisexual,Ce sont les mêmes. ,"friends,geek,lazy",man-6342455_640.jpg,5-1-1954,48.8385970000003,2.314368,8
Dion,Vial,male,Dion.Vial.289@email.fr,DionV289,DionV289999,female,Juste ici. ,"lazy,vegan",man-210379_640.jpg,12-26-1961,48.9485970000009,2.47936800000001,5
Axelle,Maurice,female,Axelle.Maurice.290@email.fr,AxelleM290,AxelleM290999,male,Je voudrais connaître / avoir votre réaction face à ,"piercing,vegan",3_photo_112233.jpeg,4-17-1998,48.8595970000004,2.34586800000001,3
Sophie,Humbert,female,Sophie.Humbert.291@email.fr,SophieH291,SophieH291999,male,J'aimerais connaître / avoir votre réaction face à ,"vegan,lazy,piercing,geek,tv",actress-825670_640.jpg,1-15-1959,48.8915970000006,2.39386800000001,7
Roch,Rey,male,Roch.Rey.292@email.fr,RochR292,RochR292999,bisexual,"Non, je suis américain. ","geek,tv,music,piercing",man-4134645_640.jpg,1-13-1993,48.8070970000002,2.267118,5
Renard,Lopes,male,Renard.Lopes.293@email.fr,RenardL293,RenardL293999,bisexual,Ça sent mauvais. ,"sport,tv,sea,music,lazy",91_photo_112233.jpeg,1-16-1957,48.8215970000003,2.288868,10
Marthe,Denis,female,Marthe.Denis.294@email.fr,MartheD294,MartheD294999,female,À mon avis ,"mountain,vegan,friends,sport",86_photo_112233.jpeg,4-4-1966,48.8510970000004,2.333118,5
Doriane,Vallet,female,Doriane.Vallet.295@email.fr,DorianeV295,DorianeV295999,bisexual,Mon père y est allé. ,"music,vegan",model-3362457_640.jpg,10-11-1977,48.9345970000008,2.45836800000001,10
Rolande,Favre,female,Rolande.Favre.296@email.fr,RolandeF296,RolandeF296999,bisexual,"Non, c'est la première fois. ",lazy,mask-4985280_640.jpg,4-2-1983,48.9120970000007,2.42461800000001,1
Olivier,Courtois,male,Olivier.Courtois.297@email.fr,OlivierC297,OlivierC297999,female,Non. ,mountain,acteur1.png,2-2-1996,48.7930970000001,2.246118,4
Prosper,Deschamps,male,Prosper.Deschamps.298@email.fr,ProsperD298,ProsperD298999,female,Dépêche-toi! ,"lazy,vegan",50_photo_112233.jpeg,1-8-1993,48.9430970000008,2.47111800000001,6
Angeline,Maurin,female,Angeline.Maurin.299@email.fr,AngelineM299,AngelineM299999,male,C'est ma mère. ,"lazy,tv,vegan,piercing,mountain",theatre-3966147_640.jpg,9-17-1987,48.9625970000009,2.50036800000001,5
Lucien,Carlier,male,Lucien.Carlier.300@email.fr,LucienC300,LucienC300999,bisexual,Pas récemment. ,"music,vegan,tv,sea,sport",57_photo_112233.jpeg,1-5-1954,48.7830970000001,2.231118,9
Germain,Maurin,male,Germain.Maurin.301@email.fr,GermainM301,GermainM301999,bisexual,Excusez-moi. ,"lazy,sea,sport,tv,mountain",97_photo_112233.jpeg,10-23-1973,48.8060970000002,2.265618,9
Seraphine,Fernandez,female,Seraphine.Fernandez.302@email.fr,SeraphineF302,SeraphineF302999,bisexual,Quelle est votre opinion/avis sur ,"mountain,geek,tv",63_photo_112233.jpeg,4-25-1963,48.8285970000003,2.299368,4
Rosemonde,Leblanc,female,Rosemonde.Leblanc.303@email.fr,RosemondeL303,RosemondeL303999,bisexual,Je suis un Américain. ,tv,36_photo_112233.jpeg,2-11-1986,48.8030970000002,2.261118,4
Angelique,Diallo,female,Angelique.Diallo.304@email.fr,AngeliqueD304,AngeliqueD304999,male,Pourrais-je parler à madame Smith s'il vous plaît? ,"tv,lazy,piercing",26_photo_112233.jpeg,12-20-1963,48.8810970000005,2.37811800000001,2
Nicolas,Bertrand,male,Nicolas.Bertrand.305@email.fr,NicolasB305,NicolasB305999,male,Il a les yeux marron. ,vegan,male-model-7686778_640.jpg,6-19-2001,48.8555970000004,2.339868,3
Benoit,Toussaint,male,Benoit.Toussaint.306@email.fr,BenoitT306,BenoitT306999,male,Il est mignon. ,"mountain,lazy,piercing,sport,vegan",jorn-schlonvogt-1202320_640.jpg,9-5-1985,48.9135970000007,2.42686800000001,6
Papillion,Ribeiro,male,Papillion.Ribeiro.307@email.fr,PapillionR307,PapillionR307999,bisexual,Il est très ennuyeux. ,vegan,80_photo_112233.jpeg,8-8-2001,48.8525970000004,2.335368,1
Fifi,Coste,female,Fifi.Coste.308@email.fr,FifiC308,FifiC308999,bisexual,Selon vous ,"sport,tv,sea,music,lazy",london-5731175_640.jpg,2-4-1964,48.7790970000001,2.225118,2
Gratien,Voisin,male,Gratien.Voisin.309@email.fr,GratienV309,GratienV309999,male,Elle est courageuse. ,"sea,mountain",kevin-bacon-83495_640.jpg,11-17-1990,48.8745970000005,2.36836800000001,2
Joceline,Poirier,female,Joceline.Poirier.310@email.fr,JocelineP310,JocelineP310999,bisexual,J'ai entendu parler de ,"mountain,vegan",26_photo_112233.jpeg,12-25-1968,48.8980970000006,2.40361800000001,10
Denise,Leroy,female,Denise.Leroy.311@email.fr,DeniseL311,DeniseL311999,male,Je ne parle pas très bien. ,"music,vegan,piercing",actor-542726_640.jpg,8-5-1973,48.8535970000004,2.336868,4
Laurent,Valentin,male,Laurent.Valentin.312@email.fr,LaurentV312,LaurentV312999,female,Quel est votre nom de famille ? ,"music,friends",men-7050835_640.jpg,6-4-1988,48.8345970000003,2.308368,3
Lydie,Lamy,female,Lydie.Lamy.313@email.fr,LydieL313,LydieL313999,bisexual,Est-ce que tu veux venir avec moi? ,"sea,tv,lazy",26_photo_112233.jpeg,7-25-1981,48.9435970000008,2.47186800000001,10
Manon,Berger,female,Manon.Berger.314@email.fr,ManonB314,ManonB314999,female,Il a de l‘humour. ,"lazy,music,vegan",98_photo_112233.jpeg,9-4-1974,48.9355970000008,2.45986800000001,4
Pons,Couturier,male,Pons.Couturier.315@email.fr,PonsC315,PonsC315999,male,Je n'ai jamais vraiment réfléchi à ,"lazy,vegan",dracula-theater-7209931_640.jpg,5-21-1960,48.8880970000006,2.38861800000001,10
Henriette,Lefevre,female,Henriette.Lefevre.316@email.fr,HenrietteL316,HenrietteL316999,female,C'est vrai. ,"geek,tv",63_photo_112233.jpeg,5-7-1994,48.8910970000006,2.39311800000001,2
Eloi,Aubert,male,Eloi.Aubert.317@email.fr,EloiA317,EloiA317999,male,Je ne peux pas m'empêcher de penser que ,"vegan,tv,lazy",108_photo_112233.jpeg,6-24-2000,48.8240970000003,2.292618,9
Vespasien,Andre,male,Vespasien.Andre.318@email.fr,VespasienA318,VespasienA318999,bisexual,Chicago est très différente de Boston. ,"geek,tv,lazy,piercing",88_photo_112233.jpeg,10-19-1985,48.977097000001,2.52211800000001,1
Eustache,Loiseau,male,Eustache.Loiseau.319@email.fr,EustacheL319,EustacheL319999,female,Depuis combien de temps est-ce que tu habites ici? ,"lazy,geek,piercing,music,sport",95_photo_112233.jpeg,7-28-1975,48.9540970000009,2.48761800000001,5
Colette,Bonneau,female,Colette.Bonneau.320@email.fr,ColetteB320,ColetteB320999,male,Je n'ai pas d'opinion bien précise à / arrêtée sur ,"mountain,tv",3_photo_112233.jpeg,10-5-1999,48.9220970000007,2.43961800000001,6
Noella,Normand,female,Noella.Normand.321@email.fr,NoellaN321,NoellaN321999,bisexual,Bonne idée. ,"sea,vegan,friends,geek",17_photo_112233.jpeg,12-4-1991,48.8665970000005,2.35636800000001,5
Thierry,Julien,male,Thierry.Julien.322@email.fr,ThierryJ322,ThierryJ322999,female,Je l'aime. ,"music,friends",brett-952579_640.jpg,11-27-1966,48.8740970000005,2.36761800000001,1
Mirabelle,Roy,female,Mirabelle.Roy.323@email.fr,MirabelleR323,MirabelleR323999,bisexual,Pour moi ,"tv,music,sport",104_photo_112233.jpeg,12-3-1964,48.9060970000007,2.41561800000001,4
Lucie,Loiseau,female,Lucie.Loiseau.324@email.fr,LucieL324,LucieL324999,male,"Je vais bien, et toi? ",music,68_photo_112233.jpeg,11-2-1969,48.8610970000004,2.34811800000001,1
Benoite,Schmitt,female,Benoite.Schmitt.325@email.fr,BenoiteS325,BenoiteS325999,male,Il est marrant. ,"piercing,geek,mountain,lazy",105_photo_112233.jpeg,5-23-1999,48.970097000001,2.51161800000001,3
Anselme,Briand,male,Anselme.Briand.326@email.fr,AnselmeB326,AnselmeB326999,male,C'est du moins mon opinion. ,piercing,41_photo_112233.jpeg,11-8-1998,48.7890970000001,2.240118,7
Margot,Allain,female,Margot.Allain.327@email.fr,MargotA327,MargotA327999,female,Je sais. ,"music,mountain,friends,lazy,vegan",93_photo_112233.jpeg,2-4-1968,48.8650970000005,2.35411800000001,9
Zephyrine,Joly,female,Zephyrine.Joly.328@email.fr,ZephyrineJ328,ZephyrineJ328999,bisexual,Telle est mon opinion sur... ,"piercing,vegan",71_photo_112233.jpeg,11-22-1992,48.8585970000004,2.344368,7
Arlette,Leclerc,female,Arlette.Leclerc.329@email.fr,ArletteL329,ArletteL329999,male,Elle est forte. ,piercing,89_photo_112233.jpeg,2-12-1989,48.9260970000008,2.44561800000001,7
Luce,Rolland,female,Luce.Rolland.330@email.fr,LuceR330,LuceR330999,male,Merci pour tout. ,"sea,tv",85_photo_112233.jpeg,5-28-1974,48.9560970000009,2.49061800000001,7
Morgaine,Laurent,female,Morgaine.Laurent.331@email.fr,MorgaineL331,MorgaineL331999,bisexual,J'ai faim. ,music,actor-6311507_640.jpg,5-3-1992,48.980597000001,2.52736800000001,3
Armelle,Riou,female,Armelle.Riou.332@email.fr,ArmelleR332,ArmelleR332999,male,Juste ici. ,"mountain,vegan,sea",85_photo_112233.jpeg,10-4-1964,48.7920970000001,2.244618,9
Gilles,Langlois,male,Gilles.Langlois.333@email.fr,GillesL333,GillesL333999,bisexual,Je suis persuadé que ,mountain,41_photo_112233.jpeg,2-21-1962,48.8255970000003,2.294868,10
Cerise,Moreau,female,Cerise.Moreau.334@email.fr,CeriseM334,CeriseM334999,bisexual,Ma fille est ici. ,"friends,sport,music,tv,sea",39_photo_112233.jpeg,3-11-1997,48.774097,2.217618,3
Sylvie,Navarro,female,Sylvie.Navarro.335@email.fr,SylvieN335,SylvieN335999,bisexual,Je n'ai jamais vu ça avant. ,"vegan,music,tv",1_photo_112233.jpeg,1-28-1963,48.9360970000008,2.46061800000001,7
Odile,Bigot,female,Odile.Bigot.336@email.fr,OdileB336,OdileB336999,bisexual,Il est / C'est probable que ,sport,27_photo_112233.jpeg,2-22-1956,48.8535970000004,2.336868,10
Seraphine,Boucher,female,Seraphine.Boucher.337@email.fr,SeraphineB337,SeraphineB337999,male,Je nettoie ma chambre. ,"mountain,sport",13_photo_112233.jpeg,5-20-1973,48.8940970000006,2.39761800000001,10
Jeannine,Le,female,Jeannine.Le.338@email.fr,JeannineL338,JeannineL338999,male,À mon avis ,vegan,street-performers-870119_640.jpg,5-23-1971,48.8050970000002,2.264118,3
Eulalie,Laurent,female,Eulalie.Laurent.339@email.fr,EulalieL339,EulalieL339999,female,laisse-moi y réfléchir. ,"sport,music,vegan,piercing,mountain",woman-1462683_640.jpg,11-13-1977,48.9370970000008,2.46211800000001,5
Charlotte,Guilbert,female,Charlotte.Guilbert.340@email.fr,CharlotteG340,CharlotteG340999,female,Est-ce que tu en as un autre? ,"mountain,geek",86_photo_112233.jpeg,11-11-1955,48.9020970000006,2.40961800000001,4
Monique,Duhamel,female,Monique.Duhamel.341@email.fr,MoniqueD341,MoniqueD341999,bisexual,Tout le monde le sais. ,"tv,sea,friends,music,geek",actor-6210338_640.jpg,5-14-1999,48.7980970000001,2.253618,10
Loup,Denis,male,Loup.Denis.342@email.fr,LoupD342,LoupD342999,bisexual,Est-ce que ton frère est allé en France ? ,"vegan,friends,music,sport,geek",76_photo_112233.jpeg,4-21-1955,48.7850970000001,2.234118,5
Papillion,Riviere,male,Papillion.Riviere.343@email.fr,PapillionR343,PapillionR343999,female,De temps en temps. ,"sea,music,geek,sport,lazy",gregory-peck-90779_640.jpg,7-16-1992,48.9010970000006,2.40811800000001,9
Antoine,Royer,male,Antoine.Royer.344@email.fr,AntoineR344,AntoineR344999,bisexual,Je ne parle pas très bien. ,"sport,tv,geek",jorn-schlonvogt-1202320_640.jpg,9-15-1995,48.8655970000005,2.35486800000001,4
Laurent,Cousin,male,Laurent.Cousin.345@email.fr,LaurentC345,LaurentC345999,female,Quel est votre nom de famille ? ,"sport,vegan",street-performers-870113_640.jpg,10-21-1994,48.7960970000001,2.250618,8
Yvette,Barthelemy,female,Yvette.Barthelemy.346@email.fr,YvetteB346,YvetteB346999,bisexual,As-tu reçu mon e-mail? ,"vegan,sport",mount-saint-helens-4395977_640.jpg,5-28-2000,48.8750970000005,2.36911800000001,1
Lucrece,Favre,female,Lucrece.Favre.347@email.fr,LucreceF347,LucreceF347999,male,Nous avons deux garçons et une fille. ,music,21_photo_112233.jpeg,5-25-1960,48.8290970000003,2.300118,9
Pauline,Gaudin,female,Pauline.Gaudin.348@email.fr,PaulineG348,PaulineG348999,bisexual,Est-ce que tu peux traduire ça pour moi? ,"mountain,lazy,geek",model-3362457_640.jpg,7-28-1965,48.8240970000003,2.292618,9
Telesphore,Collet,male,Telesphore.Collet.349@email.fr,TelesphoreC349,TelesphoreC349999,female,Ils sont très occupés. ,sea,people-3230020_640.jpg,4-11-1989,48.8835970000006,2.38186800000001,8
Maximilien,Levy,male,Maximilien.Levy.350@email.fr,MaximilienL350,MaximilienL350999,bisexual,Je viens te chercher. ,"vegan,piercing",man-3252165_640.jpg,10-16-1966,48.9390970000008,2.46511800000001,7
Gaetane,Martins,female,Gaetane.Martins.351@email.fr,GaetaneM351,GaetaneM351999,bisexual,Mon père y est allé. ,"piercing,friends",theater-200716_640.jpg,10-24-1961,48.9420970000008,2.46961800000001,5
Roxane,Guillon,female,Roxane.Guillon.352@email.fr,RoxaneG352,RoxaneG352999,female,C'est Monsieur Smith. ,"vegan,sport,mountain,geek,music",69_photo_112233.jpeg,8-11-2004,48.777597,2.222868,1
Michel,Charpentier,male,Michel.Charpentier.353@email.fr,MichelC353,MichelC353999,female,"Non, je suis américain. ","sea,lazy,friends",80_photo_112233.jpeg,3-26-2000,48.8730970000005,2.36611800000001,8
Claudine,Carre,female,Claudine.Carre.354@email.fr,ClaudineC354,ClaudineC354999,female,Es-tu français? ,"friends,piercing",11_photo_112233.jpeg,10-6-1989,48.968097000001,2.50861800000001,7
Henriette,Maury,female,Henriette.Maury.355@email.fr,HenrietteM355,HenrietteM355999,bisexual,Il me semble que ,"vegan,tv",woman-1462683_640.jpg,9-6-1958,48.7835970000001,2.231868,7
Noel,Cohen,male,Noel.Cohen.356@email.fr,NoelC356,NoelC356999,female,Ce n'est pas juste. ,geek,59_photo_112233.jpeg,1-16-1998,48.8310970000003,2.303118,9
Modeste,Lefebvre,male,Modeste.Lefebvre.357@email.fr,ModesteL357,ModesteL357999,bisexual,Elle a les cheveux mi-longs. ,"lazy,tv,piercing",face-3265605_640.jpg,6-12-1981,48.9290970000008,2.45011800000001,6
Blanche,Baudry,female,Blanche.Baudry.358@email.fr,BlancheB358,BlancheB358999,male,Que pensez-vous de ,"mountain,piercing,friends,music,tv",35_photo_112233.jpeg,7-19-1958,48.7850970000001,2.234118,7
Florentin,Garcia,male,Florentin.Garcia.359@email.fr,FlorentinG359,FlorentinG359999,male,Je suis sûr que ,"vegan,mountain,music",people-3224723_640.jpg,10-28-1962,48.7980970000001,2.253618,8
Edwige,Humbert,female,Edwige.Humbert.360@email.fr,EdwigeH360,EdwigeH360999,bisexual,Travailles-tu demain? ,"lazy,sport,tv,friends",woman-6002459_640.jpg,7-22-1990,48.8755970000005,2.36986800000001,8
Arnaude,Rey,female,Arnaude.Rey.361@email.fr,ArnaudeR361,ArnaudeR361999,bisexual,Je parle un peu d'anglais. ,"lazy,music,vegan,sea,mountain",actor-6311507_640.jpg,2-24-1973,48.9445970000008,2.47336800000001,8
Alexandrie,Vincent,female,Alexandrie.Vincent.362@email.fr,AlexandrieV362,AlexandrieV362999,bisexual,Est-ce que ça suffit? ,vegan,37_photo_112233.jpeg,8-21-1989,48.8000970000001,2.256618,7
Aurore,Benard,female,Aurore.Benard.363@email.fr,AuroreB363,AuroreB363999,male,Je trouve que ,"lazy,tv,friends,piercing,sport",90_photo_112233.jpeg,2-24-1955,48.8745970000005,2.36836800000001,3
Charline,Lamy,female,Charline.Lamy.364@email.fr,CharlineL364,CharlineL364999,male,Est-ce que tu as pris tes médicaments? ,"lazy,music,vegan,sea,mountain",portrait-3359403_640.jpg,7-2-1970,48.777597,2.222868,9
Perceval,Cordier,male,Perceval.Cordier.365@email.fr,PercevalC365,PercevalC365999,male,Merci. ,"sea,music,mountain,lazy,friends",55_photo_112233.jpeg,12-27-1981,48.9500970000009,2.48161800000001,1
Hilaire,Boulanger,male,Hilaire.Boulanger.366@email.fr,HilaireB366,HilaireB366999,female,Mon fils étudie l'informatique. ,"tv,mountain,geek",55_photo_112233.jpeg,11-6-1994,48.8735970000005,2.36686800000001,5
Gilles,Ribeiro,male,Gilles.Ribeiro.367@email.fr,GillesR367,GillesR367999,female,Quel âge as-tu? ,"sport,music,tv",filmproduction-485518_640.jpg,12-6-1960,48.9645970000009,2.50336800000001,10
Noella,Andre,female,Noella.Andre.368@email.fr,NoellaA368,NoellaA368999,bisexual,Il est gentil. ,"sea,friends,piercing",104_photo_112233.jpeg,7-17-1959,48.8520970000004,2.334618,8
Marcelle,Renard,female,Marcelle.Renard.369@email.fr,MarcelleR369,MarcelleR369999,female,C'est très important. ,lazy,sonam-prajapati-6893225_640.jpg,10-21-1961,48.8720970000005,2.36461800000001,1
Solange,Maurin,female,Solange.Maurin.370@email.fr,SolangeM370,SolangeM370999,female,Tu es très sympa. ,vegan,39_photo_112233.jpeg,4-21-1968,48.9300970000008,2.45161800000001,6
Fabien,Launay,male,Fabien.Launay.371@email.fr,FabienL371,FabienL371999,male,Pour moi ,"music,friends",portrait-3204879_640.jpg,2-3-1957,48.8240970000003,2.292618,9
Gabrielle,Dupuy,female,Gabrielle.Dupuy.372@email.fr,GabrielleD372,GabrielleD372999,bisexual,Quel âge as-tu? ,music,surprise-5321849_640.jpg,2-12-1995,48.8780970000005,2.37361800000001,2
Charlotte,Chartier,female,Charlotte.Chartier.373@email.fr,CharlotteC373,CharlotteC373999,male,Tu es très sympa. ,"lazy,music,sea,sport",61_photo_112233.jpeg,1-3-1971,48.9475970000009,2.47786800000001,5
Placide,Marchal,female,Placide.Marchal.374@email.fr,PlacideM374,PlacideM374999,female,Peu importe. ,"vegan,tv,lazy",68_photo_112233.jpeg,12-22-1982,48.9445970000008,2.47336800000001,5
Ghislain,Dumas,male,Ghislain.Dumas.375@email.fr,GhislainD375,GhislainD375999,bisexual,Je dois laver mes vêtements. ,vegan,man-8245780_640.webp,7-26-1996,48.9565970000009,2.49136800000001,1
Eloi,Levy,male,Eloi.Levy.376@email.fr,EloiL376,EloiL376999,male,Je crains qu'il ne soit ,"geek,sea,tv,vegan,friends",Jason_Statham_2018.jpg,8-13-1963,48.9495970000009,2.48086800000001,10
Armel,Costa,male,Armel.Costa.377@email.fr,ArmelC377,ArmelC377999,male,À mon avis ,"sea,tv,lazy,geek,piercing",100_photo_112233.jpeg,4-8-2000,48.985097000001,2.53411800000001,5
Arianne,Pereira,female,Arianne.Pereira.378@email.fr,ArianneP378,ArianneP378999,male,Je suis content. ,"lazy,tv,sport",head-shoot-1542339_640.jpg,10-22-1974,48.8070970000002,2.267118,3
Loic,Lenoir,male,Loic.Lenoir.379@email.fr,LoicL379,LoicL379999,female,Elle a les yeux verts. ,mountain,31_photo_112233.jpeg,7-13-1960,48.9035970000006,2.41186800000001,9
Serge,Costa,male,Serge.Costa.380@email.fr,SergeC380,SergeC380999,female,Je fais une taille huit. ,"geek,friends,mountain,sea,lazy",42_photo_112233.jpeg,7-26-1992,48.7800970000001,2.226618,4
Florentin,Chauvin,male,Florentin.Chauvin.381@email.fr,FlorentinC381,FlorentinC381999,male,Je vais le prendre. ,"piercing,vegan",actor-2181844_640.jpg,1-26-1973,48.8620970000004,2.34961800000001,1
Laure,Weber,female,Laure.Weber.382@email.fr,LaureW382,LaureW382999,bisexual,Je ne suis pas encore prêt. ,"geek,tv,lazy,piercing",model-3362457_640.jpg,12-2-2002,48.8245970000003,2.293368,10
Mathilde,Dupuy,female,Mathilde.Dupuy.383@email.fr,MathildeD383,MathildeD383999,bisexual,Tu es très intelligent. ,"mountain,tv",woman-1462683_640.jpg,3-22-1963,48.7995970000002,2.255868,8
Faustine,Lefevre,female,Faustine.Lefevre.384@email.fr,FaustineL384,FaustineL384999,male,Elle est spécialiste. ,lazy,girl-2491656_640.jpg,9-23-1969,48.9200970000007,2.43661800000001,3
Florette,Durand,female,Florette.Durand.385@email.fr,FloretteD385,FloretteD385999,female,Quelle est votre attitude à l'égard de ,"lazy,friends",52_photo_112233.jpeg,6-3-1994,48.9055970000007,2.41486800000001,2
Anselme,Buisson,male,Anselme.Buisson.386@email.fr,AnselmeB386,AnselmeB386999,female,Je viens te chercher. ,"friends,piercing",31_photo_112233.jpeg,1-9-1956,48.973097000001,2.51611800000001,6
Luce,Carlier,female,Luce.Carlier.387@email.fr,LuceC387,LuceC387999,male,Est-ce que tu fais du sport? ,"vegan,sea",52_photo_112233.jpeg,8-14-1956,48.973097000001,2.51611800000001,1
Cesaire,Dupuis,male,Cesaire.Dupuis.388@email.fr,CesaireD388,CesaireD388999,female,Où es-tu allé ? ,vegan,dracula-theater-7209931_640.jpg,9-24-1954,48.8385970000003,2.314368,1
Armel,Colas,male,Armel.Colas.389@email.fr,ArmelC389,ArmelC389999,bisexual,J'ai trente-deux ans. ,"lazy,sea,sport,tv,mountain",25_photo_112233.jpeg,6-10-1997,48.8555970000004,2.339868,9
Juliane,Renard,female,Juliane.Renard.390@email.fr,JulianeR390,JulianeR390999,female,Mon père y est allé. ,"sea,geek,piercing,music,sport",woman-6002459_640.jpg,7-7-1963,48.7780970000001,2.223618,6
Roch,Bertrand,male,Roch.Bertrand.391@email.fr,RochB391,RochB391999,bisexual,C'est plus long que deux kilomètres. ,"piercing,geek,music,mountain,tv",jackie-chan-2689112_1280.jpg,8-3-1963,48.9535970000009,2.48686800000001,6
Sylvaine,Le,female,Sylvaine.Le.392@email.fr,SylvaineL392,SylvaineL392999,female,Merci pour tout. ,lazy,fashion-4746903_640.jpg,12-27-1963,48.9505970000009,2.48236800000001,6
Fiacre,Pichon,male,Fiacre.Pichon.393@email.fr,FiacreP393,FiacreP393999,female,J'ai entendu parler de ,"lazy,sea,sport,friends,vegan",people-3230020_640.jpg,6-19-1974,48.8605970000004,2.34736800000001,7
Odette,Auger,female,Odette.Auger.394@email.fr,OdetteA394,OdetteA394999,bisexual,Je ne veux pas te déranger. ,"mountain,piercing,geek,tv",theater-200716_640.jpg,5-6-1986,48.8590970000004,2.34511800000001,10
Aristide,Delattre,male,Aristide.Delattre.395@email.fr,AristideD395,AristideD395999,female,Elle a les yeux verts. ,"mountain,lazy",man-8245776_640.webp,2-2-1963,48.8490970000004,2.330118,9
Prosper,Royer,male,Prosper.Royer.396@email.fr,ProsperR396,ProsperR396999,female,Je crains qu'il ne soit ,"sea,music,mountain,lazy,friends",42_photo_112233.jpeg,11-19-1973,48.8360970000003,2.310618,4
Eulalie,Merle,female,Eulalie.Merle.397@email.fr,EulalieM397,EulalieM397999,female,J'espère que vous ferez un bon voyage. ,"vegan,tv,piercing",85_photo_112233.jpeg,5-13-1965,48.8360970000003,2.310618,2
Virginie,Pereira,female,Virginie.Pereira.398@email.fr,VirginieP398,VirginieP398999,male,C'est pas mal. ,lazy,34_photo_112233.jpeg,7-12-2000,48.8885970000006,2.38936800000001,10
Gilberte,Poulain,female,Gilberte.Poulain.399@email.fr,GilberteP399,GilberteP399999,bisexual,J'ai perdu ma montre. ,music,1_photo_112233.jpeg,11-28-2002,48.9110970000007,2.42311800000001,8
Charlotte,Noel,female,Charlotte.Noel.400@email.fr,CharlotteN400,CharlotteN400999,male,Je préférerais ne pas (avoir à) me prononcer sur ,"sport,tv,piercing",fright-7989944_640.jpg,2-19-2001,48.973097000001,2.51611800000001,8
Marc,Gilles,male,Marc.Gilles.401@email.fr,MarcG401,MarcG401999,male,Je crains qu'il ne soit ,"lazy,vegan,mountain,friends,music",man-8245780_640.webp,5-2-1950,48.8625970000004,2.35036800000001,4
Louis,Besson,male,Louis.Besson.402@email.fr,LouisB402,LouisB402999,female,C'est ma mère. ,"piercing,sport,friends",man-6342455_640.jpg,4-28-1956,48.775597,2.219868,10
Jeanne,Gallet,female,Jeanne.Gallet.403@email.fr,JeanneG403,JeanneG403999,bisexual,Je suis américain. ,vegan,17_photo_112233.jpeg,11-27-1966,48.9415970000008,2.46886800000001,5
Victoire,Thierry,female,Victoire.Thierry.404@email.fr,VictoireT404,VictoireT404999,bisexual,Es-tu sûr? ,geek,models-4277829_640.jpg,5-16-1993,48.7790970000001,2.225118,8
Florentin,Guillou,male,Florentin.Guillou.405@email.fr,FlorentinG405,FlorentinG405999,female,Je paierai. ,"vegan,sport,friends,tv",actor-63082_640.jpg,3-20-1969,48.8565970000004,2.341368,4
Bernadette,Maillot,female,Bernadette.Maillot.406@email.fr,BernadetteM406,BernadetteM406999,female,Je suis très occupé. Je n'ai pas le temps maintenant. ,"vegan,friends,sea,geek",london-5731175_640.jpg,8-25-2004,48.8435970000004,2.321868,8
Aude,Chartier,female,Aude.Chartier.407@email.fr,AudeC407,AudeC407999,bisexual,Je suis un Américain. ,"geek,music,piercing",85_photo_112233.jpeg,1-19-1957,48.8910970000006,2.39311800000001,8
Donatien,Chevallier,male,Donatien.Chevallier.408@email.fr,DonatienC408,DonatienC408999,bisexual,Il est / C'est probable que ,"vegan,lazy",people-3230020_640.jpg,11-24-1955,48.980097000001,2.52661800000001,7
Rolande,Lopez,female,Rolande.Lopez.409@email.fr,RolandeL409,RolandeL409999,female,Est-ce que Monsieur Smith est un Américain? ,"sea,music",17_photo_112233.jpeg,10-1-1959,48.8335970000003,2.306868,2
Marthe,Dupuis,female,Marthe.Dupuis.410@email.fr,MartheD410,MartheD410999,female,Je n'en veux pas. ,"friends,tv,sea",102_photo_112233.jpeg,4-3-2004,48.978597000001,2.52436800000001,8
Emeline,Jean,female,Emeline.Jean.411@email.fr,EmelineJ411,EmelineJ411999,female,J'allais quitter le restaurant quand mes amis sont arrivés. ,mountain,37_photo_112233.jpeg,6-11-1982,48.9580970000009,2.49361800000001,1
Sidonie,Guillon,female,Sidonie.Guillon.412@email.fr,SidonieG412,SidonieG412999,female,Je sors du travail à six heures. ,"tv,sea,vegan,mountain",104_photo_112233.jpeg,4-24-1963,48.7935970000001,2.246868,3
Loup,Roussel,male,Loup.Roussel.413@email.fr,LoupR413,LoupR413999,female,S'il te plaît écris-le. ,"mountain,geek,sea,music",57_photo_112233.jpeg,9-8-1976,48.8285970000003,2.299368,7
Corinne,Deschamps,female,Corinne.Deschamps.414@email.fr,CorinneD414,CorinneD414999,bisexual,Il est / C'est possible que ,"tv,mountain,vegan",16_photo_112233.jpeg,1-6-1984,48.8275970000003,2.297868,10
Theirn,Monnier,male,Theirn.Monnier.415@email.fr,TheirnM415,TheirnM415999,bisexual,En ce qui me concerne ,"geek,friends,tv",jorn-schlonvogt-1202320_640.jpg,7-24-1954,48.8005970000002,2.257368,3
Armelle,Lacroix,female,Armelle.Lacroix.416@email.fr,ArmelleL416,ArmelleL416999,female,Maria a les cheveux couleur noisette. ,"sea,sport,friends,lazy",drama-1155445_640.jpg,7-2-1994,48.9185970000007,2.43436800000001,6
Michelle,Da,female,Michelle.Da.417@email.fr,MichelleD417,MichelleD417999,male,Je vais partir. ,"tv,mountain,piercing",london-5731175_640.jpg,10-8-1975,48.7780970000001,2.223618,9
Rodolphe,Le,male,Rodolphe.Le.418@email.fr,RodolpheL418,RodolpheL418999,female,Il est lent. ,"sea,friends,piercing",acteur1.png,10-16-1975,48.9265970000008,2.44636800000001,3
Ouida,Perret,female,Ouida.Perret.419@email.fr,OuidaP419,OuidaP419999,bisexual,Selon moi ,"friends,piercing",woman-1462682_640.jpg,5-8-1953,48.9290970000008,2.45011800000001,4
Lucile,Tanguy,female,Lucile.Tanguy.420@email.fr,LucileT420,LucileT420999,female,D'après moi ,"lazy,sport,vegan",71_photo_112233.jpeg,8-7-1996,48.770097,2.211618,1
Claire,Benard,female,Claire.Benard.421@email.fr,ClaireB421,ClaireB421999,bisexual,J'ai deux sœurs. ,"geek,tv,sport,friends,lazy",girl-2491656_640.jpg,9-26-1953,48.8525970000004,2.335368,6
Julienne,Leconte,female,Julienne.Leconte.422@email.fr,JulienneL422,JulienneL422999,male,Tout dépend de,"sport,friends",street-performers-870127_640.jpg,1-14-1960,48.9125970000007,2.42536800000001,7
Jean-marie,Bourgeois,male,Jean-marie.Bourgeois.423@email.fr,Jean-marieB423,Jean-marieB423999,female,Il est lent. ,"geek,sport,vegan",109_photo_112233.jpeg,4-12-1990,48.9325970000008,2.45536800000001,2
Margot,Besnard,female,Margot.Besnard.424@email.fr,MargotB424,MargotB424999,female,laisse-moi y réfléchir. ,"mountain,lazy,music,sport",32_photo_112233.jpeg,11-8-1983,48.9485970000009,2.47936800000001,4
Sylvaine,Fleury,female,Sylvaine.Fleury.425@email.fr,SylvaineF425,SylvaineF425999,female,C'est la première fois que je viens ici. ,"piercing,friends",51_photo_112233.jpeg,3-26-1962,48.9075970000007,2.41786800000001,7
Geoffroi,Jacob,male,Geoffroi.Jacob.426@email.fr,GeoffroiJ426,GeoffroiJ426999,bisexual,Je sors du travail à six heures. ,"tv,mountain,piercing",59_photo_112233.jpeg,9-6-1973,48.7960970000001,2.250618,10
Denise,Gaillard,female,Denise.Gaillard.427@email.fr,DeniseG427,DeniseG427999,female,"Non, merci. ","tv,vegan,geek,sport",101_photo_112233.jpeg,2-16-1983,48.8085970000002,2.269368,9
Florentin,Pons,male,Florentin.Pons.428@email.fr,FlorentinP428,FlorentinP428999,male,J'ai déjà mangé. ,"music,sport,mountain,friends",actor-2181844_640.jpg,8-16-2003,48.9355970000008,2.45986800000001,8
Laure,Bigot,female,Laure.Bigot.429@email.fr,LaureB429,LaureB429999,male,Combien voudrais-tu? ,"mountain,geek,tv",actor-6311507_640.jpg,4-6-2000,48.8300970000003,2.301618,2
Anne,Blanc,female,Anne.Blanc.430@email.fr,AnneB430,AnneB430999,bisexual,Est-ce que ton frère est allé en France ? ,"tv,sea,lazy,vegan",105_photo_112233.jpeg,5-22-1959,48.8225970000003,2.290368,8
Olivier,Gerard,male,Olivier.Gerard.431@email.fr,OlivierG431,OlivierG431999,male,S'il te plaît écris-le. ,"vegan,sea,tv",Jason_Statham_2018.jpg,8-22-1956,48.8645970000005,2.35336800000001,4
Nazaire,Guichard,male,Nazaire.Guichard.432@email.fr,NazaireG432,NazaireG432999,male,J'ai faim. ,lazy,41_photo_112233.jpeg,5-28-2004,48.9660970000009,2.50561800000001,8
Axelle,Roger,female,Axelle.Roger.433@email.fr,AxelleR433,AxelleR433999,female,Merci Mademoiselle. ,"vegan,lazy,sea",102_photo_112233.jpeg,10-20-1988,48.769097,2.210118,10
Christelle,Lacoste,female,Christelle.Lacoste.434@email.fr,ChristelleL434,ChristelleL434999,female,Elle est pauvre. ,"lazy,friends,tv,mountain,geek",16_photo_112233.jpeg,6-27-1957,48.9495970000009,2.48086800000001,4
Laurent,Tran,male,Laurent.Tran.435@email.fr,LaurentT435,LaurentT435999,male,"Si vous avez besoin de mon aide, faites-le-moi savoir s'il vous plaît. ","mountain,sport",allan-warren-872631_640.jpg,9-7-1952,48.8885970000006,2.38936800000001,8
Michel,Thierry,male,Michel.Thierry.436@email.fr,MichelT436,MichelT436999,female,"Non, c'est la première fois. ","sea,lazy,friends",brett-952573_640.jpg,1-7-1975,48.8190970000002,2.285118,2
Jeanine,Neveu,female,Jeanine.Neveu.437@email.fr,JeanineN437,JeanineN437999,female,Quel âge as-tu? ,sport,woman-1462682_640.jpg,1-5-1985,48.8630970000005,2.35111800000001,6
Honorine,Merle,female,Honorine.Merle.438@email.fr,HonorineM438,HonorineM438999,male,C'est tout. ,geek,13_photo_112233.jpeg,12-1-1970,48.9475970000009,2.47786800000001,9
Marie,Leduc,female,Marie.Leduc.439@email.fr,MarieL439,MarieL439999,male,Travailles-tu demain? ,friends,101_photo_112233.jpeg,3-20-1998,48.8405970000003,2.317368,6
Dianne,Martel,female,Dianne.Martel.440@email.fr,DianneM440,DianneM440999,female,Comment va le travail? ,piercing,people-3209886_640.jpg,8-23-1955,48.971597000001,2.51386800000001,6
Doriane,Robin,female,Doriane.Robin.441@email.fr,DorianeR441,DorianeR441999,male,En ce qui me concerne ,"sea,geek,music,mountain",woman-7186987_640.jpg,6-14-2000,48.8405970000003,2.317368,2
Paulette,Godard,female,Paulette.Godard.442@email.fr,PauletteG442,PauletteG442999,bisexual,Est-ce que vous vendez des médicaments? (magasin) ,sea,93_photo_112233.jpeg,2-6-1995,48.8305970000003,2.302368,4
Lucien,Bourgeois,male,Lucien.Bourgeois.443@email.fr,LucienB443,LucienB443999,female,Arrête! ,"sport,vegan,tv,sea",portrait-3241737_640.jpg,11-8-1990,48.9290970000008,2.45011800000001,8
Gwenaelle,Carlier,female,Gwenaelle.Carlier.444@email.fr,GwenaelleC444,GwenaelleC444999,bisexual,Elle est faible ,"mountain,geek",85_photo_112233.jpeg,8-10-1974,48.9470970000009,2.47711800000001,6
Georgine,Rey,female,Georgine.Rey.445@email.fr,GeorgineR445,GeorgineR445999,female,Je veux seulement un en-cas. ,"sea,tv,geek,sport",marilyn-monroe-555603_640.jpg,4-21-1997,48.776597,2.221368,3
Ouida,Guyot,female,Ouida.Guyot.446@email.fr,OuidaG446,OuidaG446999,female,Voudriez-vous prendre un message s'il vous plaît? ,"vegan,lazy",51_photo_112233.jpeg,11-10-1965,48.8850970000006,2.38411800000001,3
Jeannette,Millet,female,Jeannette.Millet.447@email.fr,JeannetteM447,JeannetteM447999,bisexual,Quel est votre nom de famille ? ,"piercing,sea,lazy,mountain,friends",61_photo_112233.jpeg,7-9-1971,48.9170970000007,2.43211800000001,3
Corin,Dubois,male,Corin.Dubois.448@email.fr,CorinD448,CorinD448999,female,Elle est forte. ,"sea,friends,geek,music",103_photo_112233.jpeg,2-13-1982,48.8630970000005,2.35111800000001,4
Marise,Neveu,female,Marise.Neveu.449@email.fr,MariseN449,MariseN449999,bisexual,Je t’emmènerai à l'arrêt de bus. ,"sport,sea,mountain",fashion-3057295_640.jpg,1-22-1964,48.8675970000005,2.35786800000001,2
Ambre,Vidal,female,Ambre.Vidal.450@email.fr,AmbreV450,AmbreV450999,bisexual,Je préférerais ne pas m'engager ,"geek,vegan",39_photo_112233.jpeg,7-25-1978,48.7900970000001,2.241618,4
Anatole,Meunier,male,Anatole.Meunier.451@email.fr,AnatoleM451,AnatoleM451999,bisexual,Dis-moi. ,"sea,tv,lazy,geek,piercing",79_photo_112233.jpeg,11-23-1959,48.9035970000006,2.41186800000001,2
Perrine,Martel,female,Perrine.Martel.452@email.fr,PerrineM452,PerrineM452999,male,Peu importe. ,"lazy,sport",49_photo_112233.jpeg,12-24-1960,48.9005970000006,2.40736800000001,2
Yseult,Muller,female,Yseult.Muller.453@email.fr,YseultM453,YseultM453999,bisexual,Je n'en veux pas. ,"sport,sea,lazy",woman-7186987_640.jpg,3-7-1998,48.8195970000002,2.285868,7
Armelle,Pons,female,Armelle.Pons.454@email.fr,ArmelleP454,ArmelleP454999,male,Est-ce que ça suffit? ,"vegan,friends",69_photo_112233.jpeg,5-22-1952,48.9645970000009,2.50336800000001,9
Pons,Dubois,male,Pons.Dubois.455@email.fr,PonsD455,PonsD455999,female,Est-ce que tu étudies français? ,"sport,tv,sea,music,lazy",97_photo_112233.jpeg,6-2-1977,48.8360970000003,2.310618,4
Claudine,Chauvin,female,Claudine.Chauvin.456@email.fr,ClaudineC456,ClaudineC456999,bisexual,Il est très célèbre. ,"friends,sea",models-4277829_640.jpg,5-1-2000,48.7870970000001,2.237118,8
Didier,Lacoste,male,Didier.Lacoste.457@email.fr,DidierL457,DidierL457999,male,Elle est jolie. ,"geek,piercing,music,sport,tv",india-7547363_640.jpg,4-1-1969,48.984097000001,2.53261800000001,6
Mariette,Jacob,female,Mariette.Jacob.458@email.fr,MarietteJ458,MarietteJ458999,male,Il est sophistiqué. ,"sport,lazy,mountain,music,sea",20_photo_112233.jpeg,6-28-1998,48.7875970000001,2.237868,5
Solange,Charpentier,female,Solange.Charpentier.459@email.fr,SolangeC459,SolangeC459999,male,Rien d'autre. ,"sea,lazy,sport,music",8_photo_112233.jpeg,4-14-1987,48.7795970000001,2.225868,5
Franck,Potier,male,Franck.Potier.460@email.fr,FranckP460,FranckP460999,female,C'est plus long que deux kilomètres. ,"sea,sport,piercing",street-performers-870113_640.jpg,1-12-1963,48.8215970000003,2.288868,4
Vespasien,Perrot,male,Vespasien.Perrot.461@email.fr,VespasienP461,VespasienP461999,male,Je ne vous entends pas. ,"music,sea,mountain",filmproduction-485518_640.jpg,1-10-1995,48.9020970000006,2.40961800000001,9
Georgine,Denis,female,Georgine.Denis.462@email.fr,GeorgineD462,GeorgineD462999,female,Bien sûr. ,"lazy,sport",35_photo_112233.jpeg,6-11-1971,48.9430970000008,2.47111800000001,2
Lucille,Baudry,female,Lucille.Baudry.463@email.fr,LucilleB463,LucilleB463999,bisexual,"Très bien, merci. ","mountain,piercing,friends,music,tv",63_photo_112233.jpeg,2-10-1994,48.8730970000005,2.36611800000001,7
Augustin,Besson,male,Augustin.Besson.464@email.fr,AugustinB464,AugustinB464999,bisexual,C'est trop. ,"friends,tv,sea,vegan",41_photo_112233.jpeg,10-8-1953,48.9225970000007,2.44036800000001,2
Aline,Albert,female,Aline.Albert.465@email.fr,AlineA465,AlineA465999,female,Il est lent. ,"sea,geek",39_photo_112233.jpeg,2-10-1955,48.7975970000001,2.252868,8
Fernande,Riou,female,Fernande.Riou.466@email.fr,FernandeR466,FernandeR466999,female,C'est tout. ,"tv,sea,vegan",90_photo_112233.jpeg,4-13-1968,48.9325970000008,2.45536800000001,10
Yvonne,Hardy,female,Yvonne.Hardy.467@email.fr,YvonneH467,YvonneH467999,male,Maria a les cheveux couleur noisette. ,"geek,mountain,tv",90_photo_112233.jpeg,11-21-1956,48.9590970000009,2.49511800000001,3
Emmanuelle,Da,female,Emmanuelle.Da.468@email.fr,EmmanuelleD468,EmmanuelleD468999,female,Tu es belle. ,vegan,mask-4985280_640.jpg,7-4-1988,48.8350970000003,2.309118,5
Armelle,Jourdan,female,Armelle.Jourdan.469@email.fr,ArmelleJ469,ArmelleJ469999,bisexual,Je ne suis pas à même de dire si ,"mountain,piercing,geek,sea",65_photo_112233.jpeg,12-17-1950,48.9155970000007,2.42986800000001,7
Aristide,Blanchet,male,Aristide.Blanchet.470@email.fr,AristideB470,AristideB470999,bisexual,Il est gentil. ,"vegan,geek,sea,tv,piercing",94_photo_112233.jpeg,10-8-1958,48.9155970000007,2.42986800000001,3
Pascaline,Rey,female,Pascaline.Rey.471@email.fr,PascalineR471,PascalineR471999,male,Est-ce que Monsieur Smith est un Américain? ,"sea,vegan,lazy",mask-4985280_640.jpg,10-22-1984,48.7865970000001,2.236368,1
Julie,Fernandes,female,Julie.Fernandes.472@email.fr,JulieF472,JulieF472999,bisexual,J'ai perdu ma montre. ,"sea,geek,friends,piercing,tv",12_photo_112233.jpeg,6-10-1961,48.8590970000004,2.34511800000001,2
Laurentine,Fabre,female,Laurentine.Fabre.473@email.fr,LaurentineF473,LaurentineF473999,female,J'ai entendu parler de ,"mountain,geek",madame-tussauds-1720457_640.jpg,4-8-1958,48.8865970000006,2.38636800000001,5
Anatole,Pereira,male,Anatole.Pereira.474@email.fr,AnatoleP474,AnatoleP474999,female,"Je vais bien, et toi? ","vegan,sport",human-3094550_640.jpg,6-28-2002,48.8135970000002,2.276868,8
Eustache,Lemoine,male,Eustache.Lemoine.475@email.fr,EustacheL475,EustacheL475999,female,Est-ce qu'il a neigé hier? ,"sport,tv,geek,friends,lazy",88_photo_112233.jpeg,2-5-1977,48.9280970000008,2.44861800000001,3
Julien,Costa,male,Julien.Costa.476@email.fr,JulienC476,JulienC476999,female,Je ne comprends pas. ,"mountain,lazy",personification-1508890_640.jpg,3-26-1961,48.8270970000003,2.297118,1
Achille,Perrin,male,Achille.Perrin.477@email.fr,AchilleP477,AchilleP477999,male,Il est marrant. ,"sea,lazy,friends",2_photo_112233.jpeg,1-17-1999,48.9355970000008,2.45986800000001,5
Baptiste,Tran,male,Baptiste.Tran.478@email.fr,BaptisteT478,BaptisteT478999,female,Nous avons deux garçons et une fille. ,"friends,geek",53_photo_112233.jpeg,10-7-1991,48.8870970000006,2.38711800000001,5
Loic,Leduc,male,Loic.Leduc.479@email.fr,LoicL479,LoicL479999,female,J'ai froid. ,"geek,vegan",man-6342455_640.jpg,8-18-1960,48.9040970000007,2.41261800000001,3
Pierre,Gros,male,Pierre.Gros.480@email.fr,PierreG480,PierreG480999,female,Je t’emmènerai à l'arrêt de bus. ,"friends,sea",man-5757539_640.jpg,5-25-1999,48.8580970000004,2.343618,5
Aristide,Fabre,male,Aristide.Fabre.481@email.fr,AristideF481,AristideF481999,female,Ce n'est pas vrai. ,"lazy,tv,sport",godfather-4292451_640.jpg,3-8-1966,48.8420970000004,2.319618,4
Virginie,Raynaud,female,Virginie.Raynaud.482@email.fr,VirginieR482,VirginieR482999,female,Je reviendrai plus tard. ,piercing,36_photo_112233.jpeg,7-8-1970,48.7870970000001,2.237118,2
Pascal,Riou,male,Pascal.Riou.483@email.fr,PascalR483,PascalR483999,male,Es-tu français? ,"mountain,friends,lazy",personification-1508890_640.jpg,10-6-1976,48.9215970000007,2.43886800000001,10
Urbain,Loiseau,male,Urbain.Loiseau.484@email.fr,UrbainL484,UrbainL484999,male,Il est grand. ,vegan,groucho-marx-male-1278137_640.jpg,9-3-1975,48.9135970000007,2.42686800000001,5
Arnaud,Fabre,male,Arnaud.Fabre.485@email.fr,ArnaudF485,ArnaudF485999,male,Dis-moi. ,"sea,sport,geek,mountain",95_photo_112233.jpeg,9-8-2001,48.9490970000009,2.48011800000001,8
Theirn,Ruiz,male,Theirn.Ruiz.486@email.fr,TheirnR486,TheirnR486999,female,J'allais quitter le restaurant quand mes amis sont arrivés. ,"lazy,sea,music,friends,piercing",smile-1221915_640.jpg,7-4-1958,48.9650970000009,2.50411800000001,9
Amaury,Picard,male,Amaury.Picard.487@email.fr,AmauryP487,AmauryP487999,female,Je ne me sens pas bien. ,"tv,sea,friends,music,geek",man-7291967_640.jpg,6-23-2003,48.8030970000002,2.261118,5
Arnaud,Guillot,male,Arnaud.Guillot.488@email.fr,ArnaudG488,ArnaudG488999,female,Il est maigre. ,"tv,lazy",42_photo_112233.jpeg,5-27-1980,48.8740970000005,2.36761800000001,3
Luc,Marchal,male,Luc.Marchal.489@email.fr,LucM489,LucM489999,male,Je dois laver mes vêtements. ,"sport,music,tv,geek,piercing",29_photo_112233.jpeg,12-4-1998,48.9000970000006,2.40661800000001,10
Juliette,Descamps,female,Juliette.Descamps.490@email.fr,JulietteD490,JulietteD490999,bisexual,Il est grand. ,"sport,vegan,geek",mask-4985280_640.jpg,1-3-1965,48.8250970000003,2.294118,2
Gwenaelle,Morin,female,Gwenaelle.Morin.491@email.fr,GwenaelleM491,GwenaelleM491999,female,Elle est jolie. ,"lazy,geek,sea",people-1285245_640.jpg,4-2-1961,48.8790970000005,2.37511800000001,10
Gustave,Barbe,male,Gustave.Barbe.492@email.fr,GustaveB492,GustaveB492999,male,Je suis content. ,"music,mountain,geek,vegan,sport",57_photo_112233.jpeg,3-16-1984,48.8690970000005,2.36011800000001,1
Mignon,Blanc,female,Mignon.Blanc.493@email.fr,MignonB493,MignonB493999,female,J'ai l'idée que ,"mountain,sport",104_photo_112233.jpeg,8-7-2001,48.984097000001,2.53261800000001,2
Louis,Payet,male,Louis.Payet.494@email.fr,LouisP494,LouisP494999,bisexual,Les affaires vont bien. ,"sea,geek,vegan,piercing",model-5176707_640.jpg,10-17-2001,48.8290970000003,2.300118,3
Aline,Lacroix,female,Aline.Lacroix.495@email.fr,AlineL495,AlineL495999,bisexual,Je préférerais ne pas (avoir à) me prononcer sur ,"tv,sport,mountain",106_photo_112233.jpeg,7-3-1972,48.8165970000002,2.281368,3
Adrien,Maillard,male,Adrien.Maillard.496@email.fr,AdrienM496,AdrienM496999,female,As-tu reçu mon e-mail? ,"tv,mountain",man-7971966_640.jpg,9-5-1983,48.8105970000002,2.272368,3
Florianne,Andre,female,Florianne.Andre.497@email.fr,FlorianneA497,FlorianneA497999,male,Juste un peu. ,"sea,sport,geek,mountain",1_photo_112233.jpeg,8-9-1953,48.7790970000001,2.225118,4
Felicienne,Berthelot,female,Felicienne.Berthelot.498@email.fr,FelicienneB498,FelicienneB498999,male,J'ai perdu ma montre. ,"tv,mountain,geek",51_photo_112233.jpeg,6-18-2002,48.8405970000003,2.317368,8
Claire,Leduc,female,Claire.Leduc.499@email.fr,ClaireL499,ClaireL499999,female,Qu'est-ce que tu étudies ? ,"mountain,geek",marilyn-monroe-555603_640.jpg,8-11-1979,48.769597,2.210868,1
Cesaire,Tessier,male,Cesaire.Tessier.500@email.fr,CesaireT500,CesaireT500999,female,Est-ce que tu vas souvent à Paris? ,"piercing,sea,lazy,mountain,friends",dracula-theater-7209931_640.jpg,1-2-1955,48.9445970000008,2.47336800000001,6
Aude,Leclerc,female,Aude.Leclerc.501@email.fr,AudeL501,AudeL501999,bisexual,J'ai déjà mangé. ,"geek,sea,lazy,mountain,sport",71_photo_112233.jpeg,2-15-1988,48.8770970000005,2.37211800000001,10
Marceline,Guillon,female,Marceline.Guillon.502@email.fr,MarcelineG502,MarcelineG502999,female,Quel est votre nom de famille ? ,"sea,geek,piercing,music,sport",26_photo_112233.jpeg,4-9-1980,48.9600970000009,2.49661800000001,9
Juliette,Bailly,female,Juliette.Bailly.503@email.fr,JulietteB503,JulietteB503999,bisexual,Je n'ai pas d'opinion bien précise à / arrêtée sur ,"music,sport,geek",16_photo_112233.jpeg,6-5-1999,48.8150970000002,2.279118,1
Vienne,Briand,female,Vienne.Briand.504@email.fr,VienneB504,VienneB504999,male,Chicago est très différente de Boston. ,"sea,geek",72_photo_112233.jpeg,3-28-1956,48.8050970000002,2.264118,9
Zephyrine,Guillon,female,Zephyrine.Guillon.505@email.fr,ZephyrineG505,ZephyrineG505999,female,Je fais une taille huit. ,"geek,mountain,music",49_photo_112233.jpeg,9-8-1950,48.7935970000001,2.246868,3
Gabrielle,Morel,female,Gabrielle.Morel.506@email.fr,GabrielleM506,GabrielleM506999,male,Je paierai. ,"vegan,tv",actor-542726_640.jpg,12-22-1990,48.8020970000002,2.259618,6
Ouida,Vincent,female,Ouida.Vincent.507@email.fr,OuidaV507,OuidaV507999,female,Je n'en veux pas. ,sport,marilyn-monroe-555603_640.jpg,4-8-1990,48.9585970000009,2.49436800000001,8
Jeanine,Marty,female,Jeanine.Marty.508@email.fr,JeanineM508,JeanineM508999,male,C'est une question de point de vue. ,"sea,vegan,piercing,music",90_photo_112233.jpeg,12-11-1959,48.8000970000001,2.256618,2
Armand,Bazin,male,Armand.Bazin.509@email.fr,ArmandB509,ArmandB509999,female,Je voudrais connaître / avoir votre réaction face à ,"tv,music",80_photo_112233.jpeg,3-23-1966,48.9080970000007,2.41861800000001,9
Georgine,Charpentier,female,Georgine.Charpentier.510@email.fr,GeorgineC510,GeorgineC510999,female,Il est gentil. ,"lazy,sport",actors-1851317_640.jpg,9-27-1985,48.8795970000005,2.37586800000001,8
Ouida,Guillon,female,Ouida.Guillon.511@email.fr,OuidaG511,OuidaG511999,female,Je t'appellerai vendredi. ,"sea,geek",51_photo_112233.jpeg,5-6-1980,48.7830970000001,2.231118,3
Lothaire,Jacob,male,Lothaire.Jacob.512@email.fr,LothaireJ512,LothaireJ512999,male,Vraiment? ,"mountain,music,friends,piercing",66_photo_112233.jpeg,1-23-1963,48.7805970000001,2.227368,3
Jacinthe,Blanchard,female,Jacinthe.Blanchard.513@email.fr,JacintheB513,JacintheB513999,male,Pour ma part ,"piercing,lazy,sport",44_photo_112233.jpeg,7-22-1999,48.9390970000008,2.46511800000001,1
Gervais,Millet,male,Gervais.Millet.514@email.fr,GervaisM514,GervaisM514999,bisexual,C'est une question de point de vue. ,vegan,23_photo_112233.jpeg,2-12-1999,48.9335970000008,2.45686800000001,2
Nathalie,Goncalves,female,Nathalie.Goncalves.515@email.fr,NathalieG515,NathalieG515999,bisexual,Ce n'est pas vrai. ,"lazy,sea,sport,geek",actor-6210338_640.jpg,1-23-2004,48.983097000001,2.53111800000001,8
Madeline,Buisson,female,Madeline.Buisson.516@email.fr,MadelineB516,MadelineB516999,bisexual,Il a les cheveux raides. ,"friends,sea",actress-825670_640.jpg,7-24-1991,48.9445970000008,2.47336800000001,6
Patrice,Boucher,male,Patrice.Boucher.517@email.fr,PatriceB517,PatriceB517999,female,Est-ce que tu en as un autre? ,"piercing,geek",yoga-day-4329896_640.jpg,12-1-1957,48.9500970000009,2.48161800000001,10
Gwenaelle,Levy,female,Gwenaelle.Levy.518@email.fr,GwenaelleL518,GwenaelleL518999,bisexual,Il est / C'est injuste que ,"sea,sport,piercing",65_photo_112233.jpeg,7-21-1978,48.9590970000009,2.49511800000001,2
Christine,Foucher,female,Christine.Foucher.519@email.fr,ChristineF519,ChristineF519999,female,Comment t'appelles-tu ? ,"music,sea,mountain",32_photo_112233.jpeg,12-7-1972,48.8755970000005,2.36986800000001,10
