prenom,nom,sexe,email,pseudo,password,orientation,bio,interests,profile_picture,date_birth,latitude,longitude,fame_rating
Raymonde,Roux,female,Raymonde.Roux.1@email.fr,RaymondeR1,RaymondeR1999,male,Je pense que c'est très bon. ,"tv, geek",22_photo_112233.jpeg,2-6-1979,48.9405970000008,2.46736800000001,10
Lunete,Delaunay,male,Lunete.Delaunay.2@email.fr,LuneteD2,LuneteD2999,bisexual,Je ne vous entends pas. ,piercing,gregory-peck-90779_640.jpg,10-16-1972,48.8255970000003,2.294868,5
Edgard,Dupont,male,Edgard.Dupont.3@email.fr,EdgardD3,EdgardD3999,male,Merci pour tout. ,lazy,Jason_Statham_2018.jpg,8-18-1998,48.8760970000005,2.37061800000001,9
Marcel,Germain,male,Marcel.Germain.4@email.fr,MarcelG4,MarcelG4999,female,S'il vous plaît emmenez-moi à cette adresse. ,"lazy, piercing, friends",29_photo_112233.jpeg,12-23-1973,48.777097,2.222118,6
Benoit,Barre,male,Benoit.Barre.5@email.fr,BenoitB5,BenoitB5999,male,On dit que ,"sport, music, tv",horse-144550_640.jpg,11-26-2003,48.9585970000009,2.49436800000001,10
Lucien,Diallo,female,Lucien.Diallo.6@email.fr,LucienD6,LucienD6999,female,Peter a les cheveux noirs. ,"mountain, tv, friends",cafe-1699128_640.jpg,2-11-1998,48.8800970000005,2.37661800000001,3
Constantin,Klein,female,Constantin.Klein.7@email.fr,ConstantinK7,ConstantinK7999,male,Dis-moi. ,lazy,81_photo_112233.jpeg,4-6-1996,48.8665970000005,2.35636800000001,8
Gratien,Baudry,female,Gratien.Baudry.8@email.fr,GratienB8,GratienB8999,male,Qu'est-ce que tu veux faire ? ,"lazy, piercing, vegan, geek",89_photo_112233.jpeg,7-14-1956,48.9545970000009,2.48836800000001,6
Doriane,Lacoste,male,Doriane.Lacoste.9@email.fr,DorianeL9,DorianeL9999,male,Est-ce que ton mari est aussi de Boston? ,"vegan, music, friends, geek, piercing",55_photo_112233.jpeg,8-23-1986,48.9030970000006,2.41111800000001,5
Axelle,Costa,male,Axelle.Costa.10@email.fr,AxelleC10,AxelleC10999,bisexual,Laisse-moi vérifier. ,friends,87_photo_112233.jpeg,11-6-1968,48.9600970000009,2.49661800000001,10
Victoire,Leveque,male,Victoire.Leveque.11@email.fr,VictoireL11,VictoireL11999,male,Il est / C'est évident que ,"sport, vegan, friends",42_photo_112233.jpeg,7-14-1988,48.769597,2.210868,4
Marielle,Pinto,male,Marielle.Pinto.12@email.fr,MarielleP12,MarielleP12999,female,Je suis d'avis que ,"tv, sea, friends, music, geek",60_photo_112233.jpeg,4-15-1997,48.9060970000007,2.41561800000001,4
Angelique,Blanchard,male,Angelique.Blanchard.13@email.fr,AngeliqueB13,AngeliqueB13999,bisexual,Elle a les yeux verts. ,"piercing, lazy, mountain, sport, music",76_photo_112233.jpeg,10-12-1966,48.9360970000008,2.46061800000001,10
Mathieu,Da,female,Mathieu.Da.14@email.fr,MathieuD14,MathieuD14999,male,Pourriez-vous me donner / faire savoir votre avis/opinion sur ,"lazy, friends, vegan, tv",34_photo_112233.jpeg,3-28-1961,48.9560970000009,2.49061800000001,2
Anselme,Raymond,male,Anselme.Raymond.15@email.fr,AnselmeR15,AnselmeR15999,female,Je me souviens. ,"sea, tv, lazy",29_photo_112233.jpeg,1-1-1965,48.9585970000009,2.49436800000001,9
Francine,Pichon,female,Francine.Pichon.16@email.fr,FrancineP16,FrancineP16999,bisexual,Je n'ai pas peur. ,"music, friends, lazy, piercing, mountain",85_photo_112233.jpeg,3-16-1978,48.8480970000004,2.328618,3
Gaetane,Humbert,male,Gaetane.Humbert.17@email.fr,GaetaneH17,GaetaneH17999,bisexual,Est-ce que tu veux venir avec moi? ,tv,dracula-theater-7209931_640.jpg,3-15-1965,48.8785970000005,2.37436800000001,9
Blanche,Navarro,male,Blanche.Navarro.18@email.fr,BlancheN18,BlancheN18999,male,"Non, je suis américain. ","geek, friends, sport, lazy, tv",112_photo_112233.jpeg,3-13-1966,48.8015970000002,2.258868,9
Yvette,Leveque,male,Yvette.Leveque.19@email.fr,YvetteL19,YvetteL19999,male,Merci Monsieur. ,geek,33_photo_112233.jpeg,9-15-2000,48.8535970000004,2.336868,4
Josette,Collet,male,Josette.Collet.20@email.fr,JosetteC20,JosetteC20999,female,J'ai perdu ma montre. ,lazy,brett-952561_640.jpg,2-23-1988,48.8800970000005,2.37661800000001,10
Urbain,Maillard,female,Urbain.Maillard.21@email.fr,UrbainM21,UrbainM21999,male,Il est / C'est injuste que ,"music, mountain",37_photo_112233.jpeg,8-17-1992,48.8260970000003,2.295618,7
Cesaire,Marin,female,Cesaire.Marin.22@email.fr,CesaireM22,CesaireM22999,female,Qui a envoyé cette lettre ? ,"sea, friends",16_photo_112233.jpeg,10-12-1960,48.9005970000006,2.40736800000001,7
Gervais,Huet,female,Gervais.Huet.23@email.fr,GervaisH23,GervaisH23999,male,Excellent. ,vegan,89_photo_112233.jpeg,7-4-2004,48.8825970000005,2.38036800000001,10
Theirn,Bousquet,male,Theirn.Bousquet.24@email.fr,TheirnB24,TheirnB24999,female,A bientôt. ,sea,31_photo_112233.jpeg,2-12-1954,48.9105970000007,2.42236800000001,8
Colette,Thierry,female,Colette.Thierry.25@email.fr,ColetteT25,ColetteT25999,bisexual,Je l'aime. ,"tv, mountain, vegan, sea, music",actor-542726_640.jpg,3-9-1995,48.9255970000008,2.44486800000001,9
Tatienne,Schneider,male,Tatienne.Schneider.26@email.fr,TatienneS26,TatienneS26999,female,Elle a les yeux verts. ,"geek, friends, vegan, lazy, music",42_photo_112233.jpeg,9-25-1981,48.8370970000003,2.312118,9
Orianne,Normand,male,Orianne.Normand.27@email.fr,OrianneN27,OrianneN27999,bisexual,Pour moi ,"piercing, geek, music",man-8162325_640.jpg,7-4-1982,48.769597,2.210868,3
Patrice,Poulain,male,Patrice.Poulain.28@email.fr,PatriceP28,PatriceP28999,female,Est-ce que tu viens ce soir? ,"sea, friends",25_photo_112233.jpeg,9-25-1991,48.7920970000001,2.244618,10
Mathilde,Evrard,male,Mathilde.Evrard.29@email.fr,MathildeE29,MathildeE29999,male,Je m'appelle John Smith. ,"sport, sea",humphrey-bogart-male-1278138_640.jpg,4-18-1998,48.9120970000007,2.42461800000001,7
Adeline,Aubert,male,Adeline.Aubert.30@email.fr,AdelineA30,AdelineA30999,female,J'ai soif. ,tv,pm-jason-statham.jpg,6-24-1961,48.8960970000006,2.40061800000001,6
Armel,Rodrigues,male,Armel.Rodrigues.31@email.fr,ArmelR31,ArmelR31999,female,S'il vous plaît remplissez ce formulaire. ,tv,mountain-5823822_640.jpg,12-23-1999,48.9260970000008,2.44561800000001,4
Edwige,Tanguy,male,Edwige.Tanguy.32@email.fr,EdwigeT32,EdwigeT32999,male,Je préférerais ne pas m'engager ,"sea, mountain",portrait-3060106_640.jpg,2-16-2001,48.8990970000006,2.40511800000001,7
Clarisse,Besnard,female,Clarisse.Besnard.33@email.fr,ClarisseB33,ClarisseB33999,female,Je ne me sens pas bien. ,"mountain, sea, tv, lazy",ramayana-festival-1807516_640.jpg,8-19-1962,48.9485970000009,2.47936800000001,2
Lucille,Tessier,male,Lucille.Tessier.34@email.fr,LucilleT34,LucilleT34999,female,Cette voiture ressemble à ma voiture. ,"lazy, vegan, geek, mountain, music",109_photo_112233.jpeg,10-3-1993,48.8275970000003,2.297868,8
Angeline,Jean,male,Angeline.Jean.35@email.fr,AngelineJ35,AngelineJ35999,female,Ce sont les mêmes. ,mountain,brett-952573_640.jpg,8-18-2003,48.970597000001,2.51236800000001,2
Berthe,Baudry,female,Berthe.Baudry.36@email.fr,BertheB36,BertheB36999,male,A quelle école est-ce que tu es allé? ,geek,46_photo_112233.jpeg,6-2-2000,48.9135970000007,2.42686800000001,2
Gratien,Colas,female,Gratien.Colas.37@email.fr,GratienC37,GratienC37999,bisexual,Je l'aime. ,"vegan, music, sea, friends",101_photo_112233.jpeg,1-17-1968,48.969097000001,2.51011800000001,5
Narcisse,Chartier,male,Narcisse.Chartier.38@email.fr,NarcisseC38,NarcisseC38999,bisexual,Il a de l‘humour. ,"lazy, geek, piercing, vegan",97_photo_112233.jpeg,6-26-1995,48.8495970000004,2.330868,3
Carine,Favre,male,Carine.Favre.39@email.fr,CarineF39,CarineF39999,female,Il est / C'est injuste que ,"vegan, lazy, geek",25_photo_112233.jpeg,1-22-1965,48.7905970000001,2.242368,2
Seraphine,Duval,female,Seraphine.Duval.40@email.fr,SeraphineD40,SeraphineD40999,bisexual,"Je suis désolé, nous sommes complets. ","friends, tv, sea, sport, music",52_photo_112233.jpeg,5-5-1955,48.776097,2.220618,7
Berthe,Pasquier,female,Berthe.Pasquier.41@email.fr,BertheP41,BertheP41999,female,Est-ce que tu vas souvent à Paris? ,"geek, piercing",actor-6210338_640.jpg,1-21-1997,48.8295970000003,2.300868,8
Renard,Charpentier,female,Renard.Charpentier.42@email.fr,RenardC42,RenardC42999,male,Je suis convaincu que ,"sport, mountain, geek",63_photo_112233.jpeg,1-17-2000,48.7940970000001,2.247618,8
Liane,Fontaine,female,Liane.Fontaine.43@email.fr,LianeF43,LianeF43999,female,C'est Monsieur Smith. ,"sport, geek, lazy",101_photo_112233.jpeg,8-11-1957,48.9395970000008,2.46586800000001,3
Lydie,Voisin,male,Lydie.Voisin.44@email.fr,LydieV44,LydieV44999,female,Elle est mate de peau. ,"tv, sea",94_photo_112233.jpeg,1-18-1971,48.985097000001,2.53411800000001,1
Rochelle,Maillot,female,Rochelle.Maillot.45@email.fr,RochelleM45,RochelleM45999,female,C'est vrai. ,lazy,39_photo_112233.jpeg,5-21-1952,48.9250970000007,2.44411800000001,4
Sylvianne,Julien,male,Sylvianne.Julien.46@email.fr,SylvianneJ46,SylvianneJ46999,male,Santé! ,"sea, vegan",allan-warren-872631_640.jpg,5-24-1958,48.8070970000002,2.267118,9
Luc,Bruneau,male,Luc.Bruneau.47@email.fr,LucB47,LucB47999,female,Ce n'est pas très cher. ,"music, friends, tv",people-5987395_640.jpg,8-12-1987,48.8015970000002,2.258868,8
Gilles,Cousin,male,Gilles.Cousin.48@email.fr,GillesC48,GillesC48999,bisexual,Est-ce qu'il a neigé hier? ,"sport, friends, mountain",103_photo_112233.jpeg,8-23-1951,48.9255970000008,2.44486800000001,9
Clementine,Blondel,female,Clementine.Blondel.49@email.fr,ClementineB49,ClementineB49999,male,Comment percevez-vous ,"vegan, piercing, music, sport, lazy",72_photo_112233.jpeg,8-15-1989,48.9030970000006,2.41111800000001,2
Monique,Barbe,male,Monique.Barbe.50@email.fr,MoniqueB50,MoniqueB50999,bisexual,Est-ce que tu en as un autre? ,"tv, geek, sea, sport, piercing",people-3365483_640.jpg,7-12-1969,48.8165970000002,2.281368,4
Marthe,Blondel,male,Marthe.Blondel.51@email.fr,MartheB51,MartheB51999,bisexual,"Je vais bien, et toi? ","sea, sport",man-8245776_640.webp,8-22-1957,48.972097000001,2.51461800000001,8
Raymonde,Jacquot,female,Raymonde.Jacquot.52@email.fr,RaymondeJ52,RaymondeJ52999,bisexual,Il est / C'est possible que ,music,surprise-5321849_640.jpg,11-11-1997,48.9465970000009,2.47636800000001,1
Raoul,Rossi,male,Raoul.Rossi.53@email.fr,RaoulR53,RaoulR53999,male,Désolé de vous déranger. ,tv,yoga-day-4329896_640.jpg,10-2-1996,48.8535970000004,2.336868,7
Myriam,Da,female,Myriam.Da.54@email.fr,MyriamD54,MyriamD54999,female,Où est-ce que tu travaillais avant d'être avec nous ici ? ,"piercing, geek",5_photo_112233.jpeg,7-24-1968,48.8365970000003,2.311368,9
Hortense,Delaunay,female,Hortense.Delaunay.55@email.fr,HortenseD55,HortenseD55999,female,Je ne parle pas très bien. ,mountain,21_photo_112233.jpeg,5-11-1970,48.8955970000006,2.39986800000001,5
Lucile,Perrot,male,Lucile.Perrot.56@email.fr,LucileP56,LucileP56999,female,Je ne peux pas m'empêcher de penser que ,"sea, sport",103_photo_112233.jpeg,4-14-1960,48.9615970000009,2.49886800000001,4
Hugues,Gomes,female,Hugues.Gomes.57@email.fr,HuguesG57,HuguesG57999,female,Il est / C'est sûr que ,lazy,14_photo_112233.jpeg,7-9-1979,48.9380970000008,2.46361800000001,10
Faustine,Buisson,female,Faustine.Buisson.58@email.fr,FaustineB58,FaustineB58999,bisexual,Es-tu français? ,music,surprise-5321849_640.jpg,11-17-1978,48.9515970000009,2.48386800000001,1
Basile,Vial,male,Basile.Vial.59@email.fr,BasileV59,BasileV59999,bisexual,Est-ce que tu as pris tes médicaments? ,geek,people-5987395_640.jpg,5-16-1987,48.8050970000002,2.264118,1
Marie,Julien,male,Marie.Julien.60@email.fr,MarieJ60,MarieJ60999,bisexual,Comment percevez-vous ,"geek, mountain, vegan",aamir-tameen-867782_640.jpg,12-24-1986,48.9255970000008,2.44486800000001,7
Pascale,Gauthier,male,Pascale.Gauthier.61@email.fr,PascaleG61,PascaleG61999,female,Telle est mon opinion sur... ,"music, sea, geek, vegan, friends",53_photo_112233.jpeg,3-25-1982,48.8835970000006,2.38186800000001,9
Antoine,Martineau,female,Antoine.Martineau.62@email.fr,AntoineM62,AntoineM62999,bisexual,Je voudrais connaître / avoir votre avis / opinion sur ,"mountain, tv, friends, lazy",105_photo_112233.jpeg,9-4-1985,48.8745970000005,2.36836800000001,8
Diane,Gaillard,female,Diane.Gaillard.63@email.fr,DianeG63,DianeG63999,male,Il est grand. ,"geek, mountain, music",actor-542726_640.jpg,3-10-1986,48.8705970000005,2.36236800000001,4
Liane,Hoareau,female,Liane.Hoareau.64@email.fr,LianeH64,LianeH64999,male,ma grand-mère est décédée l'année dernière. ,"geek, tv, sport, vegan, lazy",104_photo_112233.jpeg,3-26-1968,48.9505970000009,2.48236800000001,3
Blanche,Weber,male,Blanche.Weber.65@email.fr,BlancheW65,BlancheW65999,male,Avez-vous une opinion sur ,"sport, vegan, tv",portrait-3241737_640.jpg,3-26-1974,48.9160970000007,2.43061800000001,7
Jacinthe,Lopes,female,Jacinthe.Lopes.66@email.fr,JacintheL66,JacintheL66999,bisexual,C'est ma mère. ,"sea, friends, piercing, sport",1_photo_112233.jpeg,7-3-2003,48.8190970000002,2.285118,3
Flavie,Seguin,male,Flavie.Seguin.67@email.fr,FlavieS67,FlavieS67999,bisexual,Est-ce que vous savez où il y a un magasin qui vend des serviettes? ,"lazy, sea, vegan, sport, music",street-performers-870113_640.jpg,12-12-1971,48.9675970000009,2.50786800000001,2
Arnaud,Turpin,female,Arnaud.Turpin.68@email.fr,ArnaudT68,ArnaudT68999,male,Pourriez-vous me donner / faire savoir votre réaction face à ,"piercing, lazy, sport, vegan, mountain",holland-315604_640.jpg,12-14-1952,48.8675970000005,2.35786800000001,4
Jeanine,Masson,female,Jeanine.Masson.69@email.fr,JeanineM69,JeanineM69999,male,Il est / C'est évident que ,"sea, sport, geek, mountain",20_photo_112233.jpeg,5-28-2001,48.8515970000004,2.333868,3
Jolie,Denis,male,Jolie.Denis.70@email.fr,JolieD70,JolieD70999,female,Est-ce que ton mari est aussi de Boston? ,"sea, piercing",83_photo_112233.jpeg,5-9-1991,48.778597,2.224368,10
Michel,Salmon,female,Michel.Salmon.71@email.fr,MichelS71,MichelS71999,bisexual,Elle est timide. ,"friends, sea, piercing, sport, geek",39_photo_112233.jpeg,5-18-1969,48.8540970000004,2.337618,1
Paschal,Launay,male,Paschal.Launay.72@email.fr,PaschalL72,PaschalL72999,bisexual,J'ai entendu dire que le Texas était beau comme endroit. ,"piercing, sea, sport, friends, vegan",people-3365483_640.jpg,8-27-1979,48.9220970000007,2.43961800000001,10
Arienne,Fabre,male,Arienne.Fabre.73@email.fr,ArienneF73,ArienneF73999,bisexual,Ce sont les mêmes. ,"geek, tv, sport",82_photo_112233.jpeg,4-13-1979,48.9370970000008,2.46211800000001,3
Donat,Pereira,male,Donat.Pereira.74@email.fr,DonatP74,DonatP74999,bisexual,Je ne me suis jamais vraiment posé la question. ,"geek, lazy, music, sport, piercing",snoop-dog-81879_640.jpg,3-4-1990,48.9405970000008,2.46736800000001,8
Sylvestre,Lagarde,male,Sylvestre.Lagarde.75@email.fr,SylvestreL75,SylvestreL75999,male,Si vous voulez mon opinion/avis ,"sea, music, friends, piercing, sport",street-performers-870113_640.jpg,9-12-2000,48.9640970000009,2.50261800000001,5
Giselle,Gros,female,Giselle.Gros.76@email.fr,GiselleG76,GiselleG76999,male,Il est sérieux. ,"music, tv",49_photo_112233.jpeg,12-9-2004,48.8020970000002,2.259618,8
Nicolas,Baudry,female,Nicolas.Baudry.77@email.fr,NicolasB77,NicolasB77999,bisexual,It's impossible ,mountain,22_photo_112233.jpeg,2-24-2002,48.773097,2.216118,6
Ambroise,Bourgeois,male,Ambroise.Bourgeois.78@email.fr,AmbroiseB78,AmbroiseB78999,female,N'importe quoi. ,"music, vegan, lazy, sport, mountain",109_photo_112233.jpeg,6-6-1963,48.777097,2.222118,7
Florette,Schneider,male,Florette.Schneider.79@email.fr,FloretteS79,FloretteS79999,bisexual,Je suis ici depuis deux jours. ,"tv, lazy, vegan, music, geek",people-5987395_640.jpg,3-9-1964,48.7915970000001,2.243868,6
Roxane,Brunet,male,Roxane.Brunet.80@email.fr,RoxaneB80,RoxaneB80999,female,Travailles-tu demain? ,"geek, sport, vegan, music",man-210379_640.jpg,1-26-1975,48.8880970000006,2.38861800000001,8
Anselme,Leroux,male,Anselme.Leroux.81@email.fr,AnselmeL81,AnselmeL81999,bisexual,"Oui, vraiment. ","sport, tv, mountain, lazy, piercing",87_photo_112233.jpeg,8-16-1972,48.8955970000006,2.39986800000001,4
Gaspard,Wagner,male,Gaspard.Wagner.82@email.fr,GaspardW82,GaspardW82999,bisexual,Es-tu sûr? ,"sport, friends, piercing",82_photo_112233.jpeg,4-2-1958,48.9645970000009,2.50336800000001,6
Alexandrie,Robin,male,Alexandrie.Robin.83@email.fr,AlexandrieR83,AlexandrieR83999,male,Il est / C'est impossible que ,"piercing, music, lazy, tv",people-3230020_640.jpg,4-21-1966,48.8200970000002,2.286618,6
Constantin,Bourdon,female,Constantin.Bourdon.84@email.fr,ConstantinB84,ConstantinB84999,bisexual,C'est trop. ,"sea, tv, vegan",woman-1462686_640.jpg,3-10-1979,48.9495970000009,2.48086800000001,5
Ouida,Andre,female,Ouida.Andre.85@email.fr,OuidaA85,OuidaA85999,female,Combien voudrais-tu? ,"mountain, friends",woman-1462683_640.jpg,1-11-1959,48.8635970000005,2.35186800000001,1
Modeste,Maire,male,Modeste.Maire.86@email.fr,ModesteM86,ModesteM86999,female,Comment percevez-vous ,geek,83_photo_112233.jpeg,9-9-1995,48.9530970000009,2.48611800000001,2
Jacinthe,Laporte,female,Jacinthe.Laporte.87@email.fr,JacintheL87,JacintheL87999,male,Plus que ça. ,"tv, sport, music",woman-1462682_640.jpg,3-21-1983,48.974597000001,2.51836800000001,9
Arnaud,Gilles,female,Arnaud.Gilles.88@email.fr,ArnaudG88,ArnaudG88999,female,Pratiquons l'anglais. ,"sport, tv, sea",fright-7989944_640.jpg,3-3-1982,48.9215970000007,2.43886800000001,7
Baudouin,Dubois,male,Baudouin.Dubois.89@email.fr,BaudouinD89,BaudouinD89999,female,Où étais-tu ? ,"sport, geek, mountain, sea",108_photo_112233.jpeg,11-5-1999,48.9510970000009,2.48311800000001,8
Michelle,Dupuy,female,Michelle.Dupuy.90@email.fr,MichelleD90,MichelleD90999,male,C'est Monsieur Smith. ,"tv, geek, sport, mountain",8_photo_112233.jpeg,11-18-1953,48.8730970000005,2.36611800000001,7
Zacharie,Fontaine,male,Zacharie.Fontaine.91@email.fr,ZacharieF91,ZacharieF91999,male,Elle est courageuse. ,lazy,100_photo_112233.jpeg,6-13-1999,48.9585970000009,2.49436800000001,4
Bertrand,Martin,male,Bertrand.Martin.92@email.fr,BertrandM92,BertrandM92999,female,Non. ,"music, lazy",male-model-7686778_640.jpg,9-19-2003,48.9095970000007,2.42086800000001,7
Reynaud,Dos,female,Reynaud.Dos.93@email.fr,ReynaudD93,ReynaudD93999,bisexual,Je crains qu'il ne soit ,"sport, vegan, tv, music, geek",1_photo_112233.jpeg,12-11-1958,48.9275970000008,2.44786800000001,1
Prosper,Guillou,female,Prosper.Guillou.94@email.fr,ProsperG94,ProsperG94999,female,Merci pour ton aide. ,"sport, music, mountain, sea",35_photo_112233.jpeg,2-19-1960,48.978597000001,2.52436800000001,1
Sylvain,Coste,female,Sylvain.Coste.95@email.fr,SylvainC95,SylvainC95999,female,Elle travaille dur. ,"geek, music, piercing, vegan",44_photo_112233.jpeg,11-5-1967,48.8080970000002,2.268618,8
Pierre,Toussaint,female,Pierre.Toussaint.96@email.fr,PierreT96,PierreT96999,bisexual,Pas récemment. ,"music, piercing, geek, vegan, tv",68_photo_112233.jpeg,9-13-2003,48.7815970000001,2.228868,4
Lunete,Ribeiro,male,Lunete.Ribeiro.97@email.fr,LuneteR97,LuneteR97999,female,Je suppose que ,"tv, vegan, sport, geek",male-model-7686778_640.jpg,4-16-2000,48.7950970000001,2.249118,1
Victorine,Blin,female,Victorine.Blin.98@email.fr,VictorineB98,VictorineB98999,male,Il est / C'est certain que ,"piercing, lazy, vegan, tv, sport",theatre-3966147_640.jpg,9-17-1969,48.9095970000007,2.42086800000001,4
Didier,Renaud,male,Didier.Renaud.99@email.fr,DidierR99,DidierR99999,male,Quel est votre nom de famille ? ,"sport, piercing, tv, geek",face-3265605_640.jpg,2-17-1962,48.8970970000006,2.40211800000001,1
Lionel,Guillou,female,Lionel.Guillou.100@email.fr,LionelG100,LionelG100999,male,Est-ce que tu vas prendre un avion ou un train? ,"geek, sport, piercing, lazy",51_photo_112233.jpeg,8-28-1992,48.969097000001,2.51011800000001,10
Hortense,Dupont,female,Hortense.Dupont.101@email.fr,HortenseD101,HortenseD101999,female,À mon avis ,"sea, vegan, piercing, tv",fright-7989944_640.jpg,6-27-1967,48.7955970000001,2.249868,8
Sylvianne,Aubry,male,Sylvianne.Aubry.102@email.fr,SylvianneA102,SylvianneA102999,bisexual,Pas encore. ,"geek, music, piercing, vegan",56_photo_112233.jpeg,5-5-1998,48.9605970000009,2.49736800000001,3
Franck,Robin,female,Franck.Robin.103@email.fr,FranckR103,FranckR103999,male,Voudriez-vous prendre un message s'il vous plaît? ,"piercing, sea, friends, mountain",actor-6311507_640.jpg,6-16-1957,48.8830970000006,2.38111800000001,3
Chantal,Turpin,female,Chantal.Turpin.104@email.fr,ChantalT104,ChantalT104999,male,S'il vous plaît emmenez-moi à cette adresse. ,"piercing, tv",14_photo_112233.jpeg,8-23-1974,48.773597,2.216868,6
Noel,Salmon,male,Noel.Salmon.105@email.fr,NoelS105,NoelS105999,female,Elle est jolie. ,"lazy, tv",91_photo_112233.jpeg,11-24-1974,48.8355970000003,2.309868,2
Mignon,Collin,female,Mignon.Collin.106@email.fr,MignonC106,MignonC106999,bisexual,J'allais quitter le restaurant quand mes amis sont arrivés. ,"friends, sport, tv",fright-7989944_640.jpg,4-12-1959,48.9040970000007,2.41261800000001,8
Margot,Giraud,female,Margot.Giraud.107@email.fr,MargotG107,MargotG107999,bisexual,Je ne me le suis jamais demandé. ,lazy,21_photo_112233.jpeg,5-8-1982,48.982597000001,2.53036800000001,10
Adolphe,Barbe,male,Adolphe.Barbe.108@email.fr,AdolpheB108,AdolpheB108999,female,Ça sent mauvais. ,"piercing, music",actor-2181844_640.jpg,8-8-1963,48.983097000001,2.53111800000001,3
Achille,Vincent,female,Achille.Vincent.109@email.fr,AchilleV109,AchilleV109999,bisexual,Je veux seulement un en-cas. ,"sea, sport",69_photo_112233.jpeg,8-15-1989,48.8605970000004,2.34736800000001,4
Eustache,Rodrigues,male,Eustache.Rodrigues.110@email.fr,EustacheR110,EustacheR110999,female,Elle a les yeux verts. ,"mountain, music, tv, piercing",model-5176707_640.jpg,9-13-1964,48.773097,2.216118,7
Clementine,Maillot,female,Clementine.Maillot.111@email.fr,ClementineM111,ClementineM111999,female,Il est / C'est vrai que ,"mountain, vegan, sea, music, tv",madame-tussauds-1720457_640.jpg,8-10-1971,48.7865970000001,2.236368,10
Jeanine,Potier,female,Jeanine.Potier.112@email.fr,JeanineP112,JeanineP112999,bisexual,Mon fils étudie l'informatique. ,"friends, piercing, vegan, sea, mountain",models-4277829_640.jpg,3-20-1964,48.8095970000002,2.270868,10
Suzanne,Perret,female,Suzanne.Perret.113@email.fr,SuzanneP113,SuzanneP113999,bisexual,"Non, je suis américain. ","sea, sport",marilyn-monroe-555603_640.jpg,5-16-1987,48.8530970000004,2.336118,10
Florentin,Lefort,male,Florentin.Lefort.114@email.fr,FlorentinL114,FlorentinL114999,female,Arrête! ,sport,64_photo_112233.jpeg,10-12-1996,48.8565970000004,2.341368,8
Bastien,Laporte,male,Bastien.Laporte.115@email.fr,BastienL115,BastienL115999,bisexual,D'après moi ,"sport, vegan",face-3265605_640.jpg,8-2-1958,48.9165970000007,2.43136800000001,5
Roxane,Schmitt,male,Roxane.Schmitt.116@email.fr,RoxaneS116,RoxaneS116999,bisexual,De temps en temps. ,lazy,9_photo_112233.jpeg,2-24-1987,48.8840970000006,2.38261800000001,7
Denis,Carlier,female,Denis.Carlier.117@email.fr,DenisC117,DenisC117999,bisexual,J'ai trente-deux ans. ,"piercing, friends",1_photo_112233.jpeg,4-11-1974,48.7815970000001,2.228868,1
Mathilde,Le,male,Mathilde.Le.118@email.fr,MathildeL118,MathildeL118999,bisexual,Désolé de vous déranger. ,"piercing, music",18_photo_112233.jpeg,6-12-1965,48.8585970000004,2.344368,10
Perrine,Besnard,male,Perrine.Besnard.119@email.fr,PerrineB119,PerrineB119999,male,J'allais quitter le restaurant quand mes amis sont arrivés. ,"lazy, tv, friends, sea",backstage-951903_640.jpg,10-13-2004,48.9250970000007,2.44411800000001,4
Diane,Camus,female,Diane.Camus.120@email.fr,DianeC120,DianeC120999,female,Qu'est-ce que tu vas faire ce soir ? ,"vegan, tv",head-shoot-1542339_640.jpg,12-2-1987,48.8985970000006,2.40436800000001,9
Patrice,Valentin,male,Patrice.Valentin.121@email.fr,PatriceV121,PatriceV121999,bisexual,Je viens te chercher. ,"music, sport, piercing, tv",man-5757539_640.jpg,3-19-1995,48.8360970000003,2.310618,5
Anatole,Bourgeois,male,Anatole.Bourgeois.122@email.fr,AnatoleB122,AnatoleB122999,bisexual,Je préférerais ne pas m'engager ,"music, lazy",people-3224723_640.jpg,2-1-2000,48.8560970000004,2.340618,4
Brice,Neveu,female,Brice.Neveu.123@email.fr,BriceN123,BriceN123999,male,Merci pour tout. ,piercing,woman-1462683_640.jpg,11-7-1958,48.770597,2.212368,3
Fernande,Perrin,female,Fernande.Perrin.124@email.fr,FernandeP124,FernandeP124999,bisexual,Merci Monsieur. ,"lazy, geek, sport, music",madame-tussauds-1720457_640.jpg,11-2-1996,48.9155970000007,2.42986800000001,8
Avril,Menard,female,Avril.Menard.125@email.fr,AvrilM125,AvrilM125999,female,Est-ce que tu as faim? ,"vegan, friends, music",drama-1155445_640.jpg,2-24-1983,48.8200970000002,2.286618,1
Jeannot,Schmitt,male,Jeannot.Schmitt.126@email.fr,JeannotS126,JeannotS126999,male,Où étais-tu ? ,sport,people-3365483_640.jpg,8-11-1970,48.8020970000002,2.259618,10
Benoite,Maire,female,Benoite.Maire.127@email.fr,BenoiteM127,BenoiteM127999,male,Ce n'est pas très cher. ,geek,1_photo_112233.jpeg,1-24-1964,48.9620970000009,2.49961800000001,1
Louise,Roux,male,Louise.Roux.128@email.fr,LouiseR128,LouiseR128999,female,Je suis très occupé. Je n'ai pas le temps maintenant. ,"piercing, friends",personification-1508890_640.jpg,2-14-1994,48.9650970000009,2.50411800000001,4
Ghislaine,Jacquet,female,Ghislaine.Jacquet.129@email.fr,GhislaineJ129,GhislaineJ129999,bisexual,J'y suis allé. ,lazy,actor-542726_640.jpg,6-15-1994,48.8985970000006,2.40436800000001,2
Aurore,Guillon,male,Aurore.Guillon.130@email.fr,AuroreG130,AuroreG130999,male,"Si vous avez besoin de mon aide, faites-le-moi savoir s'il vous plaît. ","tv, mountain, piercing",9_photo_112233.jpeg,11-11-1995,48.8110970000002,2.273118,4
Eustache,Brun,male,Eustache.Brun.131@email.fr,EustacheB131,EustacheB131999,female,Elle est jolie. ,tv,smile-1221915_640.jpg,7-17-1997,48.7970970000001,2.252118,2
Fabienne,Noel,female,Fabienne.Noel.132@email.fr,FabienneN132,FabienneN132999,male,Il me semble que ,friends,93_photo_112233.jpeg,12-12-1986,48.9045970000007,2.41336800000001,1
Charlot,Rodrigues,male,Charlot.Rodrigues.133@email.fr,CharlotR133,CharlotR133999,male,Elle est spécialiste. ,"sea, tv, lazy",112_photo_112233.jpeg,4-13-1961,48.8675970000005,2.35786800000001,3
Hyacinthe,Chauveau,female,Hyacinthe.Chauveau.134@email.fr,HyacintheC134,HyacintheC134999,female,Pourriez-vous me dire ce que vous pensez de ,"piercing, friends, lazy, sport, music",36_photo_112233.jpeg,6-14-1989,48.8405970000003,2.317368,7
Chantal,Pottier,female,Chantal.Pottier.135@email.fr,ChantalP135,ChantalP135999,female,Je veux seulement un en-cas. ,mountain,cafe-1699128_640.jpg,9-20-1987,48.8950970000006,2.39911800000001,2
Lazare,Faure,male,Lazare.Faure.136@email.fr,LazareF136,LazareF136999,female,S'il vous plaît remplissez ce formulaire. ,"friends, vegan",frank-sinatra-1281484_640.jpg,7-28-1953,48.8425970000004,2.320368,10
Roselle,Maillot,female,Roselle.Maillot.137@email.fr,RoselleM137,RoselleM137999,female,C'est tout. ,"sea, sport",mount-saint-helens-4395977_640.jpg,4-4-1997,48.8240970000003,2.292618,10
Noel,Schneider,male,Noel.Schneider.138@email.fr,NoelS138,NoelS138999,male,J'y suis allé. ,"music, tv, mountain, vegan",man-6342452_640.jpg,7-4-1950,48.8650970000005,2.35411800000001,2
Philibert,Mallet,male,Philibert.Mallet.139@email.fr,PhilibertM139,PhilibertM139999,female,Est-ce que ton mari est aussi de Boston? ,"music, sea, mountain",groucho-marx-male-1278137_640.jpg,3-20-1972,48.9070970000007,2.41711800000001,9
Zephyrine,Menard,female,Zephyrine.Menard.140@email.fr,ZephyrineM140,ZephyrineM140999,bisexual,Je t'appellerai vendredi. ,piercing,models-4277829_640.jpg,6-14-1978,48.9555970000009,2.48986800000001,8
Onesime,Morvan,male,Onesime.Morvan.141@email.fr,OnesimeM141,OnesimeM141999,female,Merci Monsieur. ,"friends, piercing, music, sea, lazy",gregory-peck-90779_640.jpg,1-27-1958,48.981097000001,2.52811800000001,5
Arnaude,Laroche,male,Arnaude.Laroche.142@email.fr,ArnaudeL142,ArnaudeL142999,female,Elle travaille dur. ,"lazy, vegan",brad-pitt-164880_640.jpg,11-17-1995,48.9150970000007,2.42911800000001,6
Tatienne,Cohen,male,Tatienne.Cohen.143@email.fr,TatienneC143,TatienneC143999,female,J'ai besoin de changer de vêtements. ,"piercing, sea",filmproduction-485518_640.jpg,4-23-1974,48.9065970000007,2.41636800000001,7
Odile,Guillon,male,Odile.Guillon.144@email.fr,OdileG144,OdileG144999,male,Je n'ai jamais vraiment réfléchi à ,"sea, geek, lazy",smile-1221915_640.jpg,1-4-1995,48.7925970000001,2.245368,7
Flavie,Normand,male,Flavie.Normand.145@email.fr,FlavieN145,FlavieN145999,bisexual,De temps en temps. ,"piercing, sea",56_photo_112233.jpeg,11-28-1995,48.8680970000005,2.35861800000001,5
Yves,Guyot,male,Yves.Guyot.146@email.fr,YvesG146,YvesG146999,bisexual,Nik a les cheveux courts. ,"geek, mountain, music",man-8245776_640.webp,4-17-1976,48.9265970000008,2.44636800000001,4
Gaspard,Leroux,male,Gaspard.Leroux.147@email.fr,GaspardL147,GaspardL147999,bisexual,Es-tu sûr? ,"mountain, sea, tv, lazy",95_photo_112233.jpeg,10-4-1993,48.8360970000003,2.310618,4
Aurelien,Garcia,male,Aurelien.Garcia.148@email.fr,AurelienG148,AurelienG148999,female,J'ai besoin de changer de vêtements. ,geek,78_photo_112233.jpeg,12-18-1971,48.8610970000004,2.34811800000001,10
Morgaine,Lacoste,male,Morgaine.Lacoste.149@email.fr,MorgaineL149,MorgaineL149999,male,Je crains qu'il ne soit ,"tv, mountain, vegan, sea, music",yoga-day-4329896_640.jpg,7-10-1991,48.8700970000005,2.36161800000001,10
Flavie,Faure,male,Flavie.Faure.150@email.fr,FlavieF150,FlavieF150999,female,Je ne pense pas ,"mountain, geek, friends",dracula-theater-7209931_640.jpg,4-23-1991,48.8175970000002,2.282868,5
Louis,Renault,male,Louis.Renault.151@email.fr,LouisR151,LouisR151999,female,Nous avons deux garçons et une fille. ,mountain,88_photo_112233.jpeg,4-20-1971,48.8370970000003,2.312118,3
Rodrigue,Godard,male,Rodrigue.Godard.152@email.fr,RodrigueG152,RodrigueG152999,male,Elle est jolie. ,"geek, piercing, music, sport",people-3224723_640.jpg,1-18-1973,48.8000970000001,2.256618,10
Donat,Navarro,male,Donat.Navarro.153@email.fr,DonatN153,DonatN153999,male,J'ai l'idée que ,"music, lazy, geek",109_photo_112233.jpeg,4-13-1950,48.9340970000008,2.45761800000001,3
Edwige,Gaudin,male,Edwige.Gaudin.154@email.fr,EdwigeG154,EdwigeG154999,bisexual,Santé! ,"mountain, geek, friends",people-3365483_640.jpg,12-8-1993,48.968097000001,2.50861800000001,10
Juliette,Wagner,female,Juliette.Wagner.155@email.fr,JulietteW155,JulietteW155999,male,C'est trop. ,"lazy, geek",106_photo_112233.jpeg,1-9-1976,48.9640970000009,2.50261800000001,3
Sophie,Chevalier,male,Sophie.Chevalier.156@email.fr,SophieC156,SophieC156999,bisexual,Juste ici. ,music,56_photo_112233.jpeg,5-28-1987,48.9420970000008,2.46961800000001,8
Clothilde,Navarro,female,Clothilde.Navarro.157@email.fr,ClothildeN157,ClothildeN157999,bisexual,Est-ce que tu as pris tes médicaments? ,"geek, piercing, sea, music, vegan",32_photo_112233.jpeg,9-8-1966,48.8570970000004,2.342118,10
Fabien,Vasseur,male,Fabien.Vasseur.158@email.fr,FabienV158,FabienV158999,male,N'importe quoi. ,"sea, lazy",64_photo_112233.jpeg,6-17-1983,48.982597000001,2.53036800000001,9
Lucile,Martineau,male,Lucile.Martineau.159@email.fr,LucileM159,LucileM159999,female,Je suis américain. ,"sport, lazy, friends, tv",18_photo_112233.jpeg,10-13-1987,48.9520970000009,2.48461800000001,10
Manon,Barbe,male,Manon.Barbe.160@email.fr,ManonB160,ManonB160999,male,Je suis marié. ,"vegan, music, mountain",man-8162325_640.jpg,9-11-1959,48.8070970000002,2.267118,4
Toinette,Valentin,female,Toinette.Valentin.161@email.fr,ToinetteV161,ToinetteV161999,male,Elle est paresseuse. ,"geek, friends, tv, lazy, vegan",ramayana-festival-1807516_640.jpg,11-23-1993,48.8495970000004,2.330868,9
Sylvaine,Duval,male,Sylvaine.Duval.162@email.fr,SylvaineD162,SylvaineD162999,female,Tu es belle. ,"sport, mountain",man-6342455_640.jpg,11-27-1955,48.8120970000002,2.274618,5
Matthieu,Dupont,female,Matthieu.Dupont.163@email.fr,MatthieuD163,MatthieuD163999,male,Dis-moi. ,"music, lazy, sport",34_photo_112233.jpeg,11-22-1953,48.9635970000009,2.50186800000001,9
Philibert,Laporte,male,Philibert.Laporte.164@email.fr,PhilibertL164,PhilibertL164999,male,Il est / C'est certain que ,"tv, geek, lazy",58_photo_112233.jpeg,5-14-1986,48.9325970000008,2.45536800000001,10
Florianne,Guillet,male,Florianne.Guillet.165@email.fr,FlorianneG165,FlorianneG165999,bisexual,Il est gentil. ,"sport, tv",jorn-schlonvogt-1202320_640.jpg,7-6-1999,48.9615970000009,2.49886800000001,7
Marceline,Rolland,male,Marceline.Rolland.166@email.fr,MarcelineR166,MarcelineR166999,female,Je veux seulement un en-cas. ,"vegan, geek",businessman-6248246_640.jpg,12-9-1998,48.974097000001,2.51761800000001,6
Alphonse,Jacquot,female,Alphonse.Jacquot.167@email.fr,AlphonseJ167,AlphonseJ167999,female,"Très bien, merci. ","sport, tv, mountain, lazy, piercing",12_photo_112233.jpeg,10-14-1983,48.8480970000004,2.328618,10
Carine,Laroche,male,Carine.Laroche.168@email.fr,CarineL168,CarineL168999,male,Il est / C'est juste que ,"tv, mountain, sea, friends",57_photo_112233.jpeg,11-13-2002,48.7890970000001,2.240118,5
Cerise,Muller,male,Cerise.Muller.169@email.fr,CeriseM169,CeriseM169999,female,Tente ta chance. ,"sport, vegan, tv, piercing, sea",snoop-dog-81879_640.jpg,11-12-1971,48.9410970000008,2.46811800000001,2
Armelle,Morin,female,Armelle.Morin.170@email.fr,ArmelleM170,ArmelleM170999,bisexual,It's impossible ,music,40_photo_112233.jpeg,9-7-1965,48.8765970000005,2.37136800000001,3
Georgette,Poirier,female,Georgette.Poirier.171@email.fr,GeorgetteP171,GeorgetteP171999,female,Tu es très sympa. ,geek,104_photo_112233.jpeg,6-28-2004,48.9195970000007,2.43586800000001,4
Telesphore,Roux,male,Telesphore.Roux.172@email.fr,TelesphoreR172,TelesphoreR172999,bisexual,Je nettoie ma chambre. ,"vegan, mountain, piercing, music, sport",15_photo_112233.jpeg,6-27-1964,48.9290970000008,2.45011800000001,8
Florianne,Bertin,male,Florianne.Bertin.173@email.fr,FlorianneB173,FlorianneB173999,male,Je me sens bien. ,"piercing, sea, lazy, mountain",portrait-3060106_640.jpg,3-27-1969,48.8835970000006,2.38186800000001,3
Juste,Launay,male,Juste.Launay.174@email.fr,JusteL174,JusteL174999,bisexual,Ce sont les mêmes. ,"mountain, geek",31_photo_112233.jpeg,10-20-1989,48.8125970000002,2.275368,9
Charlot,Camus,male,Charlot.Camus.175@email.fr,CharlotC175,CharlotC175999,female,Merci Mademoiselle. ,piercing,brad-pitt-164880_640.jpg,2-3-1974,48.9055970000007,2.41486800000001,5
Natalie,Barbier,male,Natalie.Barbier.176@email.fr,NatalieB176,NatalieB176999,female,Chicago est très différente de Boston. ,"music, geek",64_photo_112233.jpeg,2-10-1987,48.8370970000003,2.312118,5
Aline,Boucher,female,Aline.Boucher.177@email.fr,AlineB177,AlineB177999,male,C'est très important. ,"vegan, geek, sea, music",woman-1462683_640.jpg,8-14-1956,48.8280970000003,2.298618,7
Mathilde,Camus,male,Mathilde.Camus.178@email.fr,MathildeC178,MathildeC178999,bisexual,Je m'appelle John Smith. ,"tv, geek",mime-4871674_640.jpg,11-13-2000,48.9155970000007,2.42986800000001,3
Noella,Lopes,female,Noella.Lopes.179@email.fr,NoellaL179,NoellaL179999,female,"Non, c'est la première fois. ","sea, vegan, piercing, tv",104_photo_112233.jpeg,3-20-1991,48.9355970000008,2.45986800000001,9
Philippine,Jourdan,female,Philippine.Jourdan.180@email.fr,PhilippineJ180,PhilippineJ180999,male,Il est gros. ,mountain,106_photo_112233.jpeg,11-25-1967,48.8605970000004,2.34736800000001,4
Gwenaelle,Roux,female,Gwenaelle.Roux.181@email.fr,GwenaelleR181,GwenaelleR181999,male,J'ai entendu parler de ,"piercing, mountain, geek, music",69_photo_112233.jpeg,10-18-2002,48.774097,2.217618,2
Arienne,Diallo,male,Arienne.Diallo.182@email.fr,ArienneD182,ArienneD182999,female,Pas récemment. ,"friends, tv, geek, vegan",15_photo_112233.jpeg,4-1-1962,48.8560970000004,2.340618,5
Armelle,Hernandez,female,Armelle.Hernandez.183@email.fr,ArmelleH183,ArmelleH183999,bisexual,Ça suffit. ,"sport, vegan, tv, piercing, sea",35_photo_112233.jpeg,4-5-1958,48.7890970000001,2.240118,3
Marcellin,Vaillant,female,Marcellin.Vaillant.184@email.fr,MarcellinV184,MarcellinV184999,bisexual,Je suis très occupé. Je n'ai pas le temps maintenant. ,"lazy, piercing, vegan, geek",3_photo_112233.jpeg,8-7-1959,48.7860970000001,2.235618,7
Gilberte,Rocher,female,Gilberte.Rocher.185@email.fr,GilberteR185,GilberteR185999,bisexual,Il est / C'est impossible que ,music,101_photo_112233.jpeg,12-4-1972,48.8315970000003,2.303868,3
Sabine,Costa,male,Sabine.Costa.186@email.fr,SabineC186,SabineC186999,female,J'aimerais / Je voudrais savoir ce que vous pensez de ,"piercing, geek",91_photo_112233.jpeg,1-7-1992,48.7840970000001,2.232618,10
Micheline,Grenier,female,Micheline.Grenier.187@email.fr,MichelineG187,MichelineG187999,bisexual,Je dois laver mes vêtements. ,lazy,madame-tussauds-1720457_640.jpg,9-22-1973,48.8545970000004,2.338368,10
Pons,Lopez,female,Pons.Lopez.188@email.fr,PonsL188,PonsL188999,bisexual,Qu'est-ce que tu étudies ? ,"tv, music, lazy, vegan, piercing",35_photo_112233.jpeg,4-6-1961,48.8695970000005,2.36086800000001,5
Morgaine,Chartier,male,Morgaine.Chartier.189@email.fr,MorgaineC189,MorgaineC189999,female,De temps en temps. ,"friends, lazy, sea",18_photo_112233.jpeg,9-15-1963,48.971597000001,2.51386800000001,7
Alphonsine,Martin,female,Alphonsine.Martin.190@email.fr,AlphonsineM190,AlphonsineM190999,bisexual,Combien d'enfants est-ce tu as? ,"lazy, sport",49_photo_112233.jpeg,4-4-1982,48.978597000001,2.52436800000001,7
Jeannot,Lemoine,male,Jeannot.Lemoine.191@email.fr,JeannotL191,JeannotL191999,male,ma grand-mère est décédée l'année dernière. ,sea,82_photo_112233.jpeg,12-25-1999,48.8160970000002,2.280618,1
Diane,Vasseur,female,Diane.Vasseur.192@email.fr,DianeV192,DianeV192999,female,Juste ici. ,"geek, lazy, sea, music, sport",37_photo_112233.jpeg,11-18-1964,48.9565970000009,2.49136800000001,1
Olivier,Guillet,female,Olivier.Guillet.193@email.fr,OlivierG193,OlivierG193999,bisexual,Elle est plus âgée que moi. ,"lazy, piercing",actor-542726_640.jpg,8-12-1963,48.8555970000004,2.339868,6
Geoffroi,Toussaint,male,Geoffroi.Toussaint.194@email.fr,GeoffroiT194,GeoffroiT194999,bisexual,Pourriez-vous me donner / faire savoir votre avis/opinion sur ,vegan,53_photo_112233.jpeg,6-3-1998,48.9370970000008,2.46211800000001,2
Sylvianne,Royer,male,Sylvianne.Royer.195@email.fr,SylvianneR195,SylvianneR195999,female,Il est / C'est certain que ,"vegan, piercing, music, sport, lazy",people-3224723_640.jpg,7-12-1952,48.7965970000001,2.251368,6
Pauline,Joubert,female,Pauline.Joubert.196@email.fr,PaulineJ196,PaulineJ196999,bisexual,Tu es belle. ,music,fashion-4746903_640.jpg,7-8-1951,48.8655970000005,2.35486800000001,4
Faustine,Vallet,female,Faustine.Vallet.197@email.fr,FaustineV197,FaustineV197999,bisexual,Je ne suis pas à même de dire si ,sea,22_photo_112233.jpeg,8-6-1956,48.9390970000008,2.46511800000001,3
Claudine,Colas,male,Claudine.Colas.198@email.fr,ClaudineC198,ClaudineC198999,male,Quant à moi ,"vegan, geek, mountain, music",portrait-3241737_640.jpg,2-23-2004,48.9230970000007,2.44111800000001,7
Juliane,Hoarau,female,Juliane.Hoarau.199@email.fr,JulianeH199,JulianeH199999,female,Il est / C'est impossible que ,"sport, music, tv",63_photo_112233.jpeg,5-3-1952,48.770097,2.211618,10
Alexandrie,Lenoir,male,Alexandrie.Lenoir.200@email.fr,AlexandrieL200,AlexandrieL200999,bisexual,Je pense que ,"geek, sport",78_photo_112233.jpeg,6-25-1952,48.9215970000007,2.43886800000001,6
Claire,Henry,male,Claire.Henry.201@email.fr,ClaireH201,ClaireH201999,bisexual,Il est / C'est évident que ,"tv, mountain, piercing",57_photo_112233.jpeg,9-8-1960,48.7820970000001,2.229618,10
Noella,Colas,female,Noella.Colas.202@email.fr,NoellaC202,NoellaC202999,male,Je suis d'avis que ,sea,12_photo_112233.jpeg,12-13-1969,48.8795970000005,2.37586800000001,1
Gautier,Caron,male,Gautier.Caron.203@email.fr,GautierC203,GautierC203999,male,Santé! ,"geek, piercing, sea, music, vegan",groucho-marx-male-1278137_640.jpg,3-16-1965,48.8165970000002,2.281368,1
Raymonde,Roy,female,Raymonde.Roy.204@email.fr,RaymondeR204,RaymondeR204999,male,Il est / C'est vrai que ,"friends, geek, music, sea",45_photo_112233.jpeg,12-10-1990,48.8265970000003,2.296368,7
Renaud,Camus,female,Renaud.Camus.205@email.fr,RenaudC205,RenaudC205999,bisexual,Telle est mon opinion sur... ,sea,13_photo_112233.jpeg,2-15-1976,48.7855970000001,2.234868,10
Marie,Jourdan,male,Marie.Jourdan.206@email.fr,MarieJ206,MarieJ206999,female,"Très bien, merci. ","geek, mountain, tv, sea, music",snoop-dog-81879_640.jpg,7-16-2001,48.979097000001,2.52511800000001,2
Auguste,Ollivier,female,Auguste.Ollivier.207@email.fr,AugusteO207,AugusteO207999,male,Je t’emmènerai à l'arrêt de bus. ,"piercing, geek, vegan",sonam-prajapati-6893225_640.jpg,11-16-2002,48.8435970000004,2.321868,1
Reine,Leroy,male,Reine.Leroy.208@email.fr,ReineL208,ReineL208999,male,Est-ce que tu vas prendre un avion ou un train? ,"piercing, mountain",man-4134645_640.jpg,3-8-1960,48.7970970000001,2.252118,9
Justine,Gilles,female,Justine.Gilles.209@email.fr,JustineG209,JustineG209999,male,On dit que ,sea,12_photo_112233.jpeg,8-24-1983,48.8610970000004,2.34811800000001,4
Jean-marie,Valentin,male,Jean-marie.Valentin.210@email.fr,Jean-marieV210,Jean-marieV210999,male,On dit que ,"tv, music",actor-63082_640.jpg,2-6-1994,48.8570970000004,2.342118,4
Gisselle,Joly,female,Gisselle.Joly.211@email.fr,GisselleJ211,GisselleJ211999,female,A bientôt. ,"piercing, sport, friends",26_photo_112233.jpeg,9-19-1989,48.8690970000005,2.36011800000001,10
Gigi,Leclercq,male,Gigi.Leclercq.212@email.fr,GigiL212,GigiL212999,bisexual,Est-ce que tu en as un autre? ,piercing,acteur1.png,4-6-1972,48.8420970000004,2.319618,8
Josette,Denis,male,Josette.Denis.213@email.fr,JosetteD213,JosetteD213999,bisexual,Personnellement ,mountain,filmproduction-485518_640.jpg,12-24-1986,48.8720970000005,2.36461800000001,8
Pascaline,Klein,male,Pascaline.Klein.214@email.fr,PascalineK214,PascalineK214999,bisexual,Il a les yeux bleus. ,"lazy, friends, geek, piercing",face-3265605_640.jpg,1-7-1950,48.8190970000002,2.285118,3
Loup,Durand,female,Loup.Durand.215@email.fr,LoupD215,LoupD215999,female,Il est patient. ,"lazy, geek, tv, sea",5_photo_112233.jpeg,1-10-1973,48.9585970000009,2.49436800000001,4
Felicien,Raynaud,male,Felicien.Raynaud.216@email.fr,FelicienR216,FelicienR216999,female,Je suis allergique aux fruits de mer. ,music,78_photo_112233.jpeg,9-6-1970,48.8395970000003,2.315868,3
Amaury,Duval,male,Amaury.Duval.217@email.fr,AmauryD217,AmauryD217999,male,Selon moi ,"music, sea, tv",97_photo_112233.jpeg,1-16-1953,48.7935970000001,2.246868,3
Brice,Chevallier,female,Brice.Chevallier.218@email.fr,BriceC218,BriceC218999,female,Vos enfants sont très bien élevés. ,vegan,woman-1462686_640.jpg,5-10-1954,48.768597,2.209368,9
Benoit,Tran,male,Benoit.Tran.219@email.fr,BenoitT219,BenoitT219999,female,Rien d'autre. ,piercing,street-performers-870113_640.jpg,1-5-1974,48.8775970000005,2.37286800000001,8
Germain,Bazin,female,Germain.Bazin.220@email.fr,GermainB220,GermainB220999,male,Je pense que c'est très bon. ,"piercing, sport, friends",actors-1851317_640.jpg,5-19-1960,48.774597,2.218368,2
Vespasien,Huet,female,Vespasien.Huet.221@email.fr,VespasienH221,VespasienH221999,female,Je suppose que ,"tv, sea, piercing, lazy, sport",28_photo_112233.jpeg,2-24-1955,48.7875970000001,2.237868,5
Hercule,Meunier,female,Hercule.Meunier.222@email.fr,HerculeM222,HerculeM222999,male,Il arrive bientôt. ,"lazy, vegan, piercing",17_photo_112233.jpeg,6-11-1983,48.8460970000004,2.325618,7
Charlot,Foucher,male,Charlot.Foucher.223@email.fr,CharlotF223,CharlotF223999,bisexual,Elle est pauvre. ,"lazy, sea, vegan, sport, music",79_photo_112233.jpeg,11-27-1960,48.8050970000002,2.264118,2
Aurore,Fabre,male,Aurore.Fabre.224@email.fr,AuroreF224,AuroreF224999,male,Il est agréable ,"geek, mountain, tv, sea, music",30_photo_112233.jpeg,5-27-2000,48.8155970000002,2.279868,7
Armelle,Grondin,female,Armelle.Grondin.225@email.fr,ArmelleG225,ArmelleG225999,female,Plus que ça. ,"sport, geek, music, vegan",27_photo_112233.jpeg,2-28-2004,48.775597,2.219868,2
Claudette,Langlois,female,Claudette.Langlois.226@email.fr,ClaudetteL226,ClaudetteL226999,bisexual,Avez-vous une opinion sur ,"sport, lazy, piercing, vegan, tv",104_photo_112233.jpeg,7-18-1997,48.775597,2.219868,6
Nadine,Guyot,male,Nadine.Guyot.227@email.fr,NadineG227,NadineG227999,bisexual,Lisa a les cheveux longs. ,"friends, tv, sea, sport, music",godfather-4292451_640.jpg,4-27-2003,48.9220970000007,2.43961800000001,3
Josiane,Aubert,male,Josiane.Aubert.228@email.fr,JosianeA228,JosianeA228999,male,C'est du moins mon opinion. ,"sea, tv, lazy",filmproduction-485518_640.jpg,9-3-1964,48.8650970000005,2.35411800000001,9
Rodolphe,Lefevre,male,Rodolphe.Lefevre.229@email.fr,RodolpheL229,RodolpheL229999,male,Je suis malade. ,friends,man-6342452_640.jpg,1-23-1990,48.8305970000003,2.302368,9
Rosalie,Lemaire,female,Rosalie.Lemaire.230@email.fr,RosalieL230,RosalieL230999,bisexual,C'est Monsieur Smith. ,lazy,street-performers-870119_640.jpg,4-17-1985,48.8015970000002,2.258868,8
Franck,Boutin,female,Franck.Boutin.231@email.fr,FranckB231,FranckB231999,male,À votre avis ,"friends, mountain, lazy, tv, vegan",104_photo_112233.jpeg,2-2-2002,48.8855970000006,2.38486800000001,8
Gaetane,Guyot,male,Gaetane.Guyot.232@email.fr,GaetaneG232,GaetaneG232999,bisexual,Mon père y est allé. ,"lazy, sport, friends",humphrey-bogart-male-1278138_640.jpg,1-14-1990,48.7875970000001,2.237868,3
Bernadette,Laurent,male,Bernadette.Laurent.233@email.fr,BernadetteL233,BernadetteL233999,female,J'ai mal à la tête. ,tv,19_photo_112233.jpeg,1-15-1951,48.970597000001,2.51236800000001,7
Joelle,Devaux,male,Joelle.Devaux.234@email.fr,JoelleD234,JoelleD234999,female,"Je vais bien, et toi? ","lazy, piercing",charles-chaplin-3521070_640.jpg,6-15-1970,48.8380970000003,2.313618,1
Gwenaelle,Klein,female,Gwenaelle.Klein.235@email.fr,GwenaelleK235,GwenaelleK235999,male,A bientôt. ,"friends, music, tv, sport, geek",98_photo_112233.jpeg,8-3-1996,48.7945970000001,2.248368,2
Sylvain,Le,female,Sylvain.Le.236@email.fr,SylvainL236,SylvainL236999,bisexual,Pas encore. ,"lazy, music, vegan",39_photo_112233.jpeg,5-3-2001,48.971597000001,2.51386800000001,3
Romain,Delage,male,Romain.Delage.237@email.fr,RomainD237,RomainD237999,female,J'ai faim. ,"mountain, tv, geek, lazy",50_photo_112233.jpeg,2-3-1981,48.8520970000004,2.334618,7
Jacinthe,Charrier,female,Jacinthe.Charrier.238@email.fr,JacintheC238,JacintheC238999,female,Merci pour ton aide. ,"mountain, vegan",11_photo_112233.jpeg,2-13-1972,48.7955970000001,2.249868,5
Nicole,Guibert,male,Nicole.Guibert.239@email.fr,NicoleG239,NicoleG239999,female,Nik a les cheveux courts. ,tv,103_photo_112233.jpeg,1-3-1972,48.9325970000008,2.45536800000001,8
Felicien,Leblanc,male,Felicien.Leblanc.240@email.fr,FelicienL240,FelicienL240999,female,Il est maigre. ,"tv, sport, mountain, vegan",shakespeare-4959130_640.jpg,9-4-1976,48.985097000001,2.53411800000001,9
Denise,Ruiz,male,Denise.Ruiz.241@email.fr,DeniseR241,DeniseR241999,male,"Je vais bien, et toi? ",lazy,acteur1.png,2-14-1981,48.9370970000008,2.46211800000001,1
Marcelline,Muller,male,Marcelline.Muller.242@email.fr,MarcellineM242,MarcellineM242999,female,Je ne suis pas occupé. ,"sea, vegan, geek, music",brett-952561_640.jpg,8-14-2004,48.8960970000006,2.40061800000001,6
Lucienne,Gonzalez,female,Lucienne.Gonzalez.243@email.fr,LucienneG243,LucienneG243999,bisexual,Selon vous ,"sea, geek, piercing, music",fright-7989944_640.jpg,10-21-1995,48.9085970000007,2.41936800000001,9
Lucie,Leduc,female,Lucie.Leduc.244@email.fr,LucieL244,LucieL244999,bisexual,Merci. ,"sea, vegan, piercing",1_photo_112233.jpeg,11-11-1996,48.9575970000009,2.49286800000001,9
Francine,Evrard,female,Francine.Evrard.245@email.fr,FrancineE245,FrancineE245999,male,Je voudrais faire une promenade. ,"music, geek, mountain",drama-1155445_640.jpg,10-23-1950,48.8370970000003,2.312118,9
Odette,Bonnet,male,Odette.Bonnet.246@email.fr,OdetteB246,OdetteB246999,bisexual,Elle a les cheveux ondulés. ,"friends, piercing, vegan, sea, mountain",31_photo_112233.jpeg,7-2-2000,48.8550970000004,2.339118,8
Vespasien,Faivre,female,Vespasien.Faivre.247@email.fr,VespasienF247,VespasienF247999,male,Ça suffit. ,"vegan, geek",86_photo_112233.jpeg,12-18-1950,48.8875970000006,2.38786800000001,4
Eloi,Bourgeois,male,Eloi.Bourgeois.248@email.fr,EloiB248,EloiB248999,male,J'espère que vous ferez un bon voyage. ,tv,james-stewart-675177_640.jpg,7-26-2000,48.8490970000004,2.330118,6
Ghislaine,Chauvin,female,Ghislaine.Chauvin.249@email.fr,GhislaineC249,GhislaineC249999,male,Voudriez-vous acheter ça ? ,"sea, music, friends, sport, vegan",81_photo_112233.jpeg,4-25-1981,48.9465970000009,2.47636800000001,7
Amarante,Andre,male,Amarante.Andre.250@email.fr,AmaranteA250,AmaranteA250999,male,Vraiment? ,"mountain, sport, tv, piercing, geek",dracula-theater-7209931_640.jpg,9-11-1952,48.973097000001,2.51611800000001,8
Emeline,Poirier,male,Emeline.Poirier.251@email.fr,EmelineP251,EmelineP251999,male,Qui a envoyé cette lettre ? ,"vegan, sport, mountain",41_photo_112233.jpeg,10-26-1995,48.9505970000009,2.48236800000001,10
Bastien,Coste,male,Bastien.Coste.252@email.fr,BastienC252,BastienC252999,female,Elle travaille dur. ,"music, sea, lazy, vegan, geek",56_photo_112233.jpeg,1-26-1991,48.982097000001,2.52961800000001,2
Gaetane,Guillet,male,Gaetane.Guillet.253@email.fr,GaetaneG253,GaetaneG253999,bisexual,C'est pas mal. ,"tv, geek, sea, sport, piercing",87_photo_112233.jpeg,7-23-1950,48.8625970000004,2.35036800000001,8
Diane,Blot,female,Diane.Blot.254@email.fr,DianeB254,DianeB254999,female,C'est trop. ,"sea, tv, lazy",34_photo_112233.jpeg,6-20-2003,48.975097000001,2.51911800000001,3
Amarante,Brun,male,Amarante.Brun.255@email.fr,AmaranteB255,AmaranteB255999,female,Qui a envoyé cette lettre ? ,"sea, music, friends, piercing, sport",human-3094550_640.jpg,7-3-1980,48.9025970000006,2.41036800000001,5
Paule,Lefevre,male,Paule.Lefevre.256@email.fr,PauleL256,PauleL256999,bisexual,Comment va le travail? ,"piercing, lazy, vegan, tv, sport",Jason_Statham_2018.jpg,1-17-1968,48.9580970000009,2.49361800000001,2
Rainier,Dumas,female,Rainier.Dumas.257@email.fr,RainierD257,RainierD257999,bisexual,Il est mal élevé. ,"lazy, piercing, sea",drama-1155445_640.jpg,1-6-1974,48.9250970000007,2.44411800000001,8
Amarante,Jean,male,Amarante.Jean.258@email.fr,AmaranteJ258,AmaranteJ258999,male,Est-ce que tu as faim? ,"vegan, friends",brett-952573_640.jpg,4-8-1950,48.9180970000007,2.43361800000001,4
Martine,Dufour,female,Martine.Dufour.259@email.fr,MartineD259,MartineD259999,bisexual,Je me sens bien. ,"music, lazy, vegan",106_photo_112233.jpeg,5-28-1986,48.7985970000001,2.254368,4
Albertine,Klein,male,Albertine.Klein.260@email.fr,AlbertineK260,AlbertineK260999,female,Nos enfants sont en Amérique. ,"tv, lazy, friends",30_photo_112233.jpeg,3-19-2001,48.8260970000003,2.295618,10
Hercule,Roche,female,Hercule.Roche.261@email.fr,HerculeR261,HerculeR261999,male,Est-ce que ton frère est allé en France ? ,music,theater-200716_640.jpg,12-6-1973,48.8780970000005,2.37361800000001,5
Damien,Peltier,male,Damien.Peltier.262@email.fr,DamienP262,DamienP262999,female,Pas encore. ,geek,88_photo_112233.jpeg,3-17-1984,48.8890970000006,2.39011800000001,6
Christophe,Lebreton,female,Christophe.Lebreton.263@email.fr,ChristopheL263,ChristopheL263999,bisexual,Elle est timide. ,geek,mask-4985280_640.jpg,9-3-1953,48.8280970000003,2.298618,8
Loup,Brunet,female,Loup.Brunet.264@email.fr,LoupB264,LoupB264999,bisexual,J'imagine que ,tv,22_photo_112233.jpeg,2-20-1964,48.777097,2.222118,9
Christophe,Pichon,female,Christophe.Pichon.265@email.fr,ChristopheP265,ChristopheP265999,female,D'après moi ,"tv, geek",37_photo_112233.jpeg,3-2-1969,48.770097,2.211618,6
Pascaline,Lenoir,male,Pascaline.Lenoir.266@email.fr,PascalineL266,PascalineL266999,male,Je n'ai jamais vu ça avant. ,"friends, sport, tv",79_photo_112233.jpeg,12-3-2004,48.8645970000005,2.35336800000001,8
Alexandrie,Vidal,male,Alexandrie.Vidal.267@email.fr,AlexandrieV267,AlexandrieV267999,female,It's impossible ,"sea, tv",42_photo_112233.jpeg,12-8-1994,48.8400970000003,2.316618,4
Augustin,Grondin,male,Augustin.Grondin.268@email.fr,AugustinG268,AugustinG268999,bisexual,Laisse-moi vérifier. ,"mountain, friends",cuba-653798_640.jpg,4-12-1972,48.9375970000008,2.46286800000001,6
Laurette,Germain,male,Laurette.Germain.269@email.fr,LauretteG269,LauretteG269999,female,J'ai déjà mangé. ,friends,face-3265605_640.jpg,8-27-1965,48.8180970000002,2.283618,6
Nicole,Leclercq,male,Nicole.Leclercq.270@email.fr,NicoleL270,NicoleL270999,male,Combien de personnes est-ce qu'il y a dans ta famille? ,"geek, piercing, sport, music",portrait-3241737_640.jpg,12-10-1975,48.8415970000004,2.318868,7
Gaspard,Renaud,male,Gaspard.Renaud.271@email.fr,GaspardR271,GaspardR271999,female,Quelle est votre opinion/avis sur ,"friends, sport, music, piercing, vegan",brett-952561_640.jpg,11-23-1979,48.9435970000008,2.47186800000001,3
Laurent,Bonneau,female,Laurent.Bonneau.272@email.fr,LaurentB272,LaurentB272999,bisexual,Bien sûr. ,"sport, tv, mountain",woman-1462686_640.jpg,12-5-1997,48.8165970000002,2.281368,6
Donatienne,Laporte,male,Donatienne.Laporte.273@email.fr,DonatienneL273,DonatienneL273999,bisexual,Voudriez-vous acheter ça ? ,geek,actor-2181844_640.jpg,8-7-1999,48.9215970000007,2.43886800000001,6
Hyacinthe,Pons,female,Hyacinthe.Pons.274@email.fr,HyacintheP274,HyacintheP274999,bisexual,Je ne sais pas m'en servir. ,"vegan, lazy, mountain",1_photo_112233.jpeg,12-27-1957,48.9585970000009,2.49436800000001,3
Francine,Guichard,female,Francine.Guichard.275@email.fr,FrancineG275,FrancineG275999,male,Je suis marié. ,"music, mountain",37_photo_112233.jpeg,12-21-1988,48.8985970000006,2.40436800000001,6
Lucienne,Bazin,female,Lucienne.Bazin.276@email.fr,LucienneB276,LucienneB276999,female,C'est une question de point de vue. ,"sport, vegan, tv, music, geek",105_photo_112233.jpeg,10-20-1977,48.976097000001,2.52061800000001,9
Benoite,Ruiz,female,Benoite.Ruiz.277@email.fr,BenoiteR277,BenoiteR277999,bisexual,Je l'aime. ,"sport, mountain, geek",22_photo_112233.jpeg,7-26-1999,48.9100970000007,2.42161800000001,1
Justine,Charrier,female,Justine.Charrier.278@email.fr,JustineC278,JustineC278999,female,Cela dépend de ,mountain,101_photo_112233.jpeg,4-10-1952,48.8660970000005,2.35561800000001,10
Henri,Dos,female,Henri.Dos.279@email.fr,HenriD279,HenriD279999,bisexual,Elle est rapide. ,"lazy, piercing",105_photo_112233.jpeg,6-21-1957,48.9355970000008,2.45986800000001,1
Cosette,Fournier,male,Cosette.Fournier.280@email.fr,CosetteF280,CosetteF280999,male,Il est / C'est probable que ,"friends, sea",charles-chaplin-3521070_640.jpg,4-11-1964,48.8805970000005,2.37736800000001,4
Fabrice,Marchal,female,Fabrice.Marchal.281@email.fr,FabriceM281,FabriceM281999,female,Ça sent mauvais. ,"sea, vegan, piercing",portrait-3359403_640.jpg,9-1-1974,48.778597,2.224368,1
Gilberte,Caron,female,Gilberte.Caron.282@email.fr,GilberteC282,GilberteC282999,male,Oli est blonde. ,vegan,actress-825670_640.jpg,4-23-1986,48.9255970000008,2.44486800000001,3
Lydie,Fischer,male,Lydie.Fischer.283@email.fr,LydieF283,LydieF283999,female,Est-ce que tu as faim? ,"vegan, geek",50_photo_112233.jpeg,5-4-1971,48.971597000001,2.51386800000001,2
Nicolas,Camus,female,Nicolas.Camus.284@email.fr,NicolasC284,NicolasC284999,bisexual,Je sais. ,"geek, lazy, music",39_photo_112233.jpeg,5-14-1986,48.7990970000002,2.255118,8
Delphine,Favre,female,Delphine.Favre.285@email.fr,DelphineF285,DelphineF285999,bisexual,Il est mal élevé. ,sea,ramayana-festival-1807516_640.jpg,6-25-1990,48.9565970000009,2.49136800000001,8
Josette,Delaunay,male,Josette.Delaunay.286@email.fr,JosetteD286,JosetteD286999,male,Pas encore. ,"music, sport",82_photo_112233.jpeg,11-28-1973,48.9000970000006,2.40661800000001,10
Marcelline,Blondel,male,Marcelline.Blondel.287@email.fr,MarcellineB287,MarcellineB287999,bisexual,Elle est jolie. ,"mountain, vegan, friends",88_photo_112233.jpeg,1-26-1989,48.982097000001,2.52961800000001,6
Lucie,Ruiz,female,Lucie.Ruiz.288@email.fr,LucieR288,LucieR288999,bisexual,Je nettoie ma chambre. ,"lazy, sea",85_photo_112233.jpeg,3-15-1983,48.8385970000003,2.314368,8
Jolie,Aubry,male,Jolie.Aubry.289@email.fr,JolieA289,JolieA289999,female,Je vais partir. ,"sea, geek",64_photo_112233.jpeg,9-19-1962,48.9485970000009,2.47936800000001,5
Nadine,Perrier,male,Nadine.Perrier.290@email.fr,NadineP290,NadineP290999,female,Est-ce que tu vas prendre un avion ou un train? ,"geek, piercing",42_photo_112233.jpeg,2-10-1950,48.8595970000004,2.34586800000001,3
Colette,Perrin,female,Colette.Perrin.291@email.fr,ColetteP291,ColetteP291999,male,A quelle école est-ce que tu es allé? ,"sea, tv, lazy, vegan",39_photo_112233.jpeg,9-3-1969,48.8915970000006,2.39386800000001,7
Florette,Couturier,male,Florette.Couturier.292@email.fr,FloretteC292,FloretteC292999,female,Il est sérieux. ,"geek, vegan, piercing, lazy",48_photo_112233.jpeg,7-6-1987,48.8070970000002,2.267118,5
Jacqueline,Leclercq,male,Jacqueline.Leclercq.293@email.fr,JacquelineL293,JacquelineL293999,male,Sans vouloir vous contredire ,"music, vegan, lazy, sport, mountain",portrait-3241737_640.jpg,7-6-1990,48.8215970000003,2.288868,10
Gigi,Marty,male,Gigi.Marty.294@email.fr,GigiM294,GigiM294999,female,Qu'est-ce que tu vas faire ce soir ? ,"mountain, geek",76_photo_112233.jpeg,11-17-1963,48.8510970000004,2.333118,5
Edwige,Descamps,male,Edwige.Descamps.295@email.fr,EdwigeD295,EdwigeD295999,male,C'est vrai. ,"sport, lazy, piercing, vegan, tv",man-8245776_640.webp,7-2-1974,48.9345970000008,2.45836800000001,10
Benoit,Guillet,male,Benoit.Guillet.296@email.fr,BenoitG296,BenoitG296999,female,Je n'ai pas peur. ,"geek, friends, mountain, music, vegan",face-3265605_640.jpg,11-10-1981,48.9120970000007,2.42461800000001,1
Jourdain,Lesage,male,Jourdain.Lesage.297@email.fr,JourdainL297,JourdainL297999,male,Il l'aime beaucoup. ,"sport, geek, mountain, sea",103_photo_112233.jpeg,3-10-1980,48.7930970000001,2.246118,4
Romain,Lebrun,male,Romain.Lebrun.298@email.fr,RomainL298,RomainL298999,female,Les affaires vont bien. ,"piercing, vegan, sea, geek, lazy",male-model-7686778_640.jpg,10-9-1967,48.9430970000008,2.47111800000001,6
Amarante,Cousin,male,Amarante.Cousin.299@email.fr,AmaranteC299,AmaranteC299999,female,Dis-moi. ,"geek, sea, tv, vegan",man-7971966_640.jpg,1-22-1963,48.9625970000009,2.50036800000001,5
Thierry,Guillou,female,Thierry.Guillou.300@email.fr,ThierryG300,ThierryG300999,bisexual,J'ai l'idée que ,"sea, geek",woman-1462686_640.jpg,2-17-1953,48.7830970000001,2.231118,9
Theirn,Chevallier,male,Theirn.Chevallier.301@email.fr,TheirnC301,TheirnC301999,male,Il a les cheveux raides. ,friends,88_photo_112233.jpeg,8-26-1971,48.8060970000002,2.265618,9
Gilberte,Valette,female,Gilberte.Valette.302@email.fr,GilberteV302,GilberteV302999,male,Les affaires vont bien. ,"geek, sport, vegan, music",26_photo_112233.jpeg,9-18-1979,48.8285970000003,2.299368,4
Nathalie,Lefort,female,Nathalie.Lefort.303@email.fr,NathalieL303,NathalieL303999,bisexual,Elle est spécialiste. ,"tv, sea, lazy, vegan",63_photo_112233.jpeg,9-14-1969,48.8030970000002,2.261118,4
Juste,Menard,male,Juste.Menard.304@email.fr,JusteM304,JusteM304999,male,Elle est pauvre. ,music,personification-1508890_640.jpg,9-14-1998,48.8810970000005,2.37811800000001,2
Hyacinthe,Chartier,female,Hyacinthe.Chartier.305@email.fr,HyacintheC305,HyacintheC305999,female,Est-ce que tu as fait ça avant ? ,"vegan, piercing",27_photo_112233.jpeg,4-3-1978,48.8555970000004,2.339868,3
Toinette,Bigot,female,Toinette.Bigot.306@email.fr,ToinetteB306,ToinetteB306999,female,Santé! ,"music, tv, mountain, vegan",14_photo_112233.jpeg,12-20-1990,48.9135970000007,2.42686800000001,6
Nathalie,Collin,female,Nathalie.Collin.307@email.fr,NathalieC307,NathalieC307999,female,J'ai besoin de changer de vêtements. ,"piercing, vegan",mount-saint-helens-4395977_640.jpg,5-23-1957,48.8525970000004,2.335368,1
Giselle,Godard,female,Giselle.Godard.308@email.fr,GiselleG308,GiselleG308999,male,Depuis combien de temps est-ce que tu habites ici? ,tv,36_photo_112233.jpeg,7-27-1989,48.7790970000001,2.225118,2
Raymonde,Raynaud,female,Raymonde.Raynaud.309@email.fr,RaymondeR309,RaymondeR309999,female,C'est très difficile. ,"music, vegan",45_photo_112233.jpeg,3-6-1993,48.8745970000005,2.36836800000001,2
Joelle,Guyot,male,Joelle.Guyot.310@email.fr,JoelleG310,JoelleG310999,bisexual,"Non, c'est la première fois. ","tv, music, vegan, geek, mountain",godfather-4292451_640.jpg,2-19-1983,48.8980970000006,2.40361800000001,10
Zephyrine,Blot,female,Zephyrine.Blot.311@email.fr,ZephyrineB311,ZephyrineB311999,female,Mon fils étudie l'informatique. ,"music, lazy, vegan, sea, friends",35_photo_112233.jpeg,8-17-1967,48.8535970000004,2.336868,4
Gratien,Valette,female,Gratien.Valette.312@email.fr,GratienV312,GratienV312999,male,Avez-vous une opinion sur ,"sport, music, mountain, sea",85_photo_112233.jpeg,10-18-1982,48.8345970000003,2.308368,3
Doriane,Bertin,male,Doriane.Bertin.313@email.fr,DorianeB313,DorianeB313999,bisexual,Je me sens bien. ,"music, vegan",100_photo_112233.jpeg,6-12-1982,48.9435970000008,2.47186800000001,10
Laurentine,Ruiz,female,Laurentine.Ruiz.314@email.fr,LaurentineR314,LaurentineR314999,male,Ce sont les mêmes. ,music,28_photo_112233.jpeg,7-1-1995,48.9355970000008,2.45986800000001,4
Clothilde,Noel,female,Clothilde.Noel.315@email.fr,ClothildeN315,ClothildeN315999,bisexual,Je dois dire que ,"mountain, lazy, geek, music",head-shoot-1542339_640.jpg,6-7-1959,48.8880970000006,2.38861800000001,10
Anselme,Guillou,male,Anselme.Guillou.316@email.fr,AnselmeG316,AnselmeG316999,male,Je suis convaincu que ,"sea, vegan, lazy, geek",83_photo_112233.jpeg,2-17-1973,48.8910970000006,2.39311800000001,2
Pons,Royer,female,Pons.Royer.317@email.fr,PonsR317,PonsR317999,female,Il est / C'est juste que ,"sport, vegan",101_photo_112233.jpeg,9-17-1988,48.8240970000003,2.292618,9
Cerise,Paris,male,Cerise.Paris.318@email.fr,CeriseP318,CeriseP318999,bisexual,Je dois dire que ,"lazy, piercing",actor-2181844_640.jpg,3-15-1964,48.977097000001,2.52211800000001,1
Florette,Maillet,male,Florette.Maillet.319@email.fr,FloretteM319,FloretteM319999,bisexual,Elle est intelligente. ,sea,horse-144550_640.jpg,3-15-1982,48.9540970000009,2.48761800000001,5
Nicolette,Buisson,female,Nicolette.Buisson.320@email.fr,NicoletteB320,NicoletteB320999,female,Ça a l'air super. ,"geek, sport",london-5731175_640.jpg,2-1-1998,48.9220970000007,2.43961800000001,6
Lionel,Lagarde,female,Lionel.Lagarde.321@email.fr,LionelL321,LionelL321999,female,Est-ce que tu as fait ça avant ? ,music,21_photo_112233.jpeg,3-3-1989,48.8665970000005,2.35636800000001,5
Marceline,Germain,male,Marceline.Germain.322@email.fr,MarcelineG322,MarcelineG322999,female,"Non, je suis américain. ",vegan,23_photo_112233.jpeg,8-12-1954,48.8740970000005,2.36761800000001,1
Joceline,Didier,male,Joceline.Didier.323@email.fr,JocelineD323,JocelineD323999,female,Quel âge as-tu? ,"tv, piercing, geek, mountain, vegan",83_photo_112233.jpeg,5-26-1968,48.9060970000007,2.41561800000001,4
Flavie,Bailly,male,Flavie.Bailly.324@email.fr,FlavieB324,FlavieB324999,bisexual,Réglez ça dehors. ,"sea, friends, piercing, sport",godfather-4292451_640.jpg,4-8-1950,48.8610970000004,2.34811800000001,1
Benoite,Poulain,female,Benoite.Poulain.325@email.fr,BenoiteP325,BenoiteP325999,bisexual,C'est la première fois que je viens ici. ,sport,actor-6311507_640.jpg,10-27-1976,48.970097000001,2.51161800000001,3
Clarisse,Hoarau,female,Clarisse.Hoarau.326@email.fr,ClarisseH326,ClarisseH326999,male,Je vais le prendre. ,"lazy, music",105_photo_112233.jpeg,11-19-1957,48.7890970000001,2.240118,7
Rochelle,Briand,female,Rochelle.Briand.327@email.fr,RochelleB327,RochelleB327999,bisexual,Pratiquons l'anglais. ,"sea, vegan, piercing",5_photo_112233.jpeg,11-19-1994,48.8650970000005,2.35411800000001,9
Sylviane,Carpentier,female,Sylviane.Carpentier.328@email.fr,SylvianeC328,SylvianeC328999,female,Les affaires vont bien. ,"friends, music, tv, sport, geek",21_photo_112233.jpeg,11-18-1978,48.8585970000004,2.344368,7
Antoinette,Grondin,male,Antoinette.Grondin.329@email.fr,AntoinetteG329,AntoinetteG329999,female,Je vais le prendre. ,lazy,frank-sinatra-1281484_640.jpg,5-12-1961,48.9260970000008,2.44561800000001,7
Nadine,Rodriguez,male,Nadine.Rodriguez.330@email.fr,NadineR330,NadineR330999,male,Si vous voulez mon opinion/avis ,"vegan, music, sport, piercing, mountain",man-6342455_640.jpg,2-8-1965,48.9560970000009,2.49061800000001,7
Clementine,Gros,female,Clementine.Gros.331@email.fr,ClementineG331,ClementineG331999,female,Je n'ai jamais vraiment réfléchi à ,"music, geek, mountain, piercing",fashion-3057295_640.jpg,6-26-2004,48.980597000001,2.52736800000001,3
Marielle,Schmitt,male,Marielle.Schmitt.332@email.fr,MarielleS332,MarielleS332999,male,Si vous voulez mon opinion/avis ,"vegan, lazy, sea, mountain, sport",25_photo_112233.jpeg,6-13-2004,48.7920970000001,2.244618,9
Olympe,Guillot,female,Olympe.Guillot.333@email.fr,OlympeG333,OlympeG333999,female,Combien de langues est-ce que tu parles? ,"mountain, tv, friends",22_photo_112233.jpeg,2-21-1995,48.8255970000003,2.294868,10
Vienne,Martel,female,Vienne.Martel.334@email.fr,VienneM334,VienneM334999,bisexual,Je ne sais pas m'en servir. ,"vegan, lazy, geek, mountain",104_photo_112233.jpeg,1-16-1951,48.774097,2.217618,3
Monique,Valentin,male,Monique.Valentin.335@email.fr,MoniqueV335,MoniqueV335999,bisexual,Elle est laide ,"vegan, music, lazy, sea",66_photo_112233.jpeg,1-21-2000,48.9360970000008,2.46061800000001,7
Perceval,Maillard,male,Perceval.Maillard.336@email.fr,PercevalM336,PercevalM336999,female,Il est lent. ,"vegan, geek",59_photo_112233.jpeg,3-27-1962,48.8535970000004,2.336868,10
Violette,Maire,female,Violette.Maire.337@email.fr,VioletteM337,VioletteM337999,male,J'imagine que ,friends,22_photo_112233.jpeg,11-14-1969,48.8940970000006,2.39761800000001,10
Ghislaine,Royer,female,Ghislaine.Royer.338@email.fr,GhislaineR338,GhislaineR338999,male,Juste un peu. ,"vegan, music, sea, friends",theatre-3966147_640.jpg,12-5-2000,48.8050970000002,2.264118,3
Gervais,Mercier,female,Gervais.Mercier.339@email.fr,GervaisM339,GervaisM339999,female,N'importe quoi. ,"mountain, sport",107_photo_112233.jpeg,10-21-1983,48.9370970000008,2.46211800000001,5
Marceline,Gerard,male,Marceline.Gerard.340@email.fr,MarcelineG340,MarcelineG340999,bisexual,"Très bien, merci. ","geek, mountain, tv, sea, music",Jason_Statham_2018.jpg,10-14-1998,48.9020970000006,2.40961800000001,4
Sylvaine,Camus,male,Sylvaine.Camus.341@email.fr,SylvaineC341,SylvaineC341999,male,C'est du moins mon opinion. ,"vegan, sea, piercing, music, mountain",people-3224723_640.jpg,2-27-1986,48.7980970000001,2.253618,10
Solange,Robin,male,Solange.Robin.342@email.fr,SolangeR342,SolangeR342999,male,Il m'est impossible de donner un avis (définitif) sur ,"tv, music, lazy, vegan, piercing",33_photo_112233.jpeg,12-25-1980,48.7850970000001,2.234118,5
Noel,Tessier,male,Noel.Tessier.343@email.fr,NoelT343,NoelT343999,female,Es-tu sûr? ,"mountain, lazy, geek, music, piercing",57_photo_112233.jpeg,1-1-1956,48.9010970000006,2.40811800000001,9
Benoite,Dumas,female,Benoite.Dumas.344@email.fr,BenoiteD344,BenoiteD344999,female,Nos enfants sont en Amérique. ,"piercing, lazy, mountain",37_photo_112233.jpeg,5-5-1994,48.8655970000005,2.35486800000001,4
Julie,Giraud,female,Julie.Giraud.345@email.fr,JulieG345,JulieG345999,bisexual,Elle est petite. ,"sea, geek, friends",fright-7989944_640.jpg,12-3-1962,48.7960970000001,2.250618,8
Lucie,Brun,female,Lucie.Brun.346@email.fr,LucieB346,LucieB346999,male,laisse-moi y réfléchir. ,"sea, vegan, mountain, geek, sport",86_photo_112233.jpeg,3-10-2000,48.8750970000005,2.36911800000001,1
Augustin,Barbier,male,Augustin.Barbier.347@email.fr,AugustinB347,AugustinB347999,male,Je suis malade. ,"sea, lazy",man-3252165_640.jpg,10-1-1977,48.8290970000003,2.300118,9
Sandrine,Lopez,female,Sandrine.Lopez.348@email.fr,SandrineL348,SandrineL348999,male,Elle est calme. ,"vegan, tv",london-5731175_640.jpg,1-10-1967,48.8240970000003,2.292618,9
Jacinthe,Pichon,female,Jacinthe.Pichon.349@email.fr,JacintheP349,JacintheP349999,female,Je ne pense pas ,"piercing, vegan, sea, geek, lazy",106_photo_112233.jpeg,2-4-2004,48.8835970000006,2.38186800000001,8
Henri,Normand,female,Henri.Normand.350@email.fr,HenriN350,HenriN350999,bisexual,J'ai entendu dire que ,vegan,93_photo_112233.jpeg,1-5-1999,48.9390970000008,2.46511800000001,7
Geoffroi,Raymond,male,Geoffroi.Raymond.351@email.fr,GeoffroiR351,GeoffroiR351999,bisexual,J'ai l'impression que ,"sport, music, tv",humphrey-bogart-male-1278138_640.jpg,3-13-1992,48.9420970000008,2.46961800000001,5
Vivienne,Andre,female,Vivienne.Andre.352@email.fr,VivienneA352,VivienneA352999,bisexual,Allons voir. ,"sea, tv",46_photo_112233.jpeg,4-17-1951,48.777597,2.222868,1
Patrice,Barre,male,Patrice.Barre.353@email.fr,PatriceB353,PatriceB353999,bisexual,Je ne me le suis jamais demandé. ,"sea, vegan, friends, tv",brett-952561_640.jpg,11-19-1950,48.8730970000005,2.36611800000001,8
Jean-baptiste,Tessier,female,Jean-baptiste.Tessier.354@email.fr,Jean-baptisteT354,Jean-baptisteT354999,female,Je considère que ,"geek, lazy, music, sport, piercing",head-shoot-1542339_640.jpg,6-13-1972,48.968097000001,2.50861800000001,7
Eulalie,Fernandez,female,Eulalie.Fernandez.355@email.fr,EulalieF355,EulalieF355999,female,A bientôt. ,"lazy, sport, friends",69_photo_112233.jpeg,7-10-1971,48.7835970000001,2.231868,7
Georgette,Noel,female,Georgette.Noel.356@email.fr,GeorgetteN356,GeorgetteN356999,male,Quel âge as-tu? ,sport,street-performers-870127_640.jpg,10-28-1973,48.8310970000003,2.303118,9
Anselme,Baron,male,Anselme.Baron.357@email.fr,AnselmeB357,AnselmeB357999,male,Je suppose que ,"music, geek",portrait-3204879_640.jpg,2-15-2003,48.9290970000008,2.45011800000001,6
Arienne,Bertin,male,Arienne.Bertin.358@email.fr,ArienneB358,ArienneB358999,male,Désolé de vous déranger. ,"tv, lazy, vegan, music, geek",human-3094550_640.jpg,7-18-1974,48.7850970000001,2.234118,7
Rodrigue,Reynaud,male,Rodrigue.Reynaud.359@email.fr,RodrigueR359,RodrigueR359999,bisexual,Je suis très occupé. Je n'ai pas le temps maintenant. ,"music, lazy",97_photo_112233.jpeg,1-21-1963,48.7980970000001,2.253618,8
Henriette,Morvan,female,Henriette.Morvan.360@email.fr,HenrietteM360,HenrietteM360999,male,Il est / C'est injuste que ,"sea, vegan, sport",11_photo_112233.jpeg,11-23-1952,48.8755970000005,2.36986800000001,8
Vespasien,Gilbert,female,Vespasien.Gilbert.361@email.fr,VespasienG361,VespasienG361999,female,Lisa a les cheveux longs. ,mountain,woman-7186987_640.jpg,11-12-1976,48.9445970000008,2.47336800000001,8
Marcelline,Allain,male,Marcelline.Allain.362@email.fr,MarcellineA362,MarcellineA362999,male,Peter a les cheveux noirs. ,"sea, friends",59_photo_112233.jpeg,7-3-1977,48.8000970000001,2.256618,7
Paulette,Bourgeois,female,Paulette.Bourgeois.363@email.fr,PauletteB363,PauletteB363999,bisexual,Tina a les cheveux bouclés. ,"vegan, music, friends",17_photo_112233.jpeg,12-26-1978,48.8745970000005,2.36836800000001,3
Alphonse,Lefevre,female,Alphonse.Lefevre.364@email.fr,AlphonseL364,AlphonseL364999,female,Je suis malade. ,"vegan, friends, music",fashion-4746903_640.jpg,10-21-1988,48.777597,2.222868,9
Paule,Bodin,male,Paule.Bodin.365@email.fr,PauleB365,PauleB365999,male,Tu es plus intelligent que lui. ,music,frank-sinatra-1281484_640.jpg,5-22-1961,48.9500970000009,2.48161800000001,1
Anne,Dupont,male,Anne.Dupont.366@email.fr,AnneD366,AnneD366999,male,Je voudrais connaître / avoir votre réaction face à ,"mountain, sport, tv, sea",brett-952573_640.jpg,8-8-1966,48.8735970000005,2.36686800000001,5
Alain,Reynaud,male,Alain.Reynaud.367@email.fr,AlainR367,AlainR367999,bisexual,Vos affaires sont toutes là. ,"piercing, geek, mountain",95_photo_112233.jpeg,10-23-1954,48.9645970000009,2.50336800000001,10
Didier,Menard,male,Didier.Menard.368@email.fr,DidierM368,DidierM368999,male,Non. ,"vegan, mountain, friends, tv, lazy",shakespeare-4959130_640.jpg,1-19-1965,48.8520970000004,2.334618,8
Telesphore,Ollivier,male,Telesphore.Ollivier.369@email.fr,TelesphoreO369,TelesphoreO369999,bisexual,Est-ce que ça suffit? ,"geek, piercing, music, lazy",aamir-tameen-867782_640.jpg,11-13-1972,48.8720970000005,2.36461800000001,1
Marcelle,Klein,female,Marcelle.Klein.370@email.fr,MarcelleK370,MarcelleK370999,female,A quelle école est-ce que tu es allé? ,geek,actress-825670_640.jpg,5-18-1981,48.9300970000008,2.45161800000001,6
Nicolette,Guyot,female,Nicolette.Guyot.371@email.fr,NicoletteG371,NicoletteG371999,female,S'il vous plaît remplissez ce formulaire. ,"tv, sport, music",1_photo_112233.jpeg,11-10-1993,48.8240970000003,2.292618,9
Noel,Aubry,male,Noel.Aubry.372@email.fr,NoelA372,NoelA372999,male,Est-ce que tu es libre ce soir? ,music,43_photo_112233.jpeg,11-18-1999,48.8780970000005,2.37361800000001,2
Alphonse,Blot,female,Alphonse.Blot.373@email.fr,AlphonseB373,AlphonseB373999,bisexual,Je m'appelle John Smith. ,"sea, vegan, piercing",27_photo_112233.jpeg,1-11-1963,48.9475970000009,2.47786800000001,5
Blanche,Launay,male,Blanche.Launay.374@email.fr,BlancheL374,BlancheL374999,bisexual,Oli est blonde. ,"sport, lazy, friends, tv",india-7547363_640.jpg,1-12-1987,48.9445970000008,2.47336800000001,5
Charline,Klein,male,Charline.Klein.375@email.fr,CharlineK375,CharlineK375999,male,Il est agréable ,"sport, tv",mountain-5823822_640.jpg,10-5-1989,48.9565970000009,2.49136800000001,1
Felicien,Guyon,male,Felicien.Guyon.376@email.fr,FelicienG376,FelicienG376999,female,Je vais le prendre. ,"geek, piercing, sea, music, vegan",man-4134645_640.jpg,1-24-1981,48.9495970000009,2.48086800000001,10
Diane,Joly,female,Diane.Joly.377@email.fr,DianeJ377,DianeJ377999,male,Est-ce que tu vas souvent à Paris? ,vegan,actor-6311507_640.jpg,6-16-1970,48.985097000001,2.53411800000001,5
Corinne,Barbe,female,Corinne.Barbe.378@email.fr,CorinneB378,CorinneB378999,bisexual,Je ne suis pas sûr. ,"mountain, vegan",people-1285245_640.jpg,2-13-1970,48.8070970000002,2.267118,3
Donatienne,Perrier,male,Donatienne.Perrier.379@email.fr,DonatienneP379,DonatienneP379999,bisexual,Je ne l'aime pas. ,"geek, piercing, tv",79_photo_112233.jpeg,11-1-2003,48.9035970000006,2.41186800000001,9
Jeannine,Cordier,male,Jeannine.Cordier.380@email.fr,JeannineC380,JeannineC380999,male,Je voudrais connaître / avoir votre avis / opinion sur ,"vegan, lazy, piercing, sea, tv",groucho-marx-male-1278137_640.jpg,7-26-1978,48.7800970000001,2.226618,4
Nazaire,Maurice,female,Nazaire.Maurice.381@email.fr,NazaireM381,NazaireM381999,female,Tu parles le français très bien. ,mountain,93_photo_112233.jpeg,12-15-2002,48.8620970000004,2.34961800000001,1
Renard,Jean,female,Renard.Jean.382@email.fr,RenardJ382,RenardJ382999,female,Est-ce que vous vendez des médicaments? (magasin) ,"music, sea, friends, tv",35_photo_112233.jpeg,7-4-1982,48.8245970000003,2.293368,10
Christophe,Weber,female,Christophe.Weber.383@email.fr,ChristopheW383,ChristopheW383999,male,Je ne sais pas m'en servir. ,"mountain, music, friends",8_photo_112233.jpeg,4-20-1997,48.7995970000002,2.255868,8
Gaston,Guillou,male,Gaston.Guillou.384@email.fr,GastonG384,GastonG384999,female,Elle est mince. ,geek,male-model-7686778_640.jpg,3-21-1994,48.9200970000007,2.43661800000001,3
Adrien,Huet,male,Adrien.Huet.385@email.fr,AdrienH385,AdrienH385999,male,Elle a les yeux verts. ,"sea, music",frank-sinatra-1281484_640.jpg,4-26-1965,48.9055970000007,2.41486800000001,2
Honorine,Rodrigues,female,Honorine.Rodrigues.386@email.fr,HonorineR386,HonorineR386999,male,Je pense que c'est bon. ,"music, geek, mountain, piercing",marilyn-monroe-555603_640.jpg,1-7-1953,48.973097000001,2.51611800000001,6
Carole,Normand,male,Carole.Normand.387@email.fr,CaroleN387,CaroleN387999,male,Mon père est avocat. ,"friends, geek, lazy, mountain",man-4134645_640.jpg,7-8-1962,48.973097000001,2.51611800000001,1
Aline,Breton,female,Aline.Breton.388@email.fr,AlineB388,AlineB388999,female,Je préférerais ne pas m'engager ,"geek, tv, sport, vegan, lazy",45_photo_112233.jpeg,6-20-1982,48.8385970000003,2.314368,1
Laurent,Weber,female,Laurent.Weber.389@email.fr,LaurentW389,LaurentW389999,female,Ils sont très occupés. ,"sea, music",models-4277829_640.jpg,10-3-1993,48.8555970000004,2.339868,9
Philibert,Da,male,Philibert.Da.390@email.fr,PhilibertD390,PhilibertD390999,bisexual,Je pense que ,"lazy, piercing, friends",6_photo_112233.jpeg,2-19-1980,48.7780970000001,2.223618,6
Hortense,Lebon,female,Hortense.Lebon.391@email.fr,HortenseL391,HortenseL391999,male,Il est / C'est injuste que ,"music, sea, mountain",12_photo_112233.jpeg,9-9-1983,48.9535970000009,2.48686800000001,6
Monique,Laporte,male,Monique.Laporte.392@email.fr,MoniqueL392,MoniqueL392999,bisexual,Nos enfants sont en Amérique. ,vegan,face-3265605_640.jpg,2-3-1955,48.9505970000009,2.48236800000001,6
Theirn,Delaunay,male,Theirn.Delaunay.393@email.fr,TheirnD393,TheirnD393999,female,La prochaine fois. ,"geek, mountain",portrait-3241737_640.jpg,12-24-1968,48.8605970000004,2.34736800000001,7
Urbain,Weber,female,Urbain.Weber.394@email.fr,UrbainW394,UrbainW394999,male,Voudriez-vous prendre un message s'il vous plaît? ,"geek, lazy, music, sport, piercing",85_photo_112233.jpeg,1-6-1984,48.8590970000004,2.34511800000001,10
Bastien,Clerc,male,Bastien.Clerc.395@email.fr,BastienC395,BastienC395999,bisexual,Peter a les cheveux noirs. ,"sea, tv, lazy, vegan",76_photo_112233.jpeg,8-23-1980,48.8490970000004,2.330118,9
Gratien,Lagarde,female,Gratien.Lagarde.396@email.fr,GratienL396,GratienL396999,bisexual,Je ne veux pas ça. ,"sea, lazy, mountain",people-3209886_640.jpg,8-27-1986,48.8360970000003,2.310618,4
Ambroise,Noel,male,Ambroise.Noel.397@email.fr,AmbroiseN397,AmbroiseN397999,male,Peu importe. ,"sport, friends, mountain",56_photo_112233.jpeg,2-7-1964,48.8360970000003,2.310618,2
Adolphe,Texier,male,Adolphe.Texier.398@email.fr,AdolpheT398,AdolpheT398999,female,Nos enfants sont en Amérique. ,"sea, vegan, piercing",man-6342452_640.jpg,1-22-1970,48.8885970000006,2.38936800000001,10
Clementine,Aubert,female,Clementine.Aubert.399@email.fr,ClementineA399,ClementineA399999,male,Telle est mon opinion sur... ,"vegan, geek, lazy",woman-7186987_640.jpg,5-4-1978,48.9110970000007,2.42311800000001,8
Luce,Lefebvre,female,Luce.Lefebvre.400@email.fr,LuceL400,LuceL400999,bisexual,J'ai entendu dire que le Texas était beau comme endroit. ,"piercing, vegan, sea, geek, lazy",woman-1462686_640.jpg,8-19-1966,48.973097000001,2.51611800000001,8
Evette,Leroux,female,Evette.Leroux.401@email.fr,EvetteL401,EvetteL401999,male,Je dois laver mes vêtements. ,"tv, mountain, sport, lazy, music",actors-1851317_640.jpg,12-14-1980,48.8625970000004,2.35036800000001,4
Cosette,Robin,male,Cosette.Robin.402@email.fr,CosetteR402,CosetteR402999,female,Je ne suis pas sûr. ,mountain,businessman-6248246_640.jpg,9-22-1971,48.775597,2.219868,10
Toussaint,Caron,female,Toussaint.Caron.403@email.fr,ToussaintC403,ToussaintC403999,bisexual,Tout le monde le sais. ,piercing,street-performers-870127_640.jpg,12-8-1999,48.9415970000008,2.46886800000001,5
Raymonde,Neveu,female,Raymonde.Neveu.404@email.fr,RaymondeN404,RaymondeN404999,female,Laisse-moi vérifier. ,"piercing, vegan, music",105_photo_112233.jpeg,10-19-1965,48.7790970000001,2.225118,8
Maximilien,Hernandez,female,Maximilien.Hernandez.405@email.fr,MaximilienH405,MaximilienH405999,bisexual,Voudriez-vous prendre un message s'il vous plaît? ,"sea, sport, vegan",111_photo_112233.jpeg,10-10-1979,48.8565970000004,2.341368,4
Guillaume,Jean,male,Guillaume.Jean.406@email.fr,GuillaumeJ406,GuillaumeJ406999,male,Juste là. ,"music, geek",india-7547363_640.jpg,10-13-1966,48.8435970000004,2.321868,8
Geoffroi,Auger,male,Geoffroi.Auger.407@email.fr,GeoffroiA407,GeoffroiA407999,female,Je me sens bien. ,"tv, music",43_photo_112233.jpeg,12-4-2003,48.8910970000006,2.39311800000001,8
Benjamine,Texier,male,Benjamine.Texier.408@email.fr,BenjamineT408,BenjamineT408999,male,Vos enfants sont très bien élevés. ,"tv, piercing, lazy, sea, geek",businessman-6248246_640.jpg,4-14-1953,48.980097000001,2.52661800000001,7
Rolande,Guillot,female,Rolande.Guillot.409@email.fr,RolandeG409,RolandeG409999,female,Je sais. ,"sea, music, mountain, lazy",46_photo_112233.jpeg,6-6-1977,48.8335970000003,2.306868,2
Narcisse,Giraud,male,Narcisse.Giraud.410@email.fr,NarcisseG410,NarcisseG410999,female,Cette voiture ressemble à ma voiture. ,"music, sport, lazy, sea",man-6342452_640.jpg,1-28-1981,48.978597000001,2.52436800000001,8
Sylviane,Picard,female,Sylviane.Picard.411@email.fr,SylvianeP411,SylvianeP411999,male,Nik a les cheveux courts. ,"lazy, tv, friends, piercing, sport",head-shoot-1542339_640.jpg,5-22-1997,48.9580970000009,2.49361800000001,1
Mirabelle,Blondel,female,Mirabelle.Blondel.412@email.fr,MirabelleB412,MirabelleB412999,female,J'ignore tout de ,"piercing, music",98_photo_112233.jpeg,8-10-1978,48.7935970000001,2.246868,3
Joceline,Le,male,Joceline.Le.413@email.fr,JocelineL413,JocelineL413999,female,Merci pour tout. ,"piercing, lazy, mountain, sport, music",portrait-3241737_640.jpg,1-27-2002,48.8285970000003,2.299368,7
Rainier,Bonnin,female,Rainier.Bonnin.414@email.fr,RainierB414,RainierB414999,male,Je pense que ,"piercing, music, lazy, tv",madame-tussauds-1720457_640.jpg,8-9-1961,48.8275970000003,2.297868,10
Florette,Riviere,male,Florette.Riviere.415@email.fr,FloretteR415,FloretteR415999,bisexual,Je suppose que ,"lazy, friends, vegan",brett-952561_640.jpg,4-12-1966,48.8005970000002,2.257368,3
Justine,Bertrand,female,Justine.Bertrand.416@email.fr,JustineB416,JustineB416999,bisexual,J'ai froid. ,sport,people-3209886_640.jpg,5-14-1963,48.9185970000007,2.43436800000001,6
Christelle,Henry,male,Christelle.Henry.417@email.fr,ChristelleH417,ChristelleH417999,female,Je ne suis pas marié. ,"music, lazy, vegan, sea, friends",smile-1221915_640.jpg,10-12-1994,48.7780970000001,2.223618,9
Juliane,Bodin,female,Juliane.Bodin.418@email.fr,JulianeB418,JulianeB418999,bisexual,Il est marrant. ,"tv, geek, sea, sport, piercing",61_photo_112233.jpeg,10-6-1950,48.9265970000008,2.44636800000001,3
Chantal,Ruiz,female,Chantal.Ruiz.419@email.fr,ChantalR419,ChantalR419999,male,Voudriez-vous acheter ça ? ,"tv, vegan",52_photo_112233.jpeg,12-2-1989,48.9290970000008,2.45011800000001,4
Henriette,Jacquet,female,Henriette.Jacquet.420@email.fr,HenrietteJ420,HenrietteJ420999,male,ma grand-mère est décédée l'année dernière. ,"piercing, tv",marilyn-monroe-555603_640.jpg,4-6-1962,48.770097,2.211618,1
Benoit,Martin,male,Benoit.Martin.421@email.fr,BenoitM421,BenoitM421999,male,Il est / C'est difficile de ,tv,actor-63082_640.jpg,9-5-1961,48.8525970000004,2.335368,6
Olivier,Brunel,female,Olivier.Brunel.422@email.fr,OlivierB422,OlivierB422999,female,Juste ici. ,"vegan, piercing, music, sport",ramayana-festival-1807516_640.jpg,11-15-1962,48.9125970000007,2.42536800000001,7
Corinne,Roy,female,Corinne.Roy.423@email.fr,CorinneR423,CorinneR423999,bisexual,Tu es très sympa. ,"tv, sea",theatre-3966147_640.jpg,11-2-1991,48.9325970000008,2.45536800000001,2
Edgard,Gaudin,male,Edgard.Gaudin.424@email.fr,EdgardG424,EdgardG424999,female,Chicago est très différente de Boston. ,mountain,brad-pitt-164880_640.jpg,11-7-1968,48.9485970000009,2.47936800000001,4
Marie,Carpentier,male,Marie.Carpentier.425@email.fr,MarieC425,MarieC425999,female,laisse-moi y réfléchir. ,tv,yoga-day-4329896_640.jpg,7-8-1970,48.9075970000007,2.41786800000001,7
Jeannine,Foucher,male,Jeannine.Foucher.426@email.fr,JeannineF426,JeannineF426999,bisexual,Le livre est sous la table. ,"sea, mountain",male-model-7686778_640.jpg,11-1-1977,48.7960970000001,2.250618,10
Pons,Dupont,female,Pons.Dupont.427@email.fr,PonsD427,PonsD427999,female,Qu'est-ce que tu vas faire ce soir ? ,"piercing, sea",14_photo_112233.jpeg,5-8-1967,48.8085970000002,2.269368,9
Blaise,Jourdan,male,Blaise.Jourdan.428@email.fr,BlaiseJ428,BlaiseJ428999,bisexual,Je pensais que les vêtements étaient plus chers. ,"lazy, friends, music, sport, geek",76_photo_112233.jpeg,10-1-1956,48.9355970000008,2.45986800000001,8
Philibert,Prevost,male,Philibert.Prevost.429@email.fr,PhilibertP429,PhilibertP429999,male,Si vous voulez mon opinion/avis ,"music, friends, lazy, piercing, mountain",79_photo_112233.jpeg,8-9-1966,48.8300970000003,2.301618,2
Loup,Chauvet,female,Loup.Chauvet.430@email.fr,LoupC430,LoupC430999,bisexual,Je ne comprends pas. ,vegan,london-5731175_640.jpg,9-21-1954,48.8225970000003,2.290368,8
Jacinthe,Bourdon,female,Jacinthe.Bourdon.431@email.fr,JacintheB431,JacintheB431999,female,Les affaires vont bien. ,"music, friends",actor-6311507_640.jpg,2-18-1982,48.8645970000005,2.35336800000001,4
Edmond,Brunet,male,Edmond.Brunet.432@email.fr,EdmondB432,EdmondB432999,bisexual,J'allais quitter le restaurant quand mes amis sont arrivés. ,"lazy, vegan, geek, mountain, music",personification-1508890_640.jpg,6-7-1970,48.9660970000009,2.50561800000001,8
Aline,Rousset,female,Aline.Rousset.433@email.fr,AlineR433,AlineR433999,male,Je sors du travail à six heures. ,"piercing, geek, sea, lazy",like-5321848_640.jpg,6-1-1981,48.769097,2.210118,10
Marie,Fernandez,male,Marie.Fernandez.434@email.fr,MarieF434,MarieF434999,bisexual,Allons voir. ,music,48_photo_112233.jpeg,11-8-1983,48.9495970000009,2.48086800000001,4
Margot,Gallet,female,Margot.Gallet.435@email.fr,MargotG435,MargotG435999,female,Je crains qu'il ne soit ,"vegan, sea, geek, sport",68_photo_112233.jpeg,11-22-1969,48.8885970000006,2.38936800000001,8
Rainier,Duval,female,Rainier.Duval.436@email.fr,RainierD436,RainierD436999,bisexual,Vos affaires sont toutes là. ,"sport, tv, mountain, lazy, piercing",32_photo_112233.jpeg,3-13-1964,48.8190970000002,2.285118,2
Rolande,Verdier,female,Rolande.Verdier.437@email.fr,RolandeV437,RolandeV437999,bisexual,Je suis content. ,"mountain, geek, tv, music",40_photo_112233.jpeg,3-27-1960,48.8630970000005,2.35111800000001,6
Louis,Buisson,male,Louis.Buisson.438@email.fr,LouisB438,LouisB438999,female,Il est / C'est injuste que ,"sea, lazy, friends, vegan, music",man-3252165_640.jpg,2-13-1952,48.9475970000009,2.47786800000001,9
Jean-marie,Lacombe,male,Jean-marie.Lacombe.439@email.fr,Jean-marieL439,Jean-marieL439999,bisexual,Il est patient. ,"sea, mountain, vegan, lazy",87_photo_112233.jpeg,12-26-1978,48.8405970000003,2.317368,6
Pascal,Langlois,female,Pascal.Langlois.440@email.fr,PascalL440,PascalL440999,female,A bientôt. ,"sport, lazy, vegan, piercing, mountain",mask-4985280_640.jpg,4-26-1955,48.971597000001,2.51386800000001,6
Ignace,Devaux,female,Ignace.Devaux.441@email.fr,IgnaceD441,IgnaceD441999,bisexual,Je ne vous entends pas. ,"tv, sport, mountain, vegan",london-5731175_640.jpg,9-6-1967,48.8405970000003,2.317368,2
Georges,Millet,female,Georges.Millet.442@email.fr,GeorgesM442,GeorgesM442999,male,Je préférerais ne pas (avoir à) me prononcer sur ,"mountain, friends, lazy, sea",105_photo_112233.jpeg,7-19-1959,48.8305970000003,2.302368,4
Franck,Rolland,female,Franck.Rolland.443@email.fr,FranckR443,FranckR443999,bisexual,Je n'en veux pas. ,sea,107_photo_112233.jpeg,2-27-1981,48.9290970000008,2.45011800000001,8
Tatienne,Denis,male,Tatienne.Denis.444@email.fr,TatienneD444,TatienneD444999,female,Est-ce qu'ils l'ont déjà rencontrée ? ,"lazy, mountain, vegan, sport, music",kevin-bacon-83495_640.jpg,3-8-1957,48.9470970000009,2.47711800000001,6
Vespasien,Pinto,female,Vespasien.Pinto.445@email.fr,VespasienP445,VespasienP445999,male,De temps en temps. ,"geek, piercing, music, lazy",45_photo_112233.jpeg,6-13-1986,48.776597,2.221368,3
Anatole,Coulon,male,Anatole.Coulon.446@email.fr,AnatoleC446,AnatoleC446999,bisexual,Vraiment? ,"friends, mountain, sea, vegan, music",people-5987395_640.jpg,7-12-1955,48.8850970000006,2.38411800000001,3
Clothilde,Charpentier,female,Clothilde.Charpentier.447@email.fr,ClothildeC447,ClothildeC447999,male,Depuis combien de temps est tu es en France? ,sport,street-performers-870127_640.jpg,9-19-1963,48.9170970000007,2.43211800000001,3
Gwenaelle,Gonzalez,female,Gwenaelle.Gonzalez.448@email.fr,GwenaelleG448,GwenaelleG448999,female,Je voudrais connaître / avoir votre réaction face à ,"piercing, sea, lazy, mountain",11_photo_112233.jpeg,6-5-1996,48.8630970000005,2.35111800000001,4
Margot,Diallo,female,Margot.Diallo.449@email.fr,MargotD449,MargotD449999,bisexual,J'ai entendu dire que ,"geek, sport, vegan, music",68_photo_112233.jpeg,8-2-1951,48.8675970000005,2.35786800000001,2
Alphonse,Buisson,female,Alphonse.Buisson.450@email.fr,AlphonseB450,AlphonseB450999,male,Pratiquons l'anglais. ,lazy,ramayana-festival-1807516_640.jpg,1-2-1997,48.7900970000001,2.241618,4
Fabrice,Seguin,female,Fabrice.Seguin.451@email.fr,FabriceS451,FabriceS451999,female,Est-ce que tu peux traduire ça pour moi? ,geek,actors-1851317_640.jpg,1-14-1964,48.9035970000006,2.41186800000001,2
Baudouin,Carlier,male,Baudouin.Carlier.452@email.fr,BaudouinC452,BaudouinC452999,male,Elle est courageuse. ,"piercing, lazy, mountain, sport, music",snoop-dog-81879_640.jpg,12-4-1994,48.9005970000006,2.40736800000001,2
Alexandre,Delage,male,Alexandre.Delage.453@email.fr,AlexandreD453,AlexandreD453999,female,Ne t'inquiète pas. ,"music, sea, lazy, vegan, geek",82_photo_112233.jpeg,7-3-1970,48.8195970000002,2.285868,7
Reine,Pasquier,male,Reine.Pasquier.454@email.fr,ReineP454,ReineP454999,male,C'est dommage. ,"sea, tv",9_photo_112233.jpeg,8-10-1956,48.9645970000009,2.50336800000001,9
Modestine,Guyon,male,Modestine.Guyon.455@email.fr,ModestineG455,ModestineG455999,female,J'ai perdu ma montre. ,"piercing, mountain, geek, music",brett-952579_640.jpg,7-6-1957,48.8360970000003,2.310618,4
Louis,Lacombe,male,Louis.Lacombe.456@email.fr,LouisL456,LouisL456999,female,Il est lent. ,"geek, friends, sport, lazy, tv",male-model-7686778_640.jpg,12-17-1980,48.7870970000001,2.237118,8
Christelle,Georges,male,Christelle.Georges.457@email.fr,ChristelleG457,ChristelleG457999,bisexual,Il est mignon. ,"piercing, sea, sport, friends, vegan",snoop-dog-81879_640.jpg,11-15-1975,48.984097000001,2.53261800000001,6
Ghislaine,Launay,female,Ghislaine.Launay.458@email.fr,GhislaineL458,GhislaineL458999,male,Il est très célèbre. ,"lazy, sport, friends, tv",actress-825670_640.jpg,5-6-1990,48.7875970000001,2.237868,5
Lazare,Lecomte,male,Lazare.Lecomte.459@email.fr,LazareL459,LazareL459999,bisexual,J'espère que vous ferez un bon voyage. ,friends,96_photo_112233.jpeg,7-1-1973,48.7795970000001,2.225868,5
Lucinde,Guichard,male,Lucinde.Guichard.460@email.fr,LucindeG460,LucindeG460999,female,"Non, merci. ","vegan, geek, mountain, music",23_photo_112233.jpeg,10-19-1999,48.8215970000003,2.288868,4
Pascal,Martel,female,Pascal.Martel.461@email.fr,PascalM461,PascalM461999,female,La prochaine fois. ,"tv, geek, lazy",woman-7186987_640.jpg,2-21-1958,48.9020970000006,2.40961800000001,9
Jean-marie,Boyer,male,Jean-marie.Boyer.462@email.fr,Jean-marieB462,Jean-marieB462999,bisexual,Elle est courageuse. ,"piercing, geek, vegan, sea, sport",25_photo_112233.jpeg,7-6-1954,48.9430970000008,2.47111800000001,2
Monique,Deschamps,male,Monique.Deschamps.463@email.fr,MoniqueD463,MoniqueD463999,female,Mon père est avocat. ,"sport, friends, piercing",man-3252165_640.jpg,10-5-1958,48.8730970000005,2.36611800000001,7
Gilles,Blin,male,Gilles.Blin.464@email.fr,GillesB464,GillesB464999,female,Je ne veux pas ça. ,"geek, sport, piercing, lazy",58_photo_112233.jpeg,6-17-1966,48.9225970000007,2.44036800000001,2
Dianne,Leclercq,male,Dianne.Leclercq.465@email.fr,DianneL465,DianneL465999,bisexual,Est-ce qu'il a neigé hier? ,"geek, friends, sport, lazy, tv",backstage-951903_640.jpg,8-25-1958,48.7975970000001,2.252868,8
Antoinette,Dos,male,Antoinette.Dos.466@email.fr,AntoinetteD466,AntoinetteD466999,female,A l'aide! ,"sea, geek, friends",jorn-schlonvogt-1202320_640.jpg,1-5-1997,48.9325970000008,2.45536800000001,10
Pierre,Raynaud,female,Pierre.Raynaud.467@email.fr,PierreR467,PierreR467999,male,Il est / C'est évident que ,"geek, friends",107_photo_112233.jpeg,11-3-1964,48.9590970000009,2.49511800000001,3
Julie,Maillard,female,Julie.Maillard.468@email.fr,JulieM468,JulieM468999,male,"Je vais bien, et toi? ","sport, lazy, friends",16_photo_112233.jpeg,2-24-1972,48.8350970000003,2.309118,5
Mirabelle,Vial,female,Mirabelle.Vial.469@email.fr,MirabelleV469,MirabelleV469999,female,J'espère que vous ferez un bon voyage. ,"mountain, sport",89_photo_112233.jpeg,10-12-1991,48.9155970000007,2.42986800000001,7
Chantal,Fontaine,female,Chantal.Fontaine.470@email.fr,ChantalF470,ChantalF470999,male,J'estime que ,sea,12_photo_112233.jpeg,3-7-1992,48.9155970000007,2.42986800000001,3
Honorine,Fischer,female,Honorine.Fischer.471@email.fr,HonorineF471,HonorineF471999,bisexual,Es-tu français? ,"mountain, tv, friends",madame-tussauds-1720457_640.jpg,6-13-1981,48.7865970000001,2.236368,1
Reine,Laroche,male,Reine.Laroche.472@email.fr,ReineL472,ReineL472999,male,J'ai mal à la tête. ,"geek, piercing, sea, music, vegan",people-3365483_640.jpg,1-11-1990,48.8590970000004,2.34511800000001,2
Antoinette,Salmon,male,Antoinette.Salmon.473@email.fr,AntoinetteS473,AntoinetteS473999,female,Est-ce qu'il a neigé hier? ,"sea, vegan, piercing",people-3230020_640.jpg,12-8-1995,48.8865970000006,2.38636800000001,5
Prosper,Bodin,female,Prosper.Bodin.474@email.fr,ProsperB474,ProsperB474999,bisexual,Est-ce que tu vas prendre un avion ou un train? ,"mountain, geek",17_photo_112233.jpeg,12-6-1969,48.8135970000002,2.276868,8
Violette,Gaillard,female,Violette.Gaillard.475@email.fr,VioletteG475,VioletteG475999,bisexual,J'ai déjà mangé. ,"music, mountain",actress-825670_640.jpg,10-14-1996,48.9280970000008,2.44861800000001,3
Toinette,Fouquet,female,Toinette.Fouquet.476@email.fr,ToinetteF476,ToinetteF476999,male,Je pensais que les vêtements étaient plus chers. ,lazy,61_photo_112233.jpeg,6-8-2004,48.8270970000003,2.297118,1
Lucinde,Bouvier,male,Lucinde.Bouvier.477@email.fr,LucindeB477,LucindeB477999,bisexual,J'aimerais connaître / avoir votre avis / opinion sur ,"piercing, vegan",88_photo_112233.jpeg,4-16-1997,48.9355970000008,2.45986800000001,5
Hortense,Tessier,female,Hortense.Tessier.478@email.fr,HortenseT478,HortenseT478999,male,Il est sérieux. ,"sport, geek",90_photo_112233.jpeg,8-6-1995,48.8870970000006,2.38711800000001,5
Laurette,Bousquet,male,Laurette.Bousquet.479@email.fr,LauretteB479,LauretteB479999,bisexual,Je ne parle pas très bien. ,"vegan, mountain, piercing, music, sport",9_photo_112233.jpeg,4-13-1964,48.9040970000007,2.41261800000001,3
Jeanne,Gilbert,female,Jeanne.Gilbert.480@email.fr,JeanneG480,JeanneG480999,female,"Moi, je... ","mountain, sport, friends, geek",81_photo_112233.jpeg,9-14-1994,48.8580970000004,2.343618,5
Florianne,Delorme,male,Florianne.Delorme.481@email.fr,FlorianneD481,FlorianneD481999,female,Ils vont revenir tout de suite. ,"geek, sport, vegan, music",man-4134645_640.jpg,5-23-1989,48.8420970000004,2.319618,4
Amarante,Clerc,male,Amarante.Clerc.482@email.fr,AmaranteC482,AmaranteC482999,female,Elle est paresseuse. ,vegan,brett-952561_640.jpg,5-18-1974,48.7870970000001,2.237118,2
Patrice,Grondin,male,Patrice.Grondin.483@email.fr,PatriceG483,PatriceG483999,male,Est-ce que tu étudies français? ,"music, vegan, mountain",41_photo_112233.jpeg,5-16-1988,48.9215970000007,2.43886800000001,10
Hercule,Fournier,female,Hercule.Fournier.484@email.fr,HerculeF484,HerculeF484999,male,Ma fille est ici. ,"geek, friends, vegan, lazy, music",36_photo_112233.jpeg,7-28-2003,48.9135970000007,2.42686800000001,5
Hortense,Perrier,female,Hortense.Perrier.485@email.fr,HortenseP485,HortenseP485999,male,J'ai mal à la tête. ,music,27_photo_112233.jpeg,5-7-1990,48.9490970000009,2.48011800000001,8
Blanche,Roux,male,Blanche.Roux.486@email.fr,BlancheR486,BlancheR486999,female,Il a les yeux bleus. ,"sea, sport, piercing",112_photo_112233.jpeg,3-2-1968,48.9650970000009,2.50411800000001,9
Lucie,Toussaint,female,Lucie.Toussaint.487@email.fr,LucieT487,LucieT487999,female,Chicago est très différente de Boston. ,vegan,45_photo_112233.jpeg,5-15-1953,48.8030970000002,2.261118,5
Loic,Delorme,female,Loic.Delorme.488@email.fr,LoicD488,LoicD488999,male,Peter a les cheveux noirs. ,"music, lazy, vegan, sea, friends",28_photo_112233.jpeg,12-22-1955,48.8740970000005,2.36761800000001,3
Apolline,Loiseau,female,Apolline.Loiseau.489@email.fr,ApollineL489,ApollineL489999,male,"Si vous avez besoin de mon aide, faites-le-moi savoir s'il vous plaît. ","sport, geek, sea",65_photo_112233.jpeg,11-4-1986,48.9000970000006,2.40661800000001,10
Florentin,Rolland,male,Florentin.Rolland.490@email.fr,FlorentinR490,FlorentinR490999,female,Que pensez-vous de ,music,38_photo_112233.jpeg,6-3-1996,48.8250970000003,2.294118,2
Reine,Dupuy,male,Reine.Dupuy.491@email.fr,ReineD491,ReineD491999,bisexual,Plus que ça. ,"geek, piercing, tv",acteur1.png,1-24-1970,48.8790970000005,2.37511800000001,10
Morgane,Fabre,female,Morgane.Fabre.492@email.fr,MorganeF492,MorganeF492999,female,Je voudrais connaître / avoir votre avis / opinion sur ,"geek, sport, music",street-performers-870119_640.jpg,9-25-2004,48.8690970000005,2.36011800000001,1
Fabrice,Le,female,Fabrice.Le.493@email.fr,FabriceL493,FabriceL493999,male,A bientôt. ,"friends, music, sea, geek, piercing",34_photo_112233.jpeg,6-12-1990,48.984097000001,2.53261800000001,2
Marcelle,Allard,female,Marcelle.Allard.494@email.fr,MarcelleA494,MarcelleA494999,male,Ils sont très occupés. ,sport,street-performers-870119_640.jpg,5-18-1988,48.8290970000003,2.300118,3
Prosper,Guerin,female,Prosper.Guerin.495@email.fr,ProsperG495,ProsperG495999,male,Est-ce que tu aimes ce livre? ,music,37_photo_112233.jpeg,9-26-1974,48.8165970000002,2.281368,3
Yseult,Morvan,female,Yseult.Morvan.496@email.fr,YseultM496,YseultM496999,male,Juste là. ,"vegan, sea, tv",35_photo_112233.jpeg,9-24-1970,48.8105970000002,2.272368,3
Gaetane,Huet,male,Gaetane.Huet.497@email.fr,GaetaneH497,GaetaneH497999,bisexual,Selon moi ,sport,Jason_Statham_2018.jpg,1-16-1995,48.7790970000001,2.225118,4
Rosette,Noel,male,Rosette.Noel.498@email.fr,RosetteN498,RosetteN498999,bisexual,Rien d'autre. ,"geek, piercing, music, lazy",brett-952573_640.jpg,8-3-1991,48.8405970000003,2.317368,8
Anselme,Gilles,male,Anselme.Gilles.499@email.fr,AnselmeG499,AnselmeG499999,male,Je suis sûr que ,"mountain, sea",portrait-3060106_640.jpg,3-15-1962,48.769597,2.210868,1
Hercule,Caron,female,Hercule.Caron.500@email.fr,HerculeC500,HerculeC500999,male,Est-ce que tu fais du sport? ,"mountain, tv, geek",81_photo_112233.jpeg,11-27-1973,48.9445970000008,2.47336800000001,6
Perrine,Gauthier,male,Perrine.Gauthier.501@email.fr,PerrineG501,PerrineG501999,bisexual,Cette voiture ressemble à ma voiture. ,"geek, piercing",aamir-tameen-867782_640.jpg,5-22-1983,48.8770970000005,2.37211800000001,10
Oriane,Denis,male,Oriane.Denis.502@email.fr,OrianeD502,OrianeD502999,male,À votre avis ,"lazy, sea, sport, tv, mountain",jorn-schlonvogt-1202320_640.jpg,3-9-1970,48.9600970000009,2.49661800000001,9
Felicien,Mercier,male,Felicien.Mercier.503@email.fr,FelicienM503,FelicienM503999,male,Arrête! ,"geek, mountain",mountain-5823822_640.jpg,2-20-1994,48.8150970000002,2.279118,1
Nadine,Ollivier,male,Nadine.Ollivier.504@email.fr,NadineO504,NadineO504999,bisexual,Où es-tu allé ? ,"lazy, sea, sport, tv, mountain",112_photo_112233.jpeg,7-6-1952,48.8050970000002,2.264118,9
Corinne,Lombard,female,Corinne.Lombard.505@email.fr,CorinneL505,CorinneL505999,female,Ça sent mauvais. ,"sport, tv, sea",holland-315604_640.jpg,5-9-1977,48.7935970000001,2.246868,3
Mariette,Renaud,male,Mariette.Renaud.506@email.fr,MarietteR506,MarietteR506999,bisexual,A quelle école est-ce que tu es allé? ,"lazy, tv",horse-144550_640.jpg,1-23-1986,48.8020970000002,2.259618,6
Philippine,Prevost,female,Philippine.Prevost.507@email.fr,PhilippineP507,PhilippineP507999,female,Selon moi ,"vegan, mountain, friends",mount-saint-helens-4395977_640.jpg,8-8-1982,48.9585970000009,2.49436800000001,8
Benoit,Dufour,male,Benoit.Dufour.508@email.fr,BenoitD508,BenoitD508999,female,J'allais quitter le restaurant quand mes amis sont arrivés. ,"sea, geek, tv",man-3252165_640.jpg,11-16-1974,48.8000970000001,2.256618,2
Berthe,Gonzalez,female,Berthe.Gonzalez.509@email.fr,BertheG509,BertheG509999,bisexual,J'ignore tout de ,"lazy, piercing",cafe-1699128_640.jpg,8-18-1983,48.9080970000007,2.41861800000001,9
Christine,Delmas,male,Christine.Delmas.510@email.fr,ChristineD510,ChristineD510999,bisexual,Avez-vous une opinion sur ,"geek, piercing",79_photo_112233.jpeg,9-28-1995,48.8795970000005,2.37586800000001,8
Colette,Colas,female,Colette.Colas.511@email.fr,ColetteC511,ColetteC511999,bisexual,Est-ce que ça suffit? ,"mountain, vegan, sea",street-performers-870119_640.jpg,7-23-1984,48.7830970000001,2.231118,3
